{"filename":"-100.5-35.25","collections":[{"name":"restaurants","data":[{"_id":"5c3d65bd3525a329e0c0fed7","address":"101 W Hwy 66","location":{"type":"Point","coordinates":[-100.608921,35.234206]},"isApproved":true,"items":[],"keys":["Steakhouses","Sandwiches"],"lastUpdated":1547527612609,"name":"Red River Steakhouse","phone":"(806) 779-8940","price":"$$","reviewCount":39,"reviewScore":4,"meta":{"revision":0,"created":1547531148535,"version":0},"$loki":1},{"_id":"5c3d65bd3525a329e0c031c5","address":"211 Main St","location":{"type":"Point","coordinates":[-100.599972680211,35.2328498117951]},"isApproved":true,"items":[],"keys":["Breakfast & Brunch","Burgers","American (Traditional)"],"lastUpdated":1547527612296,"name":"Chuckwagon","phone":"(806) 779-0600","price":"$","reviewCount":35,"reviewScore":4.5,"meta":{"revision":0,"created":1547531148535,"version":0},"$loki":2},{"_id":"5c3d65bd3525a329e0c081a6","address":"Hwy 83","location":{"type":"Point","coordinates":[-100.271729415413,35.4280114304401]},"isApproved":true,"items":[],"keys":["Steakhouses"],"lastUpdated":1547527612419,"name":"Maxey’s Steakhouse","phone":"(806) 826-3441","price":"$$","reviewCount":8,"reviewScore":4.5,"meta":{"revision":0,"created":1547531148535,"version":0},"$loki":3},{"_id":"5c3d65bd3525a329e0c14660","address":"708 E Oklahoma Ave","location":{"type":"Point","coordinates":[-100.2638463,35.4443024]},"isApproved":true,"items":[],"keys":["Restaurants"],"lastUpdated":1547527612715,"name":"Sotos Family Restaurant","phone":"(806) 826-3129","price":"","reviewCount":2,"reviewScore":5,"meta":{"revision":0,"created":1547531148535,"version":0},"$loki":4},{"_id":"5c3d65bd3525a329e0c08a2c","address":"Highway 83","location":{"type":"Point","coordinates":[-100.272176,35.4453291]},"isApproved":true,"items":[],"keys":["Restaurants"],"lastUpdated":1547527612430,"name":"MAXEY’S STEAKHOUSE","phone":"(806) 826-3441","price":"","reviewCount":1,"reviewScore":4,"meta":{"revision":0,"created":1547531148535,"version":0},"$loki":5},{"_id":"5c3d65bd3525a329e0c006df","address":"205 E Oklahoma St","location":{"type":"Point","coordinates":[-100.27155,35.445365]},"isApproved":true,"items":[],"keys":["Burgers"],"lastUpdated":1547527612227,"name":"The Spot","phone":"(806) 826-1234","price":"$","reviewCount":6,"reviewScore":3,"meta":{"revision":0,"created":1547531148535,"version":0},"$loki":6},{"_id":"5c3d65bd3525a329e0c0e85e","address":"302 S Alan L Bean Blvd","location":{"type":"Point","coordinates":[-100.272437,35.44557]},"isApproved":true,"items":[],"keys":["Comfort Food"],"lastUpdated":1547527612575,"name":"Kim’s Kitchen","phone":"(806) 826-5102","price":"$","reviewCount":3,"reviewScore":3.5,"meta":{"revision":0,"created":1547531148535,"version":0},"$loki":7},{"_id":"5c3d65bd3525a329e0bff5c9","address":"Intersection 152 &amp; 592","location":{"type":"Point","coordinates":[-100.2794262,35.445035]},"isApproved":true,"items":[],"keys":["American (Traditional)","Breakfast & Brunch"],"lastUpdated":1547527612217,"name":"Donna’s Grill","phone":"(806) 826-0184","price":"","reviewCount":2,"reviewScore":4.5,"meta":{"revision":0,"created":1547531148535,"version":0},"$loki":8},{"_id":"5c3d65bd3525a329e0c0f3a9","address":"706 W Oklahoma Ave","location":{"type":"Point","coordinates":[-100.2817033,35.4449125]},"isApproved":true,"items":[],"keys":["Diners"],"lastUpdated":1547527612592,"name":"Mel’s Diner","phone":"(806) 826-3756","price":"$","reviewCount":12,"reviewScore":3.5,"meta":{"revision":0,"created":1547531148535,"version":0},"$loki":9},{"_id":"5c3d65bd3525a329e0c037e8","address":"6511 US 83","location":{"type":"Point","coordinates":[-100.249137729406,35.2427908033133]},"isApproved":true,"items":[],"keys":["American (Traditional)","Steakhouses"],"lastUpdated":1547527612304,"name":"Mesquite Canyon Steakhouse","phone":"(806) 256-1122","price":"$$","reviewCount":24,"reviewScore":4,"meta":{"revision":0,"created":1547531148535,"version":0},"$loki":10},{"_id":"5c3d65bd3525a329e0c12e93","address":"200 E 12th St","location":{"type":"Point","coordinates":[-100.2476397,35.2259529]},"isApproved":true,"items":[],"keys":["Steakhouses"],"lastUpdated":1547527612687,"name":"Big Vern’s Steakhouse","phone":"(806) 256-2088","price":"$$","reviewCount":141,"reviewScore":4,"meta":{"revision":0,"created":1547531148535,"version":0},"$loki":11},{"_id":"5c3d65bd3525a329e0c0369c","address":"700 E 12th St","location":{"type":"Point","coordinates":[-100.242221,35.226245]},"isApproved":true,"items":[],"keys":["Pizza"],"lastUpdated":1547527612303,"name":"Hot Rod Pizza","phone":"(806) 256-2129","price":"$$","reviewCount":6,"reviewScore":4.5,"meta":{"revision":0,"created":1547531148535,"version":0},"$loki":12},{"_id":"5c3d65bd3525a329e0c0441d","address":"Interstate 40 Hwy 83","location":{"type":"Point","coordinates":[-100.249651,35.2292843]},"isApproved":true,"items":[],"keys":["Sandwiches","Fast Food"],"lastUpdated":1547527612322,"name":"Subway","phone":"(806) 256-3714","price":"","reviewCount":6,"reviewScore":2,"meta":{"revision":0,"created":1547531148535,"version":0},"$loki":13},{"_id":"5c3d65bd3525a329e0c12df1","address":"203 E 18th St","location":{"type":"Point","coordinates":[-100.249005533413,35.2321000832589]},"isApproved":true,"items":[],"keys":["Mexican","Salad","Burgers"],"lastUpdated":1547527612681,"name":"Hasty’s","phone":"(806) 256-3061","price":"","reviewCount":3,"reviewScore":4,"meta":{"revision":0,"created":1547531148535,"version":0},"$loki":14},{"_id":"5c3d65bd3525a329e0c05e15","address":"2400 S 4th Rte","location":{"type":"Point","coordinates":[-100.249533355236,35.2286254371334]},"isApproved":true,"items":[],"keys":["American (Traditional)","Breakfast & Brunch","Diners"],"lastUpdated":1547527612362,"name":"Denny’s","phone":"(580) 928-9393","price":"$$","reviewCount":15,"reviewScore":3,"meta":{"revision":0,"created":1547531148535,"version":0},"$loki":15},{"_id":"5c3d65bd3525a329e0c0254b","address":"101 N Louis Tittle Ave","location":{"type":"Point","coordinates":[-100.249144963787,35.2117908426457]},"isApproved":true,"items":[],"keys":["Sandwiches","Fast Food"],"lastUpdated":1547527612278,"name":"Subway","phone":"(580) 782-2475","price":"","reviewCount":1,"reviewScore":1,"meta":{"revision":0,"created":1547531148535,"version":0},"$loki":16},{"_id":"5c3d65bd3525a329e0c05957","address":"210 S Main St","location":{"type":"Point","coordinates":[-100.249144963787,35.2117908426457]},"isApproved":true,"items":[],"keys":["Mexican"],"lastUpdated":1547527612355,"name":"El Sombrero","phone":"(806) 256-2091","price":"","reviewCount":1,"reviewScore":1,"meta":{"revision":0,"created":1547531148535,"version":0},"$loki":17},{"_id":"5c3d65bd3525a329e0c134b4","address":"117 E Railroad Ave","location":{"type":"Point","coordinates":[-100.2482494,35.2141934]},"isApproved":true,"items":[],"keys":["American (Traditional)"],"lastUpdated":1547527612690,"name":"The Roost","phone":"(806) 256-2297","price":"$","reviewCount":57,"reviewScore":4.5,"meta":{"revision":0,"created":1547531148535,"version":0},"$loki":18}],"idIndex":[1,2,3,4,5,6,7,8,9,10,11,12,13,14,15,16,17,18],"binaryIndices":{},"constraints":null,"uniqueNames":[],"transforms":{},"objType":"restaurants","dirty":true,"cachedIndex":null,"cachedBinaryIndex":null,"cachedData":null,"adaptiveBinaryIndices":true,"transactional":false,"cloneObjects":false,"cloneMethod":"parse-stringify","asyncListeners":false,"disableMeta":false,"disableChangesApi":true,"disableDeltaChangesApi":true,"autoupdate":false,"serializableIndices":true,"ttl":null,"maxId":18,"DynamicViews":[],"events":{"insert":[],"update":[],"pre-insert":[],"pre-update":[],"close":[],"flushbuffer":[],"error":[],"delete":[null],"warning":[null]},"changes":[]}],"databaseVersion":1.5,"engineVersion":1.5,"autosave":false,"autosaveInterval":5000,"autosaveHandle":null,"throttledSaves":true,"options":{"serializationMethod":"normal","destructureDelimiter":"$<\n"},"persistenceMethod":"fs","persistenceAdapter":null,"verbose":false,"events":{"init":[null],"loaded":[],"flushChanges":[],"close":[],"changes":[],"warning":[]},"ENV":"NODEJS"}