{"filename":"-101-22","collections":[{"name":"restaurants","data":[{"_id":"5c3d65bd3525a329e0c0d03a","address":"Pascual M. Hernández 800","location":{"type":"Point","coordinates":[-100.989857448844,22.1388640874334]},"isApproved":true,"items":[],"keys":["Steakhouses","Beer Bar"],"lastUpdated":1547527612544,"name":"Fieles Difuntos","phone":"444 328 1966","price":"","reviewCount":1,"reviewScore":4,"meta":{"revision":0,"created":1547531155841,"version":0},"$loki":1},{"_id":"5c3d65bd3525a329e0c18756","address":"Alfredo M. Terrazas 490","location":{"type":"Point","coordinates":[-100.9827103,22.1399303]},"isApproved":true,"items":[],"keys":["Mexican"],"lastUpdated":1547527612821,"name":"Doña Blanca","phone":"444 811 8723","price":"$","reviewCount":2,"reviewScore":5,"meta":{"revision":0,"created":1547531155841,"version":0},"$loki":2},{"_id":"5c3d65bd3525a329e0c1b477","address":"Av. Venustiano Carranza 560","location":{"type":"Point","coordinates":[-100.981812103992,22.1512183167615]},"isApproved":true,"items":[],"keys":["Spanish"],"lastUpdated":1547527612885,"name":"La Gran Via","phone":"444 812 3633","price":"$$$","reviewCount":7,"reviewScore":4.5,"meta":{"revision":0,"created":1547531155841,"version":0},"$loki":3},{"_id":"5c3d65bd3525a329e0c09487","address":"Av. Venustiano Carranza 700","location":{"type":"Point","coordinates":[-100.982610688027,22.1511122599437]},"isApproved":true,"items":[],"keys":["Mexican","Wine Bars"],"lastUpdated":1547527612453,"name":"Cielo Tinto","phone":"444 814 0040","price":"$$","reviewCount":22,"reviewScore":4.5,"meta":{"revision":0,"created":1547531155841,"version":0},"$loki":4},{"_id":"5c3d65bd3525a329e0c0c43e","address":"Alfredo M. Terrazas 600","location":{"type":"Point","coordinates":[-100.985112024079,22.150884272306]},"isApproved":true,"items":[],"keys":["Mexican"],"lastUpdated":1547527612524,"name":"El Pozole","phone":"444 813 1100","price":"","reviewCount":3,"reviewScore":4.5,"meta":{"revision":0,"created":1547531155841,"version":0},"$loki":5},{"_id":"5c3d65bd3525a329e0c0d196","address":"Sierra Vista 1010","location":{"type":"Point","coordinates":[-100.985120615969,22.1507922053013]},"isApproved":true,"items":[],"keys":["Mexican"],"lastUpdated":1547527612545,"name":"La Fragua Steak Taco","phone":"","price":"","reviewCount":1,"reviewScore":4,"meta":{"revision":0,"created":1547531155841,"version":0},"$loki":6},{"_id":"5c3d65bd3525a329e0c09b62","address":"Montes Blancos 185","location":{"type":"Point","coordinates":[-100.98519808988,22.151853226065]},"isApproved":true,"items":[],"keys":["Creperies"],"lastUpdated":1547527612464,"name":"Bretonas","phone":"444 811 8171","price":"","reviewCount":2,"reviewScore":3,"meta":{"revision":0,"created":1547531155841,"version":0},"$loki":7},{"_id":"5c3d65bd3525a329e0c1b360","address":"Cuauhtemoc 232","location":{"type":"Point","coordinates":[-100.983905,22.148902]},"isApproved":true,"items":[],"keys":["Restaurants"],"lastUpdated":1547527612884,"name":"Rincon Huasteco","phone":"444 814 6003","price":"$","reviewCount":4,"reviewScore":5,"meta":{"revision":0,"created":1547531155841,"version":0},"$loki":8},{"_id":"5c3d65bd3525a329e0c0a53b","address":"Universidad 153","location":{"type":"Point","coordinates":[-100.991788,22.151176]},"isApproved":true,"items":[],"keys":["Mexican"],"lastUpdated":1547527612480,"name":"El Rincon De Don Pancho","phone":"","price":"$","reviewCount":1,"reviewScore":4,"meta":{"revision":0,"created":1547531155841,"version":0},"$loki":9},{"_id":"5c3d65bd3525a329e0c10c7a","address":"Av. Nereo Rodríguez Barragan 450","location":{"type":"Point","coordinates":[-100.9901867,22.1408091]},"isApproved":true,"items":[],"keys":["Tapas/Small Plates","Fast Food","Italian"],"lastUpdated":1547527612633,"name":"Villa","phone":"","price":"","reviewCount":1,"reviewScore":3,"meta":{"revision":0,"created":1547531155841,"version":0},"$loki":10},{"_id":"5c3d65bd3525a329e0c1423d","address":"Blvd San Luis 147","location":{"type":"Point","coordinates":[-100.99375006465,22.1499865238398]},"isApproved":true,"items":[],"keys":["Chicken Wings","Pizza"],"lastUpdated":1547527612713,"name":"Lucky Wings","phone":"444 824 7294","price":"","reviewCount":1,"reviewScore":4,"meta":{"revision":0,"created":1547531155841,"version":0},"$loki":11},{"_id":"5c3d65bd3525a329e0c1b0e2","address":"Av. Salvador Nava Martinez 3125","location":{"type":"Point","coordinates":[-100.993435978889,22.1507869743265]},"isApproved":true,"items":[],"keys":["Steakhouses"],"lastUpdated":1547527612877,"name":"Terracosta","phone":"444 841 5660","price":"","reviewCount":1,"reviewScore":4,"meta":{"revision":0,"created":1547531155841,"version":0},"$loki":12},{"_id":"5c3d65bd3525a329e0c07644","address":"Escobedo 405","location":{"type":"Point","coordinates":[-100.99345240742,22.150966150599]},"isApproved":true,"items":[],"keys":["Mexican"],"lastUpdated":1547527612401,"name":"Las Delicias","phone":"444 814 4644","price":"","reviewCount":1,"reviewScore":1,"meta":{"revision":0,"created":1547531155841,"version":0},"$loki":13},{"_id":"5c3d65bd3525a329e0c1464b","address":"Av. Universidad 165","location":{"type":"Point","coordinates":[-100.994475876951,22.1507610754007]},"isApproved":true,"items":[],"keys":["Cafeteria"],"lastUpdated":1547527612715,"name":"Frailes","phone":"444 812 7375","price":"","reviewCount":7,"reviewScore":3.5,"meta":{"revision":0,"created":1547531155841,"version":0},"$loki":14},{"_id":"5c3d65bd3525a329e0c00bc5","address":"Blvd. San Luis 1630","location":{"type":"Point","coordinates":[-100.994552459674,22.1512940142741]},"isApproved":true,"items":[],"keys":["Seafood","Mexican","Latin American"],"lastUpdated":1547527612230,"name":"El Costeñito","phone":"444 244 5069","price":"","reviewCount":2,"reviewScore":3.5,"meta":{"revision":0,"created":1547531155841,"version":0},"$loki":15},{"_id":"5c3d65bd3525a329e0c1179b","address":"Calle Circuito Ote. 500","location":{"type":"Point","coordinates":[-101.0000288,22.1473765]},"isApproved":true,"items":[],"keys":["Seafood"],"lastUpdated":1547527612650,"name":"Mariscos Atlántico","phone":"","price":"","reviewCount":1,"reviewScore":5,"meta":{"revision":0,"created":1547531155841,"version":0},"$loki":16},{"_id":"5c3d65bd3525a329e0c10784","address":"Av. Benito Juarez 1230","location":{"type":"Point","coordinates":[-101.001263670623,22.1480462010433]},"isApproved":true,"items":[],"keys":["Steakhouses","Mexican"],"lastUpdated":1547527612619,"name":"Sirloin Stockade","phone":"444 166 6861","price":"","reviewCount":1,"reviewScore":2,"meta":{"revision":0,"created":1547531155841,"version":0},"$loki":17},{"_id":"5c3d65bd3525a329e0c03a72","address":"Ave Venustiano Carranza 2090","location":{"type":"Point","coordinates":[-101.000657,22.149605]},"isApproved":true,"items":[],"keys":["Breakfast & Brunch","Coffee & Tea","Juice Bars & Smoothies"],"lastUpdated":1547527612311,"name":"Vips","phone":"","price":"$$","reviewCount":4,"reviewScore":4,"meta":{"revision":0,"created":1547531155841,"version":0},"$loki":18},{"_id":"5c3d65bd3525a329e0c1a7dc","address":"Carretera Mexico Piedras Negras 4120","location":{"type":"Point","coordinates":[-101.002674,22.148837]},"isApproved":true,"items":[],"keys":["Mexican","Steakhouses","Bars"],"lastUpdated":1547527612867,"name":"El 124","phone":"444 824 7424","price":"","reviewCount":1,"reviewScore":3,"meta":{"revision":0,"created":1547531155841,"version":0},"$loki":19},{"_id":"5c3d65bd3525a329e0bfff39","address":"Agustín Vera 815","location":{"type":"Point","coordinates":[-101.001130437434,22.1472145924873]},"isApproved":true,"items":[],"keys":["French"],"lastUpdated":1547527612223,"name":"Le Pic du Midi","phone":"444 812 1455","price":"$$$","reviewCount":2,"reviewScore":3,"meta":{"revision":0,"created":1547531155841,"version":0},"$loki":20},{"_id":"5c3d65bd3525a329e0c0cafa","address":"Estatuto Jurídico 1040","location":{"type":"Point","coordinates":[-100.9977243,22.1446152]},"isApproved":true,"items":[],"keys":["Steakhouses","Seafood","Mediterranean"],"lastUpdated":1547527612533,"name":"Los Toneles","phone":"444 817 9230","price":"","reviewCount":1,"reviewScore":5,"meta":{"revision":0,"created":1547531155841,"version":0},"$loki":21},{"_id":"5c3d65bd3525a329e0c10d7f","address":"Calle Cordillera de los Himalaya 894","location":{"type":"Point","coordinates":[-100.999317,22.142189]},"isApproved":true,"items":[],"keys":["Mexican"],"lastUpdated":1547527612633,"name":"El Rincón Tarasco","phone":"444 151 0079","price":"","reviewCount":1,"reviewScore":3,"meta":{"revision":0,"created":1547531155841,"version":0},"$loki":22},{"_id":"5c3d65bd3525a329e0c1ad00","address":"Ignacio Zaragoza 305","location":{"type":"Point","coordinates":[-100.99894,22.140171]},"isApproved":true,"items":[],"keys":["Mexican","Breakfast & Brunch","Latin American"],"lastUpdated":1547527612875,"name":"Cafe Tokio","phone":"444 814 6189","price":"","reviewCount":1,"reviewScore":1,"meta":{"revision":0,"created":1547531155841,"version":0},"$loki":23},{"_id":"5c3d65bd3525a329e0c175fe","address":"Calle Francisco Peña 1275","location":{"type":"Point","coordinates":[-101.0015448,22.1418902]},"isApproved":true,"items":[],"keys":["Italian","Cafeteria","Pizza"],"lastUpdated":1547527612791,"name":"Queen Mamma","phone":"444 811 9746","price":"$","reviewCount":3,"reviewScore":4.5,"meta":{"revision":0,"created":1547531155841,"version":0},"$loki":24},{"_id":"5c3d65bd3525a329e0bffcf5","address":"","location":{"type":"Point","coordinates":[-101.000922943783,22.1381218081312]},"isApproved":true,"items":[],"keys":["Argentine"],"lastUpdated":1547527612221,"name":"argentino","phone":"","price":"","reviewCount":2,"reviewScore":4.5,"meta":{"revision":0,"created":1547531155841,"version":0},"$loki":25},{"_id":"5c3d65bd3525a329e0c00ea6","address":"Calle Cordillera de los Himalaya 892","location":{"type":"Point","coordinates":[-101.000655230131,22.1381571023821]},"isApproved":true,"items":[],"keys":["Italian","Pizza"],"lastUpdated":1547527612237,"name":"Cottolengo","phone":"444 688 1788","price":"","reviewCount":1,"reviewScore":5,"meta":{"revision":0,"created":1547531155841,"version":0},"$loki":26},{"_id":"5c3d65bd3525a329e0c1a9ff","address":"Av. Universidad 1620C","location":{"type":"Point","coordinates":[-101.001600276439,22.1372749048654]},"isApproved":true,"items":[],"keys":["Mexican","Latin American"],"lastUpdated":1547527612868,"name":"Tacos La Guadalupana","phone":"","price":"","reviewCount":1,"reviewScore":5,"meta":{"revision":0,"created":1547531155841,"version":0},"$loki":27},{"_id":"5c3d65bd3525a329e0c01f00","address":"Av. Universidad 153","location":{"type":"Point","coordinates":[-100.995095509657,22.137398635801]},"isApproved":true,"items":[],"keys":["Bars","Mexican"],"lastUpdated":1547527612261,"name":"Callejon 7B","phone":"444 812 4868","price":"","reviewCount":2,"reviewScore":4.5,"meta":{"revision":0,"created":1547531155841,"version":0},"$loki":28},{"_id":"5c3d65bd3525a329e0c08926","address":"Av. Constitución 250","location":{"type":"Point","coordinates":[-101.0078583,22.1378727]},"isApproved":true,"items":[],"keys":["Mexican","Venues & Event Spaces"],"lastUpdated":1547527612429,"name":"San Carlos","phone":"444 814 7534","price":"","reviewCount":1,"reviewScore":1,"meta":{"revision":0,"created":1547531155841,"version":0},"$loki":29},{"_id":"5c3d65bd3525a329e0c0c457","address":"Parque Chapultepec 404","location":{"type":"Point","coordinates":[-101.006487937459,22.1352624607514]},"isApproved":true,"items":[],"keys":["Breakfast & Brunch","Mexican"],"lastUpdated":1547527612524,"name":"Mesón de San Pascual","phone":"444 841 5182","price":"","reviewCount":3,"reviewScore":5,"meta":{"revision":0,"created":1547531155841,"version":0},"$loki":30},{"_id":"5c3d65bd3525a329e0c1348f","address":"Terrazas 600","location":{"type":"Point","coordinates":[-101.0044863,22.147891]},"isApproved":true,"items":[],"keys":["Mexican"],"lastUpdated":1547527612690,"name":"Antojitos el Pozole","phone":"444 813 0751","price":"$","reviewCount":1,"reviewScore":3,"meta":{"revision":0,"created":1547531155841,"version":0},"$loki":31},{"_id":"5c3d65bd3525a329e0c03205","address":"Mariano Escobedo 410","location":{"type":"Point","coordinates":[-101.00390765816,22.1490557533592]},"isApproved":true,"items":[],"keys":["Mexican","Sandwiches"],"lastUpdated":1547527612296,"name":"Tortas Richards","phone":"444 812 9467","price":"","reviewCount":1,"reviewScore":4,"meta":{"revision":0,"created":1547531155841,"version":0},"$loki":32},{"_id":"5c3d65bd3525a329e0c1b4ff","address":"Mariano Arista 1025","location":{"type":"Point","coordinates":[-101.003848669907,22.1486336766027]},"isApproved":true,"items":[],"keys":["Japanese","Cocktail Bars"],"lastUpdated":1547527612885,"name":"Kabuki","phone":"444 833 2785","price":"","reviewCount":2,"reviewScore":4.5,"meta":{"revision":0,"created":1547531155841,"version":0},"$loki":33},{"_id":"5c3d65bd3525a329e0c15dc4","address":"Av. Himno Nacion 206","location":{"type":"Point","coordinates":[-101.006107,22.149516]},"isApproved":true,"items":[],"keys":["Sandwiches"],"lastUpdated":1547527612755,"name":"Tortas Las Tradicionales","phone":"444 833 7530","price":"","reviewCount":1,"reviewScore":5,"meta":{"revision":0,"created":1547531155841,"version":0},"$loki":34},{"_id":"5c3d65bd3525a329e0c13e3e","address":"Valentin Gama 646","location":{"type":"Point","coordinates":[-101.007392725676,22.1482470427048]},"isApproved":true,"items":[],"keys":["Mexican"],"lastUpdated":1547527612706,"name":"El México de Frida","phone":"444 811 4603","price":"$$$","reviewCount":6,"reviewScore":4.5,"meta":{"revision":0,"created":1547531155841,"version":0},"$loki":35},{"_id":"5c3d65bd3525a329e0c14b22","address":"Av. Venustiano Carranza 2030","location":{"type":"Point","coordinates":[-101.0063588,22.1494284]},"isApproved":true,"items":[],"keys":["Pizza","Seafood","Steakhouses"],"lastUpdated":1547527612728,"name":"Trashumante","phone":"444 811 6093","price":"$$","reviewCount":2,"reviewScore":5,"meta":{"revision":0,"created":1547531155841,"version":0},"$loki":36},{"_id":"5c3d65bd3525a329e0c0d7ce","address":"Av. Nicolás Zapata 535 F","location":{"type":"Point","coordinates":[-101.008131182573,22.1493268528991]},"isApproved":true,"items":[],"keys":["Mexican","Burgers","Sandwiches"],"lastUpdated":1547527612554,"name":"Baguetti’s","phone":"444 353 0381","price":"$","reviewCount":1,"reviewScore":3,"meta":{"revision":0,"created":1547531155841,"version":0},"$loki":37},{"_id":"5c3d65bd3525a329e0c01342","address":"Calle Independencia 1190","location":{"type":"Point","coordinates":[-101.008225,22.146292]},"isApproved":true,"items":[],"keys":["Bars","Mexican"],"lastUpdated":1547527612248,"name":"La Piqueria Mezcaleria","phone":"444 814 7395","price":"$","reviewCount":4,"reviewScore":4,"meta":{"revision":0,"created":1547531155841,"version":0},"$loki":38},{"_id":"5c3d65bd3525a329e0c10e45","address":"Plaza Citadela, s/n","location":{"type":"Point","coordinates":[-101.012388,22.1473503]},"isApproved":true,"items":[],"keys":["Bistros"],"lastUpdated":1547527612634,"name":"WinePark","phone":"444 688 0994","price":"","reviewCount":1,"reviewScore":4,"meta":{"revision":0,"created":1547531155841,"version":0},"$loki":39},{"_id":"5c3d65bd3525a329e0c019d6","address":"Av. Himno Nacional 4435","location":{"type":"Point","coordinates":[-101.013689481071,22.1483686709118]},"isApproved":true,"items":[],"keys":["Mexican"],"lastUpdated":1547527612257,"name":"Las Cazuelas","phone":"444 138 7115","price":"","reviewCount":1,"reviewScore":5,"meta":{"revision":0,"created":1547531155841,"version":0},"$loki":40},{"_id":"5c3d65bd3525a329e0c1821f","address":"Av. Tercer Milenio 265","location":{"type":"Point","coordinates":[-101.010150834918,22.1435001758269]},"isApproved":true,"items":[],"keys":["Breakfast & Brunch","Mexican"],"lastUpdated":1547527612809,"name":"IHOP","phone":"444 835 6095","price":"","reviewCount":1,"reviewScore":4,"meta":{"revision":0,"created":1547531155841,"version":0},"$loki":41},{"_id":"5c3d65bd3525a329e0c09f3b","address":"Av.  Venustiano Carranza 780","location":{"type":"Point","coordinates":[-101.0113297,22.1415462]},"isApproved":true,"items":[],"keys":["Cafeteria","Mexican"],"lastUpdated":1547527612472,"name":"La Parroquia","phone":"444 812 6681","price":"","reviewCount":1,"reviewScore":5,"meta":{"revision":0,"created":1547531155841,"version":0},"$loki":42},{"_id":"5c3d65bd3525a329e0c1a25a","address":"Prol. Nereo Rodriguez Barragán 450","location":{"type":"Point","coordinates":[-101.0173132,22.1479489]},"isApproved":true,"items":[],"keys":["American (Traditional)","Steakhouses","Barbeque"],"lastUpdated":1547527612858,"name":"Tony Roma’s","phone":"444 833 8775","price":"$$","reviewCount":3,"reviewScore":3,"meta":{"revision":0,"created":1547531155841,"version":0},"$loki":43},{"_id":"5c3d65bd3525a329e0c0ec9d","address":"Av. Venustiano Carranza 780","location":{"type":"Point","coordinates":[-101.018582,22.145363]},"isApproved":true,"items":[],"keys":["Mexican","Buffets"],"lastUpdated":1547527612582,"name":"La Nueva Parroquia","phone":"444 814 7032","price":"$$","reviewCount":4,"reviewScore":3.5,"meta":{"revision":0,"created":1547531155841,"version":0},"$loki":44},{"_id":"5c3d65bd3525a329e0c19d29","address":"M J Clouthier 104","location":{"type":"Point","coordinates":[-101.020438900359,22.1448044402218]},"isApproved":true,"items":[],"keys":["Italian"],"lastUpdated":1547527612850,"name":"Buonarroti","phone":"444 817 5286","price":"","reviewCount":2,"reviewScore":4,"meta":{"revision":0,"created":1547531155841,"version":0},"$loki":45},{"_id":"5c3d65bd3525a329e0c158bc","address":"Sierra Leona 401","location":{"type":"Point","coordinates":[-101.0246463,22.1460717]},"isApproved":true,"items":[],"keys":["Gastropubs","Mexican"],"lastUpdated":1547527612747,"name":"Panqueso","phone":"444 825 0037","price":"$$","reviewCount":1,"reviewScore":5,"meta":{"revision":0,"created":1547531155841,"version":0},"$loki":46},{"_id":"5c3d65bd3525a329e0c0d1fd","address":"18 de Marzo 115","location":{"type":"Point","coordinates":[-101.024487,22.143103]},"isApproved":true,"items":[],"keys":["Tacos"],"lastUpdated":1547527612545,"name":"La Flama","phone":"","price":"","reviewCount":1,"reviewScore":5,"meta":{"revision":0,"created":1547531155841,"version":0},"$loki":47},{"_id":"5c3d65bd3525a329e0c0649a","address":"Montes Verdes 230","location":{"type":"Point","coordinates":[-101.02288,22.1428743]},"isApproved":true,"items":[],"keys":["Burgers"],"lastUpdated":1547527612371,"name":"The Butcher Burger","phone":"444 811 8025","price":"$$","reviewCount":1,"reviewScore":5,"meta":{"revision":0,"created":1547531155841,"version":0},"$loki":48},{"_id":"5c3d65bd3525a329e0c0f4a5","address":"Carranza 447","location":{"type":"Point","coordinates":[-101.022491,22.142738]},"isApproved":true,"items":[],"keys":["Pizza","Italian","Mexican"],"lastUpdated":1547527612592,"name":"La Santissima","phone":"444 812 3755","price":"","reviewCount":3,"reviewScore":3.5,"meta":{"revision":0,"created":1547531155841,"version":0},"$loki":49},{"_id":"5c3d65bd3525a329e0c054b6","address":"10th Av. 21 Juarez","location":{"type":"Point","coordinates":[-101.02143924582,22.140649262086]},"isApproved":true,"items":[],"keys":["Mexican"],"lastUpdated":1547527612347,"name":"Abuelo Gerardo","phone":"97 887 21012","price":"","reviewCount":1,"reviewScore":5,"meta":{"revision":0,"created":1547531155841,"version":0},"$loki":50},{"_id":"5c3d65bd3525a329e0c17c8b","address":"Sierra Leona 710","location":{"type":"Point","coordinates":[-101.019902005792,22.1378186024883]},"isApproved":true,"items":[],"keys":["Steakhouses"],"lastUpdated":1547527612800,"name":"Gran Central","phone":"444 813 0302","price":"","reviewCount":6,"reviewScore":4.5,"meta":{"revision":0,"created":1547531155841,"version":0},"$loki":51},{"_id":"5c3d65bd3525a329e0c0f56e","address":"Libramiento Sur 720","location":{"type":"Point","coordinates":[-101.019485665607,22.130536342384]},"isApproved":true,"items":[],"keys":["Mexican","Music Venues","Breweries"],"lastUpdated":1547527612593,"name":"La Legendaria","phone":"444 833 5374","price":"$$","reviewCount":7,"reviewScore":4.5,"meta":{"revision":0,"created":1547531155841,"version":0},"$loki":52},{"_id":"5c3d65bd3525a329e0c03f03","address":"Av. Nicolás Zapata 974","location":{"type":"Point","coordinates":[-101.014642344439,22.1316021957543]},"isApproved":true,"items":[],"keys":["Mexican"],"lastUpdated":1547527612314,"name":"Taqueria Arandas","phone":"444 839 0577","price":"$","reviewCount":6,"reviewScore":4,"meta":{"revision":0,"created":1547531155841,"version":0},"$loki":53},{"_id":"5c3d65bd3525a329e0c1a76f","address":"Prolongación Coronel Romero 399","location":{"type":"Point","coordinates":[-101.015320178234,22.1281941574983]},"isApproved":true,"items":[],"keys":["Mexican"],"lastUpdated":1547527612866,"name":"Los Pinoles","phone":"444 820 9269","price":"$","reviewCount":1,"reviewScore":5,"meta":{"revision":0,"created":1547531155841,"version":0},"$loki":54},{"_id":"5c3d65bd3525a329e0c1621a","address":"Av. Parque Chapultepec 1335","location":{"type":"Point","coordinates":[-101.019302532077,22.1211995778466]},"isApproved":true,"items":[],"keys":["Cafeteria","Breakfast & Brunch"],"lastUpdated":1547527612763,"name":"Refugio Tierra","phone":"","price":"","reviewCount":3,"reviewScore":5,"meta":{"revision":0,"created":1547531155841,"version":0},"$loki":55},{"_id":"5c3d65bd3525a329e0c12001","address":"Av. Venustiano Carranza 2020","location":{"type":"Point","coordinates":[-101.0194541,22.1234363]},"isApproved":true,"items":[],"keys":["Cafeteria","Mexican"],"lastUpdated":1547527612663,"name":"Los Bisquets Obregón","phone":"444 817 7612","price":"$$","reviewCount":2,"reviewScore":4,"meta":{"revision":0,"created":1547531155841,"version":0},"$loki":56},{"_id":"5c3d65bd3525a329e0c00cfe","address":"Julio Betancourt 148","location":{"type":"Point","coordinates":[-101.031403752104,22.1273902598416]},"isApproved":true,"items":[],"keys":["Mexican","Breakfast & Brunch"],"lastUpdated":1547527612231,"name":"La Puertita","phone":"444 817 9239","price":"$$","reviewCount":1,"reviewScore":5,"meta":{"revision":0,"created":1547531155841,"version":0},"$loki":57},{"_id":"5c3d65bd3525a329e0c0fcc9","address":"Camino a Simón Díaz 155","location":{"type":"Point","coordinates":[-101.031216209326,22.1269730415311]},"isApproved":true,"items":[],"keys":["Mexican"],"lastUpdated":1547527612607,"name":"Los Compadres","phone":"444 820 0106","price":"","reviewCount":1,"reviewScore":5,"meta":{"revision":0,"created":1547531155841,"version":0},"$loki":58},{"_id":"5c3d65bd3525a329e0c06ee2","address":"Avenida Venustiano Carranza 1320","location":{"type":"Point","coordinates":[-101.032094,22.126991]},"isApproved":true,"items":[],"keys":["Sushi Bars"],"lastUpdated":1547527612388,"name":"Shiroi-ie","phone":"","price":"","reviewCount":4,"reviewScore":3,"meta":{"revision":0,"created":1547531155841,"version":0},"$loki":59},{"_id":"5c3d65bd3525a329e0c0d0d6","address":"Av. Tercer Milenio 255","location":{"type":"Point","coordinates":[-101.033026,22.127884]},"isApproved":true,"items":[],"keys":["Korean"],"lastUpdated":1547527612545,"name":"Good Dak","phone":"444 835 6008","price":"","reviewCount":1,"reviewScore":5,"meta":{"revision":0,"created":1547531155841,"version":0},"$loki":60},{"_id":"5c3d65bd3525a329e0c0a82d","address":"Av. Eugenio Garza Sada 200","location":{"type":"Point","coordinates":[-101.0339292,22.1301001]},"isApproved":true,"items":[],"keys":["Mexican"],"lastUpdated":1547527612482,"name":"Casa Altero","phone":"444 460 1058","price":"","reviewCount":1,"reviewScore":5,"meta":{"revision":0,"created":1547531155841,"version":0},"$loki":61},{"_id":"5c3d65bd3525a329e0c021c7","address":"Capitán Caldera 430","location":{"type":"Point","coordinates":[-101.0287945,22.141181]},"isApproved":true,"items":[],"keys":["Irish Pub","Pizza"],"lastUpdated":1547527612276,"name":"Patrick’s","phone":"444 811 9470","price":"$$","reviewCount":2,"reviewScore":4,"meta":{"revision":0,"created":1547531155841,"version":0},"$loki":62},{"_id":"5c3d65bd3525a329e0c10e53","address":"Av.  Cuauhtemoc 1645","location":{"type":"Point","coordinates":[-101.036740759577,22.1447754627704]},"isApproved":true,"items":[],"keys":["Seafood"],"lastUpdated":1547527612634,"name":"La Bocana II","phone":"444 817 6260","price":"","reviewCount":1,"reviewScore":5,"meta":{"revision":0,"created":1547531155841,"version":0},"$loki":63},{"_id":"5c3d65bd3525a329e0c0ede2","address":"Cordillera Occidental 606","location":{"type":"Point","coordinates":[-101.03397,22.14216]},"isApproved":true,"items":[],"keys":["Italian","Mediterranean"],"lastUpdated":1547527612582,"name":"Il Caruso","phone":"444 688 8001","price":"","reviewCount":1,"reviewScore":3,"meta":{"revision":0,"created":1547531155841,"version":0},"$loki":64},{"_id":"5c3d65bd3525a329e0c062e5","address":"Av. Sierra Vista 600","location":{"type":"Point","coordinates":[-101.036189386258,22.1383307663301]},"isApproved":true,"items":[],"keys":["Breakfast & Brunch"],"lastUpdated":1547527612369,"name":"La Biodeguita","phone":"444 825 2193","price":"","reviewCount":2,"reviewScore":4.5,"meta":{"revision":0,"created":1547531155841,"version":0},"$loki":65},{"_id":"5c3d65bd3525a329e0c01be3","address":"Avenida Universidad 240","location":{"type":"Point","coordinates":[-101.0418723,22.1485594]},"isApproved":true,"items":[],"keys":["Cafeteria","Coffee & Tea","Patisserie/Cake Shop"],"lastUpdated":1547527612258,"name":"Sabor A Ti","phone":"444 841 0031","price":"","reviewCount":1,"reviewScore":4,"meta":{"revision":0,"created":1547531155841,"version":0},"$loki":66},{"_id":"5c3d65bd3525a329e0c12bd8","address":"Av. Salvador Nava Martinez #3125","location":{"type":"Point","coordinates":[-101.02053,22.151178]},"isApproved":true,"items":[],"keys":["Pizza","Arcades"],"lastUpdated":1547527612680,"name":"Peter Piper Pizza","phone":"444 688 0027","price":"","reviewCount":1,"reviewScore":3,"meta":{"revision":0,"created":1547531155841,"version":0},"$loki":67},{"_id":"5c3d65bd3525a329e0c15467","address":"Mariano Arista 797","location":{"type":"Point","coordinates":[-101.021102294326,22.1515685786811]},"isApproved":true,"items":[],"keys":["Cafeteria","Breakfast & Brunch"],"lastUpdated":1547527612745,"name":"Aristos - Café y Más","phone":"444 814 1412","price":"$","reviewCount":1,"reviewScore":5,"meta":{"revision":0,"created":1547531155841,"version":0},"$loki":68},{"_id":"5c3d65bd3525a329e0c0b6a6","address":"Calz. de los Pintores 275","location":{"type":"Point","coordinates":[-101.019627226582,22.153073484726]},"isApproved":true,"items":[],"keys":["Steakhouses","Latin American"],"lastUpdated":1547527612500,"name":"La Estrella de Dimas","phone":"444 813 5299","price":"","reviewCount":2,"reviewScore":5,"meta":{"revision":0,"created":1547531155841,"version":0},"$loki":69},{"_id":"5c3d65bd3525a329e0bffa9f","address":"Prol. Nereo Rodríguez Barragán 1380","location":{"type":"Point","coordinates":[-101.013326570392,22.1521436777227]},"isApproved":true,"items":[],"keys":["Italian"],"lastUpdated":1547527612220,"name":"IL Pesto","phone":"444 168 0007","price":"","reviewCount":1,"reviewScore":5,"meta":{"revision":0,"created":1547531155841,"version":0},"$loki":70},{"_id":"5c3d65bd3525a329e0c14b66","address":"Av. Tatanacho 846","location":{"type":"Point","coordinates":[-101.005638,22.155421]},"isApproved":true,"items":[],"keys":["Cafeteria"],"lastUpdated":1547527612729,"name":"Serendipity y Canela","phone":"444 811 3833","price":"","reviewCount":1,"reviewScore":5,"meta":{"revision":0,"created":1547531155841,"version":0},"$loki":71},{"_id":"5c3d65bd3525a329e0c00dc3","address":"Mariano Otero 400","location":{"type":"Point","coordinates":[-101.004049815238,22.1556768210189]},"isApproved":true,"items":[],"keys":["Restaurants"],"lastUpdated":1547527612237,"name":"El Camelluco","phone":"10 099 35925","price":"","reviewCount":2,"reviewScore":3.5,"meta":{"revision":0,"created":1547531155841,"version":0},"$loki":72},{"_id":"5c3d65bd3525a329e0c0930b","address":"Guadalcazar 116","location":{"type":"Point","coordinates":[-101.0039294,22.1558997]},"isApproved":true,"items":[],"keys":["Seafood"],"lastUpdated":1547527612452,"name":"Santo Mar","phone":"33 361 12866","price":"$$$","reviewCount":4,"reviewScore":3,"meta":{"revision":0,"created":1547531155841,"version":0},"$loki":73},{"_id":"5c3d65bd3525a329e0c12cbd","address":"Río Kennedy 145","location":{"type":"Point","coordinates":[-101.0029209,22.1523001]},"isApproved":true,"items":[],"keys":["Mexican"],"lastUpdated":1547527612680,"name":"Epitafio","phone":"","price":"","reviewCount":1,"reviewScore":4,"meta":{"revision":0,"created":1547531155841,"version":0},"$loki":74},{"_id":"5c3d65bd3525a329e0c08b72","address":"Calle Coronel Espinosa 1175","location":{"type":"Point","coordinates":[-101.0015097633,22.1536394831768]},"isApproved":true,"items":[],"keys":["German"],"lastUpdated":1547527612436,"name":"Pommes Bude","phone":"444 814 9456","price":"","reviewCount":1,"reviewScore":5,"meta":{"revision":0,"created":1547531155841,"version":0},"$loki":75},{"_id":"5c3d65bd3525a329e0c07b9b","address":"Parque Chapultepec 1000","location":{"type":"Point","coordinates":[-100.9992217,22.153857]},"isApproved":true,"items":[],"keys":["Mexican"],"lastUpdated":1547527612410,"name":"Bones Meatballs & Wings","phone":"444 353 8399","price":"","reviewCount":1,"reviewScore":4,"meta":{"revision":0,"created":1547531155841,"version":0},"$loki":76},{"_id":"5c3d65bd3525a329e0c17c34","address":"Nereo Rodriguez Barragan 450","location":{"type":"Point","coordinates":[-100.993593,22.153623]},"isApproved":true,"items":[],"keys":["Restaurants"],"lastUpdated":1547527612800,"name":"Pizza Hut","phone":"444 833 7979","price":"","reviewCount":1,"reviewScore":3,"meta":{"revision":0,"created":1547531155841,"version":0},"$loki":77},{"_id":"5c3d65bd3525a329e0c0c015","address":"Avenida Juarez 1","location":{"type":"Point","coordinates":[-100.994265,22.15203]},"isApproved":true,"items":[],"keys":["Mexican"],"lastUpdated":1547527612516,"name":"Mara’s Cafe & Bar Restaurant","phone":"91 634 52578","price":"$$","reviewCount":1,"reviewScore":3,"meta":{"revision":0,"created":1547531155841,"version":0},"$loki":78},{"_id":"5c3d65bd3525a329e0c0538a","address":"Alvaro Obregon 205 A","location":{"type":"Point","coordinates":[-100.991809219122,22.1626354068244]},"isApproved":true,"items":[],"keys":["Mexican"],"lastUpdated":1547527612346,"name":"Las Tortolas","phone":"444 814 4713","price":"$","reviewCount":1,"reviewScore":3,"meta":{"revision":0,"created":1547531155841,"version":0},"$loki":79},{"_id":"5c3d65bd3525a329e0bff706","address":"De Jacarandas 131","location":{"type":"Point","coordinates":[-100.990907661617,22.1539490759673]},"isApproved":true,"items":[],"keys":["Breakfast & Brunch"],"lastUpdated":1547527612217,"name":"Diepan","phone":"444 811 6995","price":"","reviewCount":1,"reviewScore":3,"meta":{"revision":0,"created":1547531155841,"version":0},"$loki":80},{"_id":"5c3d65bd3525a329e0c0ab00","address":"Carretera Nacional 202.","location":{"type":"Point","coordinates":[-100.9855409,22.1564699]},"isApproved":true,"items":[],"keys":["Northern Mexican"],"lastUpdated":1547527612489,"name":"El Sombrero Charro","phone":"","price":"","reviewCount":1,"reviewScore":3,"meta":{"revision":0,"created":1547531155841,"version":0},"$loki":81},{"_id":"5c3d65bd3525a329e0c10671","address":"Carretera Federal 57 Km. 192","location":{"type":"Point","coordinates":[-100.9545,22.15966]},"isApproved":true,"items":[],"keys":["Mexican"],"lastUpdated":1547527612619,"name":"La Casa de la Arrachera","phone":"","price":"","reviewCount":3,"reviewScore":4.5,"meta":{"revision":0,"created":1547531155841,"version":0},"$loki":82},{"_id":"5c3d65bd3525a329e0c192e1","address":"Av. Nereo Rdz Barragán 450","location":{"type":"Point","coordinates":[-100.9582014,22.1661492]},"isApproved":true,"items":[],"keys":["Mexican"],"lastUpdated":1547527612833,"name":"Humo","phone":"444 388 0467","price":"","reviewCount":2,"reviewScore":3,"meta":{"revision":0,"created":1547531155841,"version":0},"$loki":83},{"_id":"5c3d65bd3525a329e0c00171","address":"Blvd. Antonio Rocha Cordero 700","location":{"type":"Point","coordinates":[-100.9689628,22.1668025]},"isApproved":true,"items":[],"keys":["Bars","Fast Food","Pizza"],"lastUpdated":1547527612224,"name":"Comix","phone":"444 835 6872","price":"","reviewCount":1,"reviewScore":5,"meta":{"revision":0,"created":1547531155841,"version":0},"$loki":84},{"_id":"5c3d65bd3525a329e0c01a94","address":"María Greever 225","location":{"type":"Point","coordinates":[-100.9759,22.1528]},"isApproved":true,"items":[],"keys":["Burgers"],"lastUpdated":1547527612257,"name":"W Gourmet","phone":"444 209 8303","price":"","reviewCount":1,"reviewScore":4,"meta":{"revision":0,"created":1547531155841,"version":0},"$loki":85},{"_id":"5c3d65bd3525a329e0c01789","address":"Paseo de los Derechos Humanos 140","location":{"type":"Point","coordinates":[-100.980472648711,22.1514652258149]},"isApproved":true,"items":[],"keys":["Mexican"],"lastUpdated":1547527612250,"name":"Samborns II","phone":"444 162 0367","price":"","reviewCount":1,"reviewScore":5,"meta":{"revision":0,"created":1547531155841,"version":0},"$loki":86},{"_id":"5c3d65bd3525a329e0c06df2","address":"Mariano Arista 1206","location":{"type":"Point","coordinates":[-100.9803509,22.1512206]},"isApproved":true,"items":[],"keys":["Brazilian"],"lastUpdated":1547527612387,"name":"Picanha","phone":"444 833 3490","price":"","reviewCount":1,"reviewScore":1,"meta":{"revision":0,"created":1547531155841,"version":0},"$loki":87},{"_id":"5c3d65bd3525a329e0c077ad","address":"Av. Venustiano Carranza 300","location":{"type":"Point","coordinates":[-100.978184767066,22.1517411568296]},"isApproved":true,"items":[],"keys":["Mexican"],"lastUpdated":1547527612408,"name":"La Parroquia Potosina","phone":"444 812 6681","price":"$$","reviewCount":10,"reviewScore":3.5,"meta":{"revision":0,"created":1547531155841,"version":0},"$loki":88},{"_id":"5c3d65bd3525a329e0c0cba6","address":"Av. Himno Nacional 2790","location":{"type":"Point","coordinates":[-100.979057997465,22.1488675691333]},"isApproved":true,"items":[],"keys":["Seafood"],"lastUpdated":1547527612533,"name":"La Bocana","phone":"444 820 3539","price":"$$","reviewCount":3,"reviewScore":4,"meta":{"revision":0,"created":1547531155841,"version":0},"$loki":89},{"_id":"5c3d65bd3525a329e0c06f8b","address":"Av. Venustiano Carranza 1905","location":{"type":"Point","coordinates":[-100.9792567,22.1487821]},"isApproved":true,"items":[],"keys":["Chicken Wings"],"lastUpdated":1547527612388,"name":"Wing Stop","phone":"444 211 5891","price":"","reviewCount":1,"reviewScore":4,"meta":{"revision":0,"created":1547531155841,"version":0},"$loki":90},{"_id":"5c3d65bd3525a329e0c18602","address":"Calle Independencia 1150","location":{"type":"Point","coordinates":[-100.9791119,22.1490743]},"isApproved":true,"items":[],"keys":["Cafeteria","Mexican"],"lastUpdated":1547527612815,"name":"Café Corta’o","phone":"444 188 1885","price":"$","reviewCount":2,"reviewScore":5,"meta":{"revision":0,"created":1547531155841,"version":0},"$loki":91},{"_id":"5c3d65bd3525a329e0c1826d","address":"Cordillera Real 225","location":{"type":"Point","coordinates":[-100.978302065438,22.1494191562027]},"isApproved":true,"items":[],"keys":["Chicken Wings"],"lastUpdated":1547527612813,"name":"Lucky Wings","phone":"444 808 4895","price":"","reviewCount":1,"reviewScore":4,"meta":{"revision":0,"created":1547531155841,"version":0},"$loki":92},{"_id":"5c3d65bd3525a329e0c004d5","address":"Av. Cuauhtémoc 943-A","location":{"type":"Point","coordinates":[-100.9782642,22.1493928]},"isApproved":true,"items":[],"keys":["Mexican"],"lastUpdated":1547527612226,"name":"Gaby Foyo","phone":"444 833 3502","price":"","reviewCount":1,"reviewScore":5,"meta":{"revision":0,"created":1547531155841,"version":0},"$loki":93},{"_id":"5c3d65bd3525a329e0c14802","address":"Interior del Mercado 28","location":{"type":"Point","coordinates":[-100.9780399,22.1494307]},"isApproved":true,"items":[],"keys":["Seafood"],"lastUpdated":1547527612726,"name":"La Chiquita del Caribe","phone":"","price":"","reviewCount":1,"reviewScore":3,"meta":{"revision":0,"created":1547531155841,"version":0},"$loki":94},{"_id":"5c3d65bd3525a329e0c18aa4","address":"Col. Centro","location":{"type":"Point","coordinates":[-100.977860631895,22.1494901605313]},"isApproved":true,"items":[],"keys":["Mexican","Bars"],"lastUpdated":1547527612823,"name":"La Oruga y la Cebada","phone":"444 812 4508","price":"$$","reviewCount":17,"reviewScore":4,"meta":{"revision":0,"created":1547531155841,"version":0},"$loki":95},{"_id":"5c3d65bd3525a329e0c0b1b1","address":"Av. Venustiano Carranza 2455","location":{"type":"Point","coordinates":[-100.976684,22.149499]},"isApproved":true,"items":[],"keys":["Burgers"],"lastUpdated":1547527612497,"name":"Carls Jr","phone":"","price":"","reviewCount":1,"reviewScore":5,"meta":{"revision":0,"created":1547531155841,"version":0},"$loki":96},{"_id":"5c3d65bd3525a329e0c0e067","address":"Mariano Ávila 480","location":{"type":"Point","coordinates":[-100.976613,22.149509]},"isApproved":true,"items":[],"keys":["Cajun/Creole"],"lastUpdated":1547527612564,"name":"Hank’s","phone":"444 688 8842","price":"","reviewCount":1,"reviewScore":5,"meta":{"revision":0,"created":1547531155841,"version":0},"$loki":97},{"_id":"5c3d65bd3525a329e0c10425","address":"Av. Benito Juarez 1597","location":{"type":"Point","coordinates":[-100.975706660506,22.1503099943615]},"isApproved":true,"items":[],"keys":["Fast Food","Burgers"],"lastUpdated":1547527612618,"name":"McDonalds","phone":"","price":"","reviewCount":1,"reviewScore":4,"meta":{"revision":0,"created":1547531155841,"version":0},"$loki":98},{"_id":"5c3d65bd3525a329e0c050bc","address":"República S/N","location":{"type":"Point","coordinates":[-100.974604904926,22.1518390224033]},"isApproved":true,"items":[],"keys":["Seafood"],"lastUpdated":1547527612340,"name":"Chocolatas el Empanada","phone":"","price":"","reviewCount":1,"reviewScore":5,"meta":{"revision":0,"created":1547531155841,"version":0},"$loki":99},{"_id":"5c3d65bd3525a329e0c064ef","address":"Jesus Goytortua 390 A","location":{"type":"Point","coordinates":[-100.9746798,22.1517909]},"isApproved":true,"items":[],"keys":["Restaurants"],"lastUpdated":1547527612377,"name":"Restaurant Bar Fu-Hao","phone":"444 817 8081","price":"","reviewCount":1,"reviewScore":1,"meta":{"revision":0,"created":1547531155841,"version":0},"$loki":100},{"_id":"5c3d65bd3525a329e0c02bb4","address":"Cord. Arakan 617","location":{"type":"Point","coordinates":[-100.9735313,22.1521906]},"isApproved":true,"items":[],"keys":["Breakfast & Brunch"],"lastUpdated":1547527612287,"name":"Meche","phone":"","price":"","reviewCount":2,"reviewScore":3.5,"meta":{"revision":0,"created":1547531155841,"version":0},"$loki":101},{"_id":"5c3d65bd3525a329e0c03526","address":"Olmos 145","location":{"type":"Point","coordinates":[-100.973497,22.15248]},"isApproved":true,"items":[],"keys":["Breakfast & Brunch","Mexican"],"lastUpdated":1547527612303,"name":"Fork","phone":"444 817 0705","price":"","reviewCount":1,"reviewScore":5,"meta":{"revision":0,"created":1547531155841,"version":0},"$loki":102},{"_id":"5c3d65bd3525a329e0c04d42","address":"Prol. Pedro Vallejo 426-A","location":{"type":"Point","coordinates":[-100.976308062673,22.1462633965734]},"isApproved":true,"items":[],"keys":["Tacos"],"lastUpdated":1547527612338,"name":"Tacos el Vaquero","phone":"","price":"$","reviewCount":1,"reviewScore":5,"meta":{"revision":0,"created":1547531155841,"version":0},"$loki":103},{"_id":"5c3d65bd3525a329e0bff6dd","address":"Av. Universidad 260","location":{"type":"Point","coordinates":[-100.97887929529,22.1350142213455]},"isApproved":true,"items":[],"keys":["French"],"lastUpdated":1547527612217,"name":"Croque La Vie","phone":"444 123 4391","price":"","reviewCount":2,"reviewScore":4.5,"meta":{"revision":0,"created":1547531155841,"version":0},"$loki":104},{"_id":"5c3d65bd3525a329e0c1099d","address":"Capitán Caldera 101","location":{"type":"Point","coordinates":[-100.9700472,22.1337007]},"isApproved":true,"items":[],"keys":["Burgers","Fast Food"],"lastUpdated":1547527612626,"name":"Muu Delirious for Burgers","phone":"444 138 5914","price":"$","reviewCount":1,"reviewScore":5,"meta":{"revision":0,"created":1547531155841,"version":0},"$loki":105},{"_id":"5c3d65bd3525a329e0c0f14b","address":"Calle Cordillera de los Himalaya 415","location":{"type":"Point","coordinates":[-100.969883,22.135909]},"isApproved":true,"items":[],"keys":["Bars","Mexican"],"lastUpdated":1547527612591,"name":"Los Maderos de San Juan","phone":"444 841 5863","price":"$$$","reviewCount":1,"reviewScore":5,"meta":{"revision":0,"created":1547531155841,"version":0},"$loki":106},{"_id":"5c3d65bd3525a329e0c103ec","address":"Calzada de Guadalupe 610","location":{"type":"Point","coordinates":[-100.972316600382,22.1396685938978]},"isApproved":true,"items":[],"keys":["Vegan","Vegetarian"],"lastUpdated":1547527612617,"name":"Mama Chachumba","phone":"444 815 2745","price":"","reviewCount":3,"reviewScore":4.5,"meta":{"revision":0,"created":1547531155841,"version":0},"$loki":107},{"_id":"5c3d65bd3525a329e0c144e1","address":"Cordillera de los Alpes 160","location":{"type":"Point","coordinates":[-100.96113087042,22.151382008308]},"isApproved":true,"items":[],"keys":["Japanese"],"lastUpdated":1547527612714,"name":"Michiko","phone":"444 811 4339","price":"$$$","reviewCount":2,"reviewScore":4,"meta":{"revision":0,"created":1547531155841,"version":0},"$loki":108},{"_id":"5c3d65bd3525a329e0c0afee","address":"Av. Nereo Rodriguez Barragán 1380","location":{"type":"Point","coordinates":[-100.9430686,22.1540917]},"isApproved":true,"items":[],"keys":["Pizza","Italian"],"lastUpdated":1547527612491,"name":"Euro Pizza Mexico","phone":"444 138 9888","price":"$","reviewCount":1,"reviewScore":4,"meta":{"revision":0,"created":1547531155841,"version":0},"$loki":109},{"_id":"5c3d65bd3525a329e0c005a6","address":"Vista Hermosa 116","location":{"type":"Point","coordinates":[-100.9410839,22.1445045]},"isApproved":true,"items":[],"keys":["Mexican"],"lastUpdated":1547527612227,"name":"El Almacen del Bife","phone":"444 151 6009","price":"$$","reviewCount":3,"reviewScore":3.5,"meta":{"revision":0,"created":1547531155841,"version":0},"$loki":110},{"_id":"5c3d65bd3525a329e0c02496","address":"Carretera 57 S/N","location":{"type":"Point","coordinates":[-100.938175213472,22.137582052857]},"isApproved":true,"items":[],"keys":["Mexican","Steakhouses"],"lastUpdated":1547527612277,"name":"La Mansion","phone":"444 567 5815","price":"$$$","reviewCount":4,"reviewScore":5,"meta":{"revision":0,"created":1547531155841,"version":0},"$loki":111},{"_id":"5c3d65bd3525a329e0c17ec6","address":"Carretera Reyes San Felipe Km 9","location":{"type":"Point","coordinates":[-100.937903667742,22.1372648879532]},"isApproved":true,"items":[],"keys":["Restaurants"],"lastUpdated":1547527612802,"name":"Centro Vacacional Gogorron","phone":"444 812 3636","price":"$","reviewCount":1,"reviewScore":4,"meta":{"revision":0,"created":1547531155841,"version":0},"$loki":112},{"_id":"5c3d65bd3525a329e0c0fcfd","address":"Av. Constitución 200","location":{"type":"Point","coordinates":[-100.9704565,22.1276442]},"isApproved":true,"items":[],"keys":["Coffee & Tea","Seafood"],"lastUpdated":1547527612607,"name":"Café Pacífico","phone":"444 812 5414","price":"","reviewCount":1,"reviewScore":5,"meta":{"revision":0,"created":1547531155841,"version":0},"$loki":113},{"_id":"5c3d65bd3525a329e0c109f4","address":"Calle Melchor Ocampo 140","location":{"type":"Point","coordinates":[-100.905887,22.117634]},"isApproved":true,"items":[],"keys":["Mexican"],"lastUpdated":1547527612626,"name":"La Cueva del Lobo","phone":"444 414 7285","price":"","reviewCount":1,"reviewScore":4,"meta":{"revision":0,"created":1547531155841,"version":0},"$loki":114},{"_id":"5c3d65bd3525a329e0c13c7a","address":"Parque Chapultepec 1145","location":{"type":"Point","coordinates":[-100.923177928643,22.1294119540965]},"isApproved":true,"items":[],"keys":["Tacos"],"lastUpdated":1547527612705,"name":"Tacos el Pata","phone":"","price":"$","reviewCount":4,"reviewScore":3,"meta":{"revision":0,"created":1547531155841,"version":0},"$loki":115},{"_id":"5c3d65bd3525a329e0c18069","address":"Juan de Oñate 620","location":{"type":"Point","coordinates":[-100.933150492845,22.134695644079]},"isApproved":true,"items":[],"keys":["Asian Fusion"],"lastUpdated":1547527612803,"name":"Saigon","phone":"444 811 2626","price":"$$","reviewCount":1,"reviewScore":4,"meta":{"revision":0,"created":1547531155841,"version":0},"$loki":116},{"_id":"5c3d65bd3525a329e0c045aa","address":"Zaragoza 104","location":{"type":"Point","coordinates":[-100.875639713492,22.0897475]},"isApproved":true,"items":[],"keys":["Mexican"],"lastUpdated":1547527612328,"name":"Gorditas Doña Luz","phone":"444 824 1827","price":"","reviewCount":1,"reviewScore":5,"meta":{"revision":0,"created":1547531155841,"version":0},"$loki":117},{"_id":"5c3d65bd3525a329e0c10f6f","address":"Antonio Aguilar 106","location":{"type":"Point","coordinates":[-100.88368096987,22.0919853100305]},"isApproved":true,"items":[],"keys":["Mexican"],"lastUpdated":1547527612640,"name":"El Patio de la Esperanza","phone":"444 817 1767","price":"","reviewCount":1,"reviewScore":4,"meta":{"revision":0,"created":1547531155841,"version":0},"$loki":118},{"_id":"5c3d65bd3525a329e0c18417","address":"Carranza 1606","location":{"type":"Point","coordinates":[-100.869467,22.061641]},"isApproved":true,"items":[],"keys":["Restaurants"],"lastUpdated":1547527612814,"name":"Dublin Irish Pub","phone":"10 086 94666","price":"$$","reviewCount":1,"reviewScore":4,"meta":{"revision":0,"created":1547531155841,"version":0},"$loki":119},{"_id":"5c3d65bd3525a329e0c14369","address":"Venustiano Carranza 2380 C","location":{"type":"Point","coordinates":[-100.95118,21.733947]},"isApproved":true,"items":[],"keys":["Restaurants"],"lastUpdated":1547527612714,"name":"Tortas Locas Hipocampo","phone":"444 817 1288","price":"","reviewCount":1,"reviewScore":4,"meta":{"revision":0,"created":1547531155841,"version":0},"$loki":120},{"_id":"5c3d65bd3525a329e0c01664","address":"Carretera San Luis Potosi - Santiago de Querétaro Km 164","location":{"type":"Point","coordinates":[-100.76901932499,21.87582683753]},"isApproved":true,"items":[],"keys":["Mexican"],"lastUpdated":1547527612250,"name":"Jota Ele","phone":"444 836 9690","price":"","reviewCount":0,"reviewScore":0,"meta":{"revision":0,"created":1547531155841,"version":0},"$loki":121},{"_id":"5c3d65bd3525a329e0c03c4a","address":"Calle Mariano Abasolo","location":{"type":"Point","coordinates":[-100.738385307129,21.7981823859618]},"isApproved":true,"items":[],"keys":["Chinese"],"lastUpdated":1547527612312,"name":"La Gran Muralla China","phone":"","price":"","reviewCount":0,"reviewScore":0,"meta":{"revision":0,"created":1547531155841,"version":0},"$loki":122},{"_id":"5c3d65bd3525a329e0c0085a","address":"Morelos 224","location":{"type":"Point","coordinates":[-100.7347691,21.8014088]},"isApproved":true,"items":[],"keys":["Restaurants"],"lastUpdated":1547527612228,"name":"Cano Luciano Vicente","phone":"48 510 40411","price":"","reviewCount":0,"reviewScore":0,"meta":{"revision":0,"created":1547531155841,"version":0},"$loki":123}],"idIndex":[1,2,3,4,5,6,7,8,9,10,11,12,13,14,15,16,17,18,19,20,21,22,23,24,25,26,27,28,29,30,31,32,33,34,35,36,37,38,39,40,41,42,43,44,45,46,47,48,49,50,51,52,53,54,55,56,57,58,59,60,61,62,63,64,65,66,67,68,69,70,71,72,73,74,75,76,77,78,79,80,81,82,83,84,85,86,87,88,89,90,91,92,93,94,95,96,97,98,99,100,101,102,103,104,105,106,107,108,109,110,111,112,113,114,115,116,117,118,119,120,121,122,123],"binaryIndices":{},"constraints":null,"uniqueNames":[],"transforms":{},"objType":"restaurants","dirty":true,"cachedIndex":null,"cachedBinaryIndex":null,"cachedData":null,"adaptiveBinaryIndices":true,"transactional":false,"cloneObjects":false,"cloneMethod":"parse-stringify","asyncListeners":false,"disableMeta":false,"disableChangesApi":true,"disableDeltaChangesApi":true,"autoupdate":false,"serializableIndices":true,"ttl":null,"maxId":123,"DynamicViews":[],"events":{"insert":[],"update":[],"pre-insert":[],"pre-update":[],"close":[],"flushbuffer":[],"error":[],"delete":[null],"warning":[null]},"changes":[]}],"databaseVersion":1.5,"engineVersion":1.5,"autosave":false,"autosaveInterval":5000,"autosaveHandle":null,"throttledSaves":true,"options":{"serializationMethod":"normal","destructureDelimiter":"$<\n"},"persistenceMethod":"fs","persistenceAdapter":null,"verbose":false,"events":{"init":[null],"loaded":[],"flushChanges":[],"close":[],"changes":[],"warning":[]},"ENV":"NODEJS"}