{"filename":"-102-33.5","collections":[{"name":"restaurants","data":[{"_id":"5c3d65bd3525a329e0c0e35c","address":"2309 N Frankford Ave","location":{"type":"Point","coordinates":[-101.940499,33.622552]},"isApproved":true,"items":[],"keys":["Barbeque"],"lastUpdated":1547527612572,"name":"The Shack BBQ","phone":"(806) 747-1810","price":"$$","reviewCount":251,"reviewScore":4.5,"meta":{"revision":0,"created":1547531153207,"version":0},"$loki":1},{"_id":"5c3d65bd3525a329e0c11a86","address":"215 University Ave","location":{"type":"Point","coordinates":[-101.9398418,33.6049985]},"isApproved":true,"items":[],"keys":["Fast Food","Chicken Wings","Chicken Shop"],"lastUpdated":1547527612652,"name":"KFC","phone":"(806) 762-5991","price":"$","reviewCount":2,"reviewScore":2,"meta":{"revision":0,"created":1547531153207,"version":0},"$loki":2},{"_id":"5c3d65bd3525a329e0c17dae","address":"117 University Ave","location":{"type":"Point","coordinates":[-101.925667334522,33.5966293477574]},"isApproved":true,"items":[],"keys":["Fast Food","Burgers","Mexican"],"lastUpdated":1547527612801,"name":"Tommy’s Drive In","phone":"(806) 763-5424","price":"$","reviewCount":18,"reviewScore":3,"meta":{"revision":0,"created":1547531153207,"version":0},"$loki":3},{"_id":"5c3d65bd3525a329e0c16cad","address":"Loop 289 N Slide Rd","location":{"type":"Point","coordinates":[-101.925707578803,33.5964400032873]},"isApproved":true,"items":[],"keys":["Burgers","Dive Bars","American (Traditional)"],"lastUpdated":1547527612774,"name":"Twisted Root Burger Co - Lubbock","phone":"(806) 797-0532","price":"$$","reviewCount":140,"reviewScore":4,"meta":{"revision":0,"created":1547531153207,"version":0},"$loki":4},{"_id":"5c3d65bd3525a329e0c0f60a","address":"114 W Loop 289","location":{"type":"Point","coordinates":[-101.925504,33.596741]},"isApproved":true,"items":[],"keys":["Mexican"],"lastUpdated":1547527612598,"name":"Cantina Laredo","phone":"(806) 407-3355","price":"$$","reviewCount":94,"reviewScore":4,"meta":{"revision":0,"created":1547531153207,"version":0},"$loki":5},{"_id":"5c3d65bd3525a329e0c1a4ad","address":"108 West 1st St","location":{"type":"Point","coordinates":[-101.921065,33.631546]},"isApproved":true,"items":[],"keys":["Fast Food","Ice Cream & Frozen Yogurt"],"lastUpdated":1547527612859,"name":"Dairy Queen","phone":"(806) 892-3625","price":"$","reviewCount":2,"reviewScore":1.5,"meta":{"revision":0,"created":1547531153207,"version":0},"$loki":6},{"_id":"5c3d65bd3525a329e0c07b25","address":"3400 Olton Rd","location":{"type":"Point","coordinates":[-101.840029244378,33.7377538128147]},"isApproved":true,"items":[],"keys":["Chinese"],"lastUpdated":1547527612410,"name":"China Dragon Buffet","phone":"(806) 291-8888","price":"$","reviewCount":8,"reviewScore":3.5,"meta":{"revision":0,"created":1547531153207,"version":0},"$loki":7},{"_id":"5c3d65bd3525a329e0c18db7","address":"2203 Clovis Rd","location":{"type":"Point","coordinates":[-101.867263788325,33.6029178613248]},"isApproved":true,"items":[],"keys":["Food Trucks","Mexican"],"lastUpdated":1547527612831,"name":"Raspados Colimas","phone":"(806) 474-4429","price":"$","reviewCount":37,"reviewScore":4.5,"meta":{"revision":0,"created":1547531153207,"version":0},"$loki":8},{"_id":"5c3d65bd3525a329e0c09f49","address":"5401 N Martin Luther King Blvd","location":{"type":"Point","coordinates":[-101.8697364,33.6049321]},"isApproved":true,"items":[],"keys":["Breakfast & Brunch"],"lastUpdated":1547527612472,"name":"The Great American Bagel Bakery","phone":"","price":"$$","reviewCount":6,"reviewScore":3.5,"meta":{"revision":0,"created":1547531153207,"version":0},"$loki":9},{"_id":"5c3d65bd3525a329e0c1addf","address":"4501 Interstate 27 Frontage","location":{"type":"Point","coordinates":[-101.8726441,33.6061248]},"isApproved":true,"items":[],"keys":["Sandwiches"],"lastUpdated":1547527612875,"name":"Love’s W/subway","phone":"","price":"","reviewCount":4,"reviewScore":2,"meta":{"revision":0,"created":1547531153207,"version":0},"$loki":10},{"_id":"5c3d65bd3525a329e0c0c564","address":"1105 2nd Pl","location":{"type":"Point","coordinates":[-101.8833132,33.5988861]},"isApproved":true,"items":[],"keys":["Mexican"],"lastUpdated":1547527612524,"name":"La Malinche Tortilla Factory","phone":"(806) 747-6675","price":"","reviewCount":1,"reviewScore":5,"meta":{"revision":0,"created":1547531153207,"version":0},"$loki":11},{"_id":"5c3d65bd3525a329e0c10fb0","address":"116 W Loop 289","location":{"type":"Point","coordinates":[-101.869964881594,33.5949783683153]},"isApproved":true,"items":[],"keys":["Pizza","Gluten-Free","Fast Food"],"lastUpdated":1547527612640,"name":"West Crust West Loop","phone":"(806) 300-0052","price":"$$","reviewCount":25,"reviewScore":3,"meta":{"revision":0,"created":1547531153207,"version":0},"$loki":12},{"_id":"5c3d65bd3525a329e0c0938f","address":"2601 Clovis Rd","location":{"type":"Point","coordinates":[-101.870952665542,33.5980505035187]},"isApproved":true,"items":[],"keys":["Fast Food"],"lastUpdated":1547527612452,"name":"Jim Dandy Drive In","phone":"(806) 762-4012","price":"$","reviewCount":6,"reviewScore":3,"meta":{"revision":0,"created":1547531153207,"version":0},"$loki":13},{"_id":"5c3d65bd3525a329e0c0dd88","address":"101 N University Ave","location":{"type":"Point","coordinates":[-101.8698589,33.5970039]},"isApproved":true,"items":[],"keys":["Fast Food","Ice Cream & Frozen Yogurt","Burgers"],"lastUpdated":1547527612563,"name":"Sonic Drive-In","phone":"(806) 749-2414","price":"","reviewCount":2,"reviewScore":5,"meta":{"revision":0,"created":1547531153207,"version":0},"$loki":14},{"_id":"5c3d65bd3525a329e0bff8a8","address":"417 N Frankford Ave","location":{"type":"Point","coordinates":[-101.869893739954,33.5982246278673]},"isApproved":true,"items":[],"keys":["Pizza"],"lastUpdated":1547527612219,"name":"Little Caesars","phone":"(806) 771-4681","price":"$","reviewCount":5,"reviewScore":1.5,"meta":{"revision":0,"created":1547531153207,"version":0},"$loki":15},{"_id":"5c3d65bd3525a329e0c0c24b","address":"5101 Clovis Hwy","location":{"type":"Point","coordinates":[-101.8471644,33.5952537]},"isApproved":true,"items":[],"keys":["Drive-In Theater","Burgers","Pizza"],"lastUpdated":1547527612517,"name":"Stars & Stripes Drive-In Theatre","phone":"(806) 749-7469","price":"$","reviewCount":26,"reviewScore":4.5,"meta":{"revision":0,"created":1547531153207,"version":0},"$loki":16},{"_id":"5c3d65bd3525a329e0c1412d","address":"3021 Clovis Rd","location":{"type":"Point","coordinates":[-101.8149542,33.595103]},"isApproved":true,"items":[],"keys":["Mexican"],"lastUpdated":1547527612707,"name":"Montelongo’s Mexican Restaurant","phone":"(806) 762-3068","price":"$","reviewCount":71,"reviewScore":4,"meta":{"revision":0,"created":1547531153207,"version":0},"$loki":17},{"_id":"5c3d65bd3525a329e0c1780a","address":"107 Beech Ave","location":{"type":"Point","coordinates":[-101.806735061109,33.597419000724]},"isApproved":true,"items":[],"keys":["Mexican"],"lastUpdated":1547527612792,"name":"Poliberto’s Taco Shop","phone":"(806) 763-5555","price":"","reviewCount":17,"reviewScore":5,"meta":{"revision":0,"created":1547531153207,"version":0},"$loki":18},{"_id":"5c3d65bd3525a329e0c0b4c0","address":"2434 Clovis Rd","location":{"type":"Point","coordinates":[-101.837197846996,33.6424754375115]},"isApproved":true,"items":[],"keys":["Burgers"],"lastUpdated":1547527612499,"name":"Tastee Burgers","phone":"(806) 747-8879","price":"$","reviewCount":3,"reviewScore":3.5,"meta":{"revision":0,"created":1547531153207,"version":0},"$loki":19},{"_id":"5c3d65bd3525a329e0c1af1a","address":"220 Regis St","location":{"type":"Point","coordinates":[-101.8382275,33.6439299]},"isApproved":true,"items":[],"keys":["Mexican"],"lastUpdated":1547527612876,"name":"Mi Taco Village","phone":"(806) 747-9700","price":"$","reviewCount":10,"reviewScore":3.5,"meta":{"revision":0,"created":1547531153207,"version":0},"$loki":20},{"_id":"5c3d65bd3525a329e0c10aad","address":"701 Regis St","location":{"type":"Point","coordinates":[-101.8434,33.644296]},"isApproved":true,"items":[],"keys":["Barbeque","Smokehouse"],"lastUpdated":1547527612631,"name":"E & J Smokehouse and Grill","phone":"(806) 762-6201","price":"$$","reviewCount":37,"reviewScore":4.5,"meta":{"revision":0,"created":1547531153207,"version":0},"$loki":21},{"_id":"5c3d65bd3525a329e0c06577","address":"306 W 1st St","location":{"type":"Point","coordinates":[-101.822585075944,33.6567010232542]},"isApproved":true,"items":[],"keys":["Fast Food","Burgers","Ice Cream & Frozen Yogurt"],"lastUpdated":1547527612377,"name":"Sonic Drive-In","phone":"(806) 892-2884","price":"","reviewCount":3,"reviewScore":1.5,"meta":{"revision":0,"created":1547531153207,"version":0},"$loki":22},{"_id":"5c3d65bd3525a329e0c0a610","address":"3116 Amherst St","location":{"type":"Point","coordinates":[-101.684697,33.6659047]},"isApproved":true,"items":[],"keys":["Mexican","Breakfast & Brunch","Buffets"],"lastUpdated":1547527612481,"name":"Joel’s Restaurant","phone":"(806) 765-0590","price":"","reviewCount":9,"reviewScore":4.5,"meta":{"revision":0,"created":1547531153207,"version":0},"$loki":23},{"_id":"5c3d65bd3525a329e0c0a358","address":"726 Frontage Rd","location":{"type":"Point","coordinates":[-101.6906183,33.6635808]},"isApproved":true,"items":[],"keys":["American (Traditional)"],"lastUpdated":1547527612474,"name":"Dixie Dog Drive-In","phone":"(806) 892-2441","price":"","reviewCount":4,"reviewScore":5,"meta":{"revision":0,"created":1547531153207,"version":0},"$loki":24},{"_id":"5c3d65bd3525a329e0c06354","address":"1805 Parkway Dr","location":{"type":"Point","coordinates":[-101.681434,33.666394]},"isApproved":true,"items":[],"keys":["Barbeque"],"lastUpdated":1547527612369,"name":"Wiley’s Bar-B-Q","phone":"(806) 765-7818","price":"$","reviewCount":27,"reviewScore":4,"meta":{"revision":0,"created":1547531153207,"version":0},"$loki":25}],"idIndex":[1,2,3,4,5,6,7,8,9,10,11,12,13,14,15,16,17,18,19,20,21,22,23,24,25],"binaryIndices":{},"constraints":null,"uniqueNames":[],"transforms":{},"objType":"restaurants","dirty":true,"cachedIndex":null,"cachedBinaryIndex":null,"cachedData":null,"adaptiveBinaryIndices":true,"transactional":false,"cloneObjects":false,"cloneMethod":"parse-stringify","asyncListeners":false,"disableMeta":false,"disableChangesApi":true,"disableDeltaChangesApi":true,"autoupdate":false,"serializableIndices":true,"ttl":null,"maxId":25,"DynamicViews":[],"events":{"insert":[],"update":[],"pre-insert":[],"pre-update":[],"close":[],"flushbuffer":[],"error":[],"delete":[null],"warning":[null]},"changes":[]}],"databaseVersion":1.5,"engineVersion":1.5,"autosave":false,"autosaveInterval":5000,"autosaveHandle":null,"throttledSaves":true,"options":{"serializationMethod":"normal","destructureDelimiter":"$<\n"},"persistenceMethod":"fs","persistenceAdapter":null,"verbose":false,"events":{"init":[null],"loaded":[],"flushChanges":[],"close":[],"changes":[],"warning":[]},"ENV":"NODEJS"}