{"filename":"-104.25-40","collections":[{"name":"restaurants","data":[{"_id":"5c3d65bd3525a329e0c116c6","address":"2999 County Road 53","location":{"type":"Point","coordinates":[-104.5654994,40.0437971]},"isApproved":true,"items":[],"keys":["Cafes"],"lastUpdated":1547527612649,"name":"Lion’s Den Cafe","phone":"(303) 536-0118","price":"$","reviewCount":5,"reviewScore":4.5,"meta":{"revision":0,"created":1547531148186,"version":0},"$loki":1},{"_id":"5c3d65bd3525a329e0c05b7f","address":"245 Market St","location":{"type":"Point","coordinates":[-104.521653950214,40.1129173991174]},"isApproved":true,"items":[],"keys":["American (Traditional)"],"lastUpdated":1547527612356,"name":"Deno’s I-76","phone":"","price":"$$","reviewCount":9,"reviewScore":4,"meta":{"revision":0,"created":1547531148186,"version":0},"$loki":2},{"_id":"5c3d65bd3525a329e0c1543e","address":"101 E Bison Hwy","location":{"type":"Point","coordinates":[-104.650293,40.078117]},"isApproved":true,"items":[],"keys":["Pizza","Salad","Breakfast & Brunch"],"lastUpdated":1547527612739,"name":"Ben’s Brick Oven Pizza","phone":"(303) 536-4906","price":"$","reviewCount":85,"reviewScore":4.5,"meta":{"revision":0,"created":1547531148186,"version":0},"$loki":3},{"_id":"5c3d65bd3525a329e0c0888a","address":"530 Fir St","location":{"type":"Point","coordinates":[-104.6472588,40.0727637]},"isApproved":true,"items":[],"keys":["Breakfast & Brunch","American (Traditional)","Steakhouses"],"lastUpdated":1547527612428,"name":"The Pepper Pod","phone":"(303) 536-4736","price":"$$","reviewCount":94,"reviewScore":3.5,"meta":{"revision":0,"created":1547531148186,"version":0},"$loki":4},{"_id":"5c3d65bd3525a329e0c116d7","address":"38 S Broadway","location":{"type":"Point","coordinates":[-104.6437063,40.0738483]},"isApproved":true,"items":[],"keys":["American (New)","Cocktail Bars"],"lastUpdated":1547527612650,"name":"Beatrice & Woodsley","phone":"(303) 777-3505","price":"$$$","reviewCount":852,"reviewScore":4,"meta":{"revision":0,"created":1547531148186,"version":0},"$loki":5},{"_id":"5c3d65bd3525a329e0c0e17c","address":"695 Palmer Ave","location":{"type":"Point","coordinates":[-104.4256396,39.7573416]},"isApproved":true,"items":[],"keys":["Mexican"],"lastUpdated":1547527612565,"name":"Happy Burrito","phone":"(303) 644-3900","price":"$","reviewCount":24,"reviewScore":4.5,"meta":{"revision":0,"created":1547531148186,"version":0},"$loki":6},{"_id":"5c3d65bd3525a329e0c10b0b","address":"200 S 1st St","location":{"type":"Point","coordinates":[-104.4329721,39.754851]},"isApproved":true,"items":[],"keys":["Chinese"],"lastUpdated":1547527612632,"name":"China Kitchen","phone":"(303) 644-3100","price":"$$","reviewCount":28,"reviewScore":3,"meta":{"revision":0,"created":1547531148186,"version":0},"$loki":7},{"_id":"5c3d65bd3525a329e0c0dfcc","address":"15343 E 6th Ave","location":{"type":"Point","coordinates":[-104.426799975336,39.7555300923741]},"isApproved":true,"items":[],"keys":["Mexican"],"lastUpdated":1547527612564,"name":"Tacos Selene","phone":"(303) 343-7879","price":"$","reviewCount":286,"reviewScore":4.5,"meta":{"revision":0,"created":1547531148186,"version":0},"$loki":8},{"_id":"5c3d65bd3525a329e0bff83d","address":"100 Bennett Ave","location":{"type":"Point","coordinates":[-104.432451725006,39.7522959818032]},"isApproved":true,"items":[],"keys":["Diners"],"lastUpdated":1547527612218,"name":"High Plain’s Diner","phone":"(303) 644-5055","price":"$","reviewCount":70,"reviewScore":4,"meta":{"revision":0,"created":1547531148186,"version":0},"$loki":9},{"_id":"5c3d65bd3525a329e0c037dd","address":"1590 Little Raven St","location":{"type":"Point","coordinates":[-104.434112468804,39.7407761165731]},"isApproved":true,"items":[],"keys":["Ramen","Poke","Noodles"],"lastUpdated":1547527612304,"name":"Menya - Lohi","phone":"(720) 696-6769","price":"$$","reviewCount":87,"reviewScore":4,"meta":{"revision":0,"created":1547531148186,"version":0},"$loki":10},{"_id":"5c3d65bd3525a329e0c08bec","address":"539 N Sable Blvd","location":{"type":"Point","coordinates":[-104.434112468804,39.7407761165731]},"isApproved":true,"items":[],"keys":["Vietnamese","Noodles"],"lastUpdated":1547527612436,"name":"Pho 888 Vietnamese Noodle & Grill","phone":"(303) 367-4180","price":"$","reviewCount":565,"reviewScore":4.5,"meta":{"revision":0,"created":1547531148186,"version":0},"$loki":11},{"_id":"5c3d65bd3525a329e0c023cf","address":"1155 S Tower Rd","location":{"type":"Point","coordinates":[-104.433745,39.74329]},"isApproved":true,"items":[],"keys":["Asian Fusion"],"lastUpdated":1547527612277,"name":"Bite of Fusion","phone":"(303) 755-7676","price":"$","reviewCount":66,"reviewScore":4,"meta":{"revision":0,"created":1547531148186,"version":0},"$loki":12},{"_id":"5c3d65bd3525a329e0c088f5","address":"4900 Himalaya Rd","location":{"type":"Point","coordinates":[-104.435522,39.743589]},"isApproved":true,"items":[],"keys":["American (Traditional)"],"lastUpdated":1547527612429,"name":"Green Valley Ranch Bar & Grill","phone":"(303) 371-3131","price":"$$","reviewCount":10,"reviewScore":4,"meta":{"revision":0,"created":1547531148186,"version":0},"$loki":13},{"_id":"5c3d65bd3525a329e0c003a8","address":"","location":{"type":"Point","coordinates":[-104.434699416161,39.741361723361]},"isApproved":true,"items":[],"keys":["Food Trucks","Barbeque"],"lastUpdated":1547527612226,"name":"Big G’s BBQ","phone":"(720) 290-1680","price":"","reviewCount":1,"reviewScore":5,"meta":{"revision":0,"created":1547531148186,"version":0},"$loki":14},{"_id":"5c3d65bd3525a329e0c07fa7","address":"5200 Front Range Pkwy","location":{"type":"Point","coordinates":[-104.5497292,39.7900761]},"isApproved":true,"items":[],"keys":["American (Traditional)"],"lastUpdated":1547527612418,"name":"Aviator Bar & Grill","phone":"(303) 261-9100","price":"$$","reviewCount":10,"reviewScore":3.5,"meta":{"revision":0,"created":1547531148186,"version":0},"$loki":15},{"_id":"5c3d65bd3525a329e0c1138e","address":"56171 E Colfax Ave","location":{"type":"Point","coordinates":[-104.3296081,39.7390207]},"isApproved":true,"items":[],"keys":["Mexican"],"lastUpdated":1547527612642,"name":"Corona’s Mexican Grill-Strasburg","phone":"(303) 622-4959","price":"$$","reviewCount":57,"reviewScore":3.5,"meta":{"revision":0,"created":1547531148186,"version":0},"$loki":16},{"_id":"5c3d65bd3525a329e0c12220","address":"2 Broadway","location":{"type":"Point","coordinates":[-104.3297168,39.7390355]},"isApproved":true,"items":[],"keys":["Conveyor Belt Sushi","Asian Fusion","Hot Pot"],"lastUpdated":1547527612669,"name":"Rolls by Chubby Cattle","phone":"(888) 887-6557","price":"","reviewCount":15,"reviewScore":4.5,"meta":{"revision":0,"created":1547531148186,"version":0},"$loki":17},{"_id":"5c3d65bd3525a329e0c15225","address":"56471 E Colfax Ave","location":{"type":"Point","coordinates":[-104.3268948,39.7387812]},"isApproved":true,"items":[],"keys":["American (Traditional)"],"lastUpdated":1547527612737,"name":"The Patio","phone":"(303) 622-4858","price":"$","reviewCount":6,"reviewScore":3.5,"meta":{"revision":0,"created":1547531148186,"version":0},"$loki":18},{"_id":"5c3d65bd3525a329e0c19e63","address":"1352 Monroe St","location":{"type":"Point","coordinates":[-104.321304369227,39.7359085164716]},"isApproved":true,"items":[],"keys":["Barbeque"],"lastUpdated":1547527612851,"name":"Strasburg Family BBQ","phone":"(303) 622-4937","price":"","reviewCount":5,"reviewScore":5,"meta":{"revision":0,"created":1547531148186,"version":0},"$loki":19},{"_id":"5c3d65bd3525a329e0c08c65","address":"1323 Monroe St","location":{"type":"Point","coordinates":[-104.321918,39.735577]},"isApproved":true,"items":[],"keys":["Salad","Mexican","Sandwiches"],"lastUpdated":1547527612436,"name":"Rookies Saloon and Restaurant","phone":"(303) 622-9750","price":"$","reviewCount":14,"reviewScore":4.5,"meta":{"revision":0,"created":1547531148186,"version":0},"$loki":20},{"_id":"5c3d65bd3525a329e0bff9ab","address":"56551A E Colfax Ave","location":{"type":"Point","coordinates":[-104.3256904,39.7386759]},"isApproved":true,"items":[],"keys":["Pizza"],"lastUpdated":1547527612219,"name":"The Pizza Shop","phone":"(303) 622-9770","price":"$","reviewCount":7,"reviewScore":4,"meta":{"revision":0,"created":1547531148186,"version":0},"$loki":21},{"_id":"5c3d65bd3525a329e0c1acd6","address":"350 Justin Ave","location":{"type":"Point","coordinates":[-104.076542705297,40.2323937051654]},"isApproved":true,"items":[],"keys":["American (Traditional)","Mexican"],"lastUpdated":1547527612874,"name":"The Patch Grill","phone":"(970) 785-1013","price":"$$","reviewCount":3,"reviewScore":3.5,"meta":{"revision":0,"created":1547531148186,"version":0},"$loki":22}],"idIndex":[1,2,3,4,5,6,7,8,9,10,11,12,13,14,15,16,17,18,19,20,21,22],"binaryIndices":{},"constraints":null,"uniqueNames":[],"transforms":{},"objType":"restaurants","dirty":true,"cachedIndex":null,"cachedBinaryIndex":null,"cachedData":null,"adaptiveBinaryIndices":true,"transactional":false,"cloneObjects":false,"cloneMethod":"parse-stringify","asyncListeners":false,"disableMeta":false,"disableChangesApi":true,"disableDeltaChangesApi":true,"autoupdate":false,"serializableIndices":true,"ttl":null,"maxId":22,"DynamicViews":[],"events":{"insert":[],"update":[],"pre-insert":[],"pre-update":[],"close":[],"flushbuffer":[],"error":[],"delete":[null],"warning":[null]},"changes":[]}],"databaseVersion":1.5,"engineVersion":1.5,"autosave":false,"autosaveInterval":5000,"autosaveHandle":null,"throttledSaves":true,"options":{"serializationMethod":"normal","destructureDelimiter":"$<\n"},"persistenceMethod":"fs","persistenceAdapter":null,"verbose":false,"events":{"init":[null],"loaded":[],"flushChanges":[],"close":[],"changes":[],"warning":[]},"ENV":"NODEJS"}