{"filename":"-104.75-40.5","collections":[{"name":"restaurants","data":[{"_id":"5c3d65bd3525a329e0c022de","address":"4791 W County Rd 38E","location":{"type":"Point","coordinates":[-105.1693686,40.518412]},"isApproved":true,"items":[],"keys":["American (Traditional)","Dive Bars","American (New)"],"lastUpdated":1547527612276,"name":"The Canyon Grill","phone":"(970) 229-0022","price":"$","reviewCount":14,"reviewScore":3.5,"meta":{"revision":0,"created":1547531155008,"version":0},"$loki":1},{"_id":"5c3d65bd3525a329e0c0ba80","address":"","location":{"type":"Point","coordinates":[-105.084423,40.5852602]},"isApproved":true,"items":[],"keys":["Food Trucks","Mexican"],"lastUpdated":1547527612508,"name":"Atacolypse Now","phone":"(970) 214-1187","price":"$$","reviewCount":4,"reviewScore":5,"meta":{"revision":0,"created":1547531155008,"version":0},"$loki":2},{"_id":"5c3d65bd3525a329e0bffdd8","address":"2177 Ken Pratt Blvd","location":{"type":"Point","coordinates":[-105.0783767,40.584654]},"isApproved":true,"items":[],"keys":["Seafood","American (Traditional)"],"lastUpdated":1547527612222,"name":"Red Lobster","phone":"(303) 485-9898","price":"$$","reviewCount":29,"reviewScore":3,"meta":{"revision":0,"created":1547531155008,"version":0},"$loki":3},{"_id":"5c3d65bd3525a329e0c09291","address":"4619 S Mason St","location":{"type":"Point","coordinates":[-105.080332585283,40.5219339776657]},"isApproved":true,"items":[],"keys":["Mexican"],"lastUpdated":1547527612452,"name":"El Pueblito Mexican Restaurant","phone":"(970) 206-0144","price":"$","reviewCount":47,"reviewScore":4,"meta":{"revision":0,"created":1547531155008,"version":0},"$loki":4},{"_id":"5c3d65bd3525a329e0c18c1e","address":"4613 S Mason St","location":{"type":"Point","coordinates":[-105.0802436,40.5230124]},"isApproved":true,"items":[],"keys":["Breakfast & Brunch","Waffles"],"lastUpdated":1547527612824,"name":"Sammy’s Breakfast Bar","phone":"(970) 672-8453","price":"$$","reviewCount":76,"reviewScore":3.5,"meta":{"revision":0,"created":1547531155008,"version":0},"$loki":5},{"_id":"5c3d65bd3525a329e0c1206b","address":"1747 Rocky Mountain Ave","location":{"type":"Point","coordinates":[-105.076278686523,40.5254402160645]},"isApproved":true,"items":[],"keys":["Bars","Mexican"],"lastUpdated":1547527612663,"name":"Matador Mexican Grill","phone":"(970) 372-5876","price":"$","reviewCount":15,"reviewScore":2.5,"meta":{"revision":0,"created":1547531155008,"version":0},"$loki":6},{"_id":"5c3d65bd3525a329e0c087ab","address":"4525 S College Ave","location":{"type":"Point","coordinates":[-105.0781743,40.523936]},"isApproved":true,"items":[],"keys":["Fast Food","Burgers","Coffee & Tea"],"lastUpdated":1547527612428,"name":"McDonald’s","phone":"(970) 225-1717","price":"$","reviewCount":24,"reviewScore":2,"meta":{"revision":0,"created":1547531155008,"version":0},"$loki":7},{"_id":"5c3d65bd3525a329e0c1587f","address":"2330 Main St","location":{"type":"Point","coordinates":[-105.0784242,40.5230863]},"isApproved":true,"items":[],"keys":["Pizza"],"lastUpdated":1547527612747,"name":"Papa Murphy’s","phone":"(303) 678-7272","price":"$","reviewCount":9,"reviewScore":3,"meta":{"revision":0,"created":1547531155008,"version":0},"$loki":8},{"_id":"5c3d65bd3525a329e0c095d0","address":"2120 E Harmony Rd","location":{"type":"Point","coordinates":[-105.0776816,40.5225682]},"isApproved":true,"items":[],"keys":["Sandwiches","Fast Food","Delis"],"lastUpdated":1547527612453,"name":"Firehouse Subs","phone":"(970) 226-0494","price":"$","reviewCount":37,"reviewScore":3.5,"meta":{"revision":0,"created":1547531155008,"version":0},"$loki":9},{"_id":"5c3d65bd3525a329e0c16b5c","address":"1606 Conestoga St Ste A","location":{"type":"Point","coordinates":[-105.075918,40.523921]},"isApproved":true,"items":[],"keys":["Delis","Sandwiches"],"lastUpdated":1547527612773,"name":"Quiznos","phone":"(720) 565-1200","price":"","reviewCount":9,"reviewScore":2,"meta":{"revision":0,"created":1547531155008,"version":0},"$loki":10},{"_id":"5c3d65bd3525a329e0c1ad6a","address":"1900 N Main St","location":{"type":"Point","coordinates":[-105.073556005955,40.5238779067065]},"isApproved":true,"items":[],"keys":["Burgers","Fast Food","Coffee & Tea"],"lastUpdated":1547527612875,"name":"McDonald’s","phone":"(303) 772-3017","price":"","reviewCount":12,"reviewScore":2,"meta":{"revision":0,"created":1547531155008,"version":0},"$loki":11},{"_id":"5c3d65bd3525a329e0c01161","address":"238 East Harmony Road","location":{"type":"Point","coordinates":[-105.0736599,40.5242231]},"isApproved":true,"items":[],"keys":["Pizza"],"lastUpdated":1547527612239,"name":"Papa Murphy’s","phone":"(970) 377-3070","price":"$$","reviewCount":8,"reviewScore":3.5,"meta":{"revision":0,"created":1547531155008,"version":0},"$loki":12},{"_id":"5c3d65bd3525a329e0c1052e","address":"4515 John F Kennedy Pkwy","location":{"type":"Point","coordinates":[-105.071526,40.5250583]},"isApproved":true,"items":[],"keys":["Sandwiches","Delis","Fast Food"],"lastUpdated":1547527612618,"name":"Jimmy John’s","phone":"(970) 282-1600","price":"$","reviewCount":8,"reviewScore":3.5,"meta":{"revision":0,"created":1547531155008,"version":0},"$loki":13},{"_id":"5c3d65bd3525a329e0c10ca0","address":"4643 S Mason St","location":{"type":"Point","coordinates":[-105.0775894,40.5214145]},"isApproved":true,"items":[],"keys":["Pizza","Italian","Chicken Wings"],"lastUpdated":1547527612633,"name":"Pizza Hut","phone":"(970) 223-6656","price":"$$","reviewCount":8,"reviewScore":3,"meta":{"revision":0,"created":1547531155008,"version":0},"$loki":14},{"_id":"5c3d65bd3525a329e0c020b1","address":"1112 Oakridge Dr 101","location":{"type":"Point","coordinates":[-105.057266,40.521915]},"isApproved":true,"items":[],"keys":["Breakfast & Brunch","Cafes","American (Traditional)"],"lastUpdated":1547527612275,"name":"The Egg & I","phone":"(970) 223-8022","price":"$$","reviewCount":40,"reviewScore":4,"meta":{"revision":0,"created":1547531155008,"version":0},"$loki":15},{"_id":"5c3d65bd3525a329e0c04d80","address":"1100 Ken Pratt Blvd","location":{"type":"Point","coordinates":[-105.0576137,40.5215256]},"isApproved":true,"items":[],"keys":["Bakeries","Sandwiches","Coffee & Tea"],"lastUpdated":1547527612338,"name":"Great Harvest Bread","phone":"(303) 772-9090","price":"$","reviewCount":12,"reviewScore":4.5,"meta":{"revision":0,"created":1547531155008,"version":0},"$loki":16},{"_id":"5c3d65bd3525a329e0c01ad3","address":"3310 Arapahoe Ave","location":{"type":"Point","coordinates":[-105.057431,40.5221033]},"isApproved":true,"items":[],"keys":["Sandwiches","Delis","Fast Food"],"lastUpdated":1547527612258,"name":"Jimmy John’s","phone":"(303) 447-3332","price":"$","reviewCount":66,"reviewScore":2,"meta":{"revision":0,"created":1547531155008,"version":0},"$loki":17},{"_id":"5c3d65bd3525a329e0c15c94","address":"1112 Oakridge Dr","location":{"type":"Point","coordinates":[-105.057431,40.5221033]},"isApproved":true,"items":[],"keys":["Pizza"],"lastUpdated":1547527612755,"name":"Cozzola’s Pizza-South","phone":"(970) 229-5771","price":"$$","reviewCount":22,"reviewScore":3.5,"meta":{"revision":0,"created":1547531155008,"version":0},"$loki":18},{"_id":"5c3d65bd3525a329e0c03447","address":"931 E Harmony Rd","location":{"type":"Point","coordinates":[-105.0600339,40.5231082]},"isApproved":true,"items":[],"keys":["American (New)"],"lastUpdated":1547527612302,"name":"Domenics","phone":"(970) 207-0411","price":"$$","reviewCount":75,"reviewScore":4,"meta":{"revision":0,"created":1547531155008,"version":0},"$loki":19},{"_id":"5c3d65bd3525a329e0c097cc","address":"931 E Harmony Rd","location":{"type":"Point","coordinates":[-105.0600339,40.5231082]},"isApproved":true,"items":[],"keys":["Fast Food","Sandwiches"],"lastUpdated":1547527612461,"name":"Subway","phone":"(970) 204-9049","price":"","reviewCount":4,"reviewScore":2,"meta":{"revision":0,"created":1547531155008,"version":0},"$loki":20},{"_id":"5c3d65bd3525a329e0c07e3a","address":"917 Main St","location":{"type":"Point","coordinates":[-105.0614495,40.5231129]},"isApproved":true,"items":[],"keys":["Mexican","Grocery","Meat Shops"],"lastUpdated":1547527612417,"name":"Las Cazuelas","phone":"(303) 776-6619","price":"$$","reviewCount":4,"reviewScore":4.5,"meta":{"revision":0,"created":1547531155008,"version":0},"$loki":21},{"_id":"5c3d65bd3525a329e0c01c38","address":"901 E Harmony Rd","location":{"type":"Point","coordinates":[-105.0614495,40.5231128]},"isApproved":true,"items":[],"keys":["Pizza","Chicken Wings","Sandwiches"],"lastUpdated":1547527612258,"name":"Domino’s Pizza","phone":"(970) 226-3030","price":"$","reviewCount":10,"reviewScore":3,"meta":{"revision":0,"created":1547531155008,"version":0},"$loki":22},{"_id":"5c3d65bd3525a329e0c19f06","address":"1245 Alpine","location":{"type":"Point","coordinates":[-105.060655,40.521796]},"isApproved":true,"items":[],"keys":["Noodles"],"lastUpdated":1547527612851,"name":"Noodles & Company","phone":"(303) 440-4340","price":"$","reviewCount":28,"reviewScore":2.5,"meta":{"revision":0,"created":1547531155008,"version":0},"$loki":23},{"_id":"5c3d65bd3525a329e0c10f0d","address":"1635 28th St","location":{"type":"Point","coordinates":[-105.0597986,40.5215993]},"isApproved":true,"items":[],"keys":["Chinese"],"lastUpdated":1547527612640,"name":"Golden Sun","phone":"(303) 449-0783","price":"$$","reviewCount":123,"reviewScore":2.5,"meta":{"revision":0,"created":1547531155008,"version":0},"$loki":24},{"_id":"5c3d65bd3525a329e0bffa23","address":"501 S College Ave","location":{"type":"Point","coordinates":[-105.0648287,40.5229761]},"isApproved":true,"items":[],"keys":["Fast Food","Burgers","Ice Cream & Frozen Yogurt"],"lastUpdated":1547527612220,"name":"Good Times Burgers & Frozen Custard","phone":"(970) 221-1922","price":"$","reviewCount":11,"reviewScore":3,"meta":{"revision":0,"created":1547531155008,"version":0},"$loki":25},{"_id":"5c3d65bd3525a329e0c004ed","address":"2010 Ken Pratt Blvd.","location":{"type":"Point","coordinates":[-105.0633674,40.523165]},"isApproved":true,"items":[],"keys":["Mexican","Tex-Mex","Fast Food"],"lastUpdated":1547527612226,"name":"Taco Bell","phone":"(303) 651-6862","price":"$","reviewCount":10,"reviewScore":2.5,"meta":{"revision":0,"created":1547531155008,"version":0},"$loki":26},{"_id":"5c3d65bd3525a329e0c1a12e","address":"731 E Harmony Rd","location":{"type":"Point","coordinates":[-105.0639154,40.5231752]},"isApproved":true,"items":[],"keys":["Meat Shops","Sandwiches","Delis"],"lastUpdated":1547527612857,"name":"Honey Baked Ham Company","phone":"(970) 225-1211","price":"$$","reviewCount":8,"reviewScore":3.5,"meta":{"revision":0,"created":1547531155008,"version":0},"$loki":27},{"_id":"5c3d65bd3525a329e0c050ed","address":"731 E Harmony Rd","location":{"type":"Point","coordinates":[-105.0639147,40.5231752]},"isApproved":true,"items":[],"keys":["Pizza"],"lastUpdated":1547527612340,"name":"Papa John’s Pizza","phone":"(970) 207-1000","price":"$","reviewCount":6,"reviewScore":2,"meta":{"revision":0,"created":1547531155008,"version":0},"$loki":28},{"_id":"5c3d65bd3525a329e0c119cd","address":"12169 Sheridan Blvd","location":{"type":"Point","coordinates":[-105.0639147,40.5231554]},"isApproved":true,"items":[],"keys":["Hot Dogs","Food Trucks","Mexican"],"lastUpdated":1547527612651,"name":"The Dog Haus","phone":"(970) 260-1717","price":"","reviewCount":3,"reviewScore":4,"meta":{"revision":0,"created":1547531155008,"version":0},"$loki":29},{"_id":"5c3d65bd3525a329e0c0a1df","address":"1360 Sculptor Dr","location":{"type":"Point","coordinates":[-105.0628621,40.5235437]},"isApproved":true,"items":[],"keys":["Buffets"],"lastUpdated":1547527612473,"name":"Golden Corral","phone":"(970) 461-3000","price":"$$","reviewCount":30,"reviewScore":3,"meta":{"revision":0,"created":1547531155008,"version":0},"$loki":30},{"_id":"5c3d65bd3525a329e0c06379","address":"1754 Hover St","location":{"type":"Point","coordinates":[-105.0530473,40.5241531]},"isApproved":true,"items":[],"keys":["Fast Food","Burgers"],"lastUpdated":1547527612369,"name":"Carl’s Jr","phone":"(303) 776-6215","price":"$","reviewCount":18,"reviewScore":2,"meta":{"revision":0,"created":1547531155008,"version":0},"$loki":31},{"_id":"5c3d65bd3525a329e0c0419a","address":"1212 Oakridge Dr","location":{"type":"Point","coordinates":[-105.0548831,40.5231356]},"isApproved":true,"items":[],"keys":["Italian","Seafood"],"lastUpdated":1547527612320,"name":"Carrabba’s Italian Grill","phone":"(970) 225-6800","price":"$$","reviewCount":66,"reviewScore":3.5,"meta":{"revision":0,"created":1547531155008,"version":0},"$loki":32},{"_id":"5c3d65bd3525a329e0c0fe13","address":"1502 Oakridge Dr","location":{"type":"Point","coordinates":[-105.05186,40.52313]},"isApproved":true,"items":[],"keys":["Breakfast & Brunch","American (Traditional)","Burgers"],"lastUpdated":1547527612608,"name":"IHOP","phone":"(970) 226-3154","price":"$$","reviewCount":14,"reviewScore":2.5,"meta":{"revision":0,"created":1547531155008,"version":0},"$loki":33},{"_id":"5c3d65bd3525a329e0c0c1fe","address":"1514 E Harmony Rd","location":{"type":"Point","coordinates":[-105.0509469,40.5252093]},"isApproved":true,"items":[],"keys":["Chinese"],"lastUpdated":1547527612517,"name":"China Wok","phone":"(970) 223-8867","price":"$","reviewCount":35,"reviewScore":3.5,"meta":{"revision":0,"created":1547531155008,"version":0},"$loki":34},{"_id":"5c3d65bd3525a329e0c17ec2","address":"1514 E Harmony Rd","location":{"type":"Point","coordinates":[-105.0509469,40.5252156]},"isApproved":true,"items":[],"keys":["Pizza"],"lastUpdated":1547527612802,"name":"Little Caesars Pizza","phone":"(970) 225-2050","price":"$","reviewCount":7,"reviewScore":3,"meta":{"revision":0,"created":1547531155008,"version":0},"$loki":35},{"_id":"5c3d65bd3525a329e0c0a0f2","address":"1538 E Harmony Rd","location":{"type":"Point","coordinates":[-105.04944,40.524982]},"isApproved":true,"items":[],"keys":["Delis","Sandwiches","Salad"],"lastUpdated":1547527612473,"name":"Jason’s Deli","phone":"(970) 829-1574","price":"$","reviewCount":47,"reviewScore":3.5,"meta":{"revision":0,"created":1547531155008,"version":0},"$loki":36},{"_id":"5c3d65bd3525a329e0c025b1","address":"2400 E Harmony Rd","location":{"type":"Point","coordinates":[-105.033248,40.523724]},"isApproved":true,"items":[],"keys":["Mexican"],"lastUpdated":1547527612278,"name":"Zquila","phone":"(970) 631-8565","price":"$$","reviewCount":114,"reviewScore":3,"meta":{"revision":0,"created":1547531155008,"version":0},"$loki":37},{"_id":"5c3d65bd3525a329e0c09dd6","address":"2400 E Harmony Rd","location":{"type":"Point","coordinates":[-105.033248,40.523729]},"isApproved":true,"items":[],"keys":["Sushi Bars","Steakhouses","Japanese"],"lastUpdated":1547527612471,"name":"Masa Hibachi Steakhouse & Sushi","phone":"(970) 223-0666","price":"$$","reviewCount":38,"reviewScore":4,"meta":{"revision":0,"created":1547531155008,"version":0},"$loki":38},{"_id":"5c3d65bd3525a329e0bfffc5","address":"216 E 29th St","location":{"type":"Point","coordinates":[-105.033804,40.523714]},"isApproved":true,"items":[],"keys":["Thai"],"lastUpdated":1547527612223,"name":"Bangkok89","phone":"(970) 775-2653","price":"","reviewCount":18,"reviewScore":5,"meta":{"revision":0,"created":1547531155008,"version":0},"$loki":39},{"_id":"5c3d65bd3525a329e0c0c696","address":"807 E Harmony Rd","location":{"type":"Point","coordinates":[-105.037263035774,40.5238473240739]},"isApproved":true,"items":[],"keys":["Steakhouses"],"lastUpdated":1547527612525,"name":"Outback Steakhouse","phone":"(970) 229-0889","price":"$$","reviewCount":54,"reviewScore":3,"meta":{"revision":0,"created":1547531155008,"version":0},"$loki":40},{"_id":"5c3d65bd3525a329e0c18615","address":"2991 N Garfield Ave","location":{"type":"Point","coordinates":[-105.0368836,40.523734]},"isApproved":true,"items":[],"keys":["Fast Food","Chicken Shop","Chicken Wings"],"lastUpdated":1547527612815,"name":"KFC","phone":"(970) 669-1100","price":"","reviewCount":1,"reviewScore":5,"meta":{"revision":0,"created":1547531155008,"version":0},"$loki":41},{"_id":"5c3d65bd3525a329e0c15e06","address":"2120 East Harmony Rd","location":{"type":"Point","coordinates":[-105.037021636963,40.5235863517233]},"isApproved":true,"items":[],"keys":["Salad","Juice Bars & Smoothies","Wraps"],"lastUpdated":1547527612755,"name":"MAD Greens - Fort Collins","phone":"(970) 372-6216","price":"$","reviewCount":51,"reviewScore":4,"meta":{"revision":0,"created":1547531155008,"version":0},"$loki":42},{"_id":"5c3d65bd3525a329e0c0d889","address":"526 Main St","location":{"type":"Point","coordinates":[-105.042177,40.5222539]},"isApproved":true,"items":[],"keys":["Pizza"],"lastUpdated":1547527612555,"name":"7 West Pizzeria & Pub","phone":"(303) 678-9378","price":"","reviewCount":3,"reviewScore":3,"meta":{"revision":0,"created":1547531155008,"version":0},"$loki":43},{"_id":"5c3d65bd3525a329e0c0b3a2","address":"535 3rd St","location":{"type":"Point","coordinates":[-105.043166489565,40.522868672605]},"isApproved":true,"items":[],"keys":["American (Traditional)"],"lastUpdated":1547527612498,"name":"Whistle Stop Tavern","phone":"(970) 344-5061","price":"$$","reviewCount":7,"reviewScore":2.5,"meta":{"revision":0,"created":1547531155008,"version":0},"$loki":44},{"_id":"5c3d65bd3525a329e0c0dc58","address":"4633 S Timberline Rd","location":{"type":"Point","coordinates":[-105.041786,40.521929]},"isApproved":true,"items":[],"keys":["Steakhouses","Barbeque"],"lastUpdated":1547527612556,"name":"Texas Roadhouse","phone":"(970) 207-0006","price":"$$","reviewCount":65,"reviewScore":3.5,"meta":{"revision":0,"created":1547531155008,"version":0},"$loki":45},{"_id":"5c3d65bd3525a329e0c184da","address":"4709 S Timberline Rd","location":{"type":"Point","coordinates":[-105.039512,40.520557]},"isApproved":true,"items":[],"keys":["Sandwiches","Fast Food","Delis"],"lastUpdated":1547527612814,"name":"Jersey Mike’s Subs","phone":"(970) 226-6453","price":"$","reviewCount":44,"reviewScore":2.5,"meta":{"revision":0,"created":1547531155008,"version":0},"$loki":46},{"_id":"5c3d65bd3525a329e0c0711a","address":"15 Ken Pratt Blvd","location":{"type":"Point","coordinates":[-105.040278,40.520337]},"isApproved":true,"items":[],"keys":["Pizza"],"lastUpdated":1547527612389,"name":"Toppers Pizza","phone":"(720) 642-7100","price":"$$","reviewCount":29,"reviewScore":3.5,"meta":{"revision":0,"created":1547531155008,"version":0},"$loki":47},{"_id":"5c3d65bd3525a329e0c1b3b8","address":"4733 S Timberline Rd","location":{"type":"Point","coordinates":[-105.040278,40.520337]},"isApproved":true,"items":[],"keys":["Pizza","Italian"],"lastUpdated":1547527612884,"name":"Mama Roni’s Pizza","phone":"(970) 225-6262","price":"$$","reviewCount":33,"reviewScore":3,"meta":{"revision":0,"created":1547531155008,"version":0},"$loki":48},{"_id":"5c3d65bd3525a329e0c11e75","address":"4727 S Timberline Rd","location":{"type":"Point","coordinates":[-105.040417313576,40.521065010841]},"isApproved":true,"items":[],"keys":["Chinese","Noodles","Vegetarian"],"lastUpdated":1547527612662,"name":"Sally’s Kitchen","phone":"(970) 377-4112","price":"$","reviewCount":153,"reviewScore":4,"meta":{"revision":0,"created":1547531155008,"version":0},"$loki":49},{"_id":"5c3d65bd3525a329e0c0821a","address":"4624 S Mason","location":{"type":"Point","coordinates":[-105.0403266,40.5216796]},"isApproved":true,"items":[],"keys":["Italian"],"lastUpdated":1547527612420,"name":"Fazoli’s","phone":"(970) 204-6865","price":"$","reviewCount":13,"reviewScore":3,"meta":{"revision":0,"created":1547531155008,"version":0},"$loki":50},{"_id":"5c3d65bd3525a329e0c03699","address":"6001 S College Ave","location":{"type":"Point","coordinates":[-105.0779848,40.5028873]},"isApproved":true,"items":[],"keys":["Delis"],"lastUpdated":1547527612303,"name":"Deli-Works","phone":"(970) 226-4308","price":"$","reviewCount":35,"reviewScore":4,"meta":{"revision":0,"created":1547531155008,"version":0},"$loki":51},{"_id":"5c3d65bd3525a329e0c18995","address":"6533 S College Ave","location":{"type":"Point","coordinates":[-105.0782999,40.4958684]},"isApproved":true,"items":[],"keys":["Coffee & Tea","Breakfast & Brunch","Juice Bars & Smoothies"],"lastUpdated":1547527612823,"name":"Ziggi’s Coffee","phone":"(970) 689-3800","price":"","reviewCount":1,"reviewScore":5,"meta":{"revision":0,"created":1547531155008,"version":0},"$loki":52},{"_id":"5c3d65bd3525a329e0c07cbb","address":"1163 Eagle Dr","location":{"type":"Point","coordinates":[-105.07791208087,40.4589155321527]},"isApproved":true,"items":[],"keys":["Pizza","Chicken Wings","Sandwiches"],"lastUpdated":1547527612411,"name":"Domino’s Pizza","phone":"(970) 669-8512","price":"$$","reviewCount":8,"reviewScore":2.5,"meta":{"revision":0,"created":1547531155008,"version":0},"$loki":53},{"_id":"5c3d65bd3525a329e0c1b0de","address":"155 W 64th St","location":{"type":"Point","coordinates":[-105.0781409,40.4553581]},"isApproved":true,"items":[],"keys":["American (New)"],"lastUpdated":1547527612877,"name":"Freddy’s Frozen Custard & Steakburgers","phone":"(970) 685-4575","price":"$","reviewCount":13,"reviewScore":3.5,"meta":{"revision":0,"created":1547531155008,"version":0},"$loki":54},{"_id":"5c3d65bd3525a329e0c19bce","address":"2188 W Eisenhower Blvd","location":{"type":"Point","coordinates":[-105.079136,40.455347]},"isApproved":true,"items":[],"keys":["Pizza","Italian","Chicken Wings"],"lastUpdated":1547527612850,"name":"Pizza Hut","phone":"(970) 203-9999","price":"$","reviewCount":10,"reviewScore":3,"meta":{"revision":0,"created":1547531155008,"version":0},"$loki":55},{"_id":"5c3d65bd3525a329e0c04e0f","address":"270 W 64th St","location":{"type":"Point","coordinates":[-105.082687,40.455699]},"isApproved":true,"items":[],"keys":["Sandwiches","Fast Food"],"lastUpdated":1547527612338,"name":"Subway","phone":"(970) 613-1767","price":"","reviewCount":11,"reviewScore":2,"meta":{"revision":0,"created":1547531155008,"version":0},"$loki":56},{"_id":"5c3d65bd3525a329e0c12850","address":"830 Lashley St","location":{"type":"Point","coordinates":[-105.0797077,40.4653989]},"isApproved":true,"items":[],"keys":["Mexican"],"lastUpdated":1547527612678,"name":"Las Americas Tortilleria","phone":"(303) 651-3454","price":"$","reviewCount":14,"reviewScore":4,"meta":{"revision":0,"created":1547531155008,"version":0},"$loki":57},{"_id":"5c3d65bd3525a329e0c0e8c5","address":"1480 Cascade Ave","location":{"type":"Point","coordinates":[-105.1297786,40.4077516]},"isApproved":true,"items":[],"keys":["Breweries","Pizza"],"lastUpdated":1547527612575,"name":"5030 Local","phone":"","price":"","reviewCount":1,"reviewScore":5,"meta":{"revision":0,"created":1547531155008,"version":0},"$loki":58},{"_id":"5c3d65bd3525a329e0c18847","address":"4527 W Eisenhower Blvd","location":{"type":"Point","coordinates":[-105.1414742,40.4072886]},"isApproved":true,"items":[],"keys":["Coffee & Tea","Food Stands","Juice Bars & Smoothies"],"lastUpdated":1547527612822,"name":"Jamoka Joe’s","phone":"(970) 215-7078","price":"$","reviewCount":9,"reviewScore":5,"meta":{"revision":0,"created":1547531155008,"version":0},"$loki":59},{"_id":"5c3d65bd3525a329e0c170a5","address":"3080 W Eisenhower Blvd","location":{"type":"Point","coordinates":[-105.1193411,40.4069447]},"isApproved":true,"items":[],"keys":["Ice Cream & Frozen Yogurt","Burgers","Hot Dogs"],"lastUpdated":1547527612782,"name":"Dairy Delite","phone":"(970) 667-2111","price":"$","reviewCount":34,"reviewScore":4,"meta":{"revision":0,"created":1547531155008,"version":0},"$loki":60},{"_id":"5c3d65bd3525a329e0c01257","address":"2285 W Eisenhower Blvd","location":{"type":"Point","coordinates":[-105.108687369174,40.4087593732691]},"isApproved":true,"items":[],"keys":["Chinese"],"lastUpdated":1547527612240,"name":"Main Moon Chinese Kitchen","phone":"(970) 669-8811","price":"$","reviewCount":40,"reviewScore":3.5,"meta":{"revision":0,"created":1547531155008,"version":0},"$loki":61},{"_id":"5c3d65bd3525a329e0c18696","address":"2222 W Eisenhower Blvd","location":{"type":"Point","coordinates":[-105.108416676521,40.406940283226]},"isApproved":true,"items":[],"keys":["Bakeries","Breakfast & Brunch","American (Traditional)"],"lastUpdated":1547527612815,"name":"Perkins Restaurant & Bakery","phone":"(970) 663-1944","price":"$","reviewCount":17,"reviewScore":2,"meta":{"revision":0,"created":1547531155008,"version":0},"$loki":62},{"_id":"5c3d65bd3525a329e0c01d9a","address":"1391 N Denver Ave","location":{"type":"Point","coordinates":[-105.1099301,40.407653]},"isApproved":true,"items":[],"keys":["Chinese","Fast Food"],"lastUpdated":1547527612259,"name":"Panda Express","phone":"(970) 669-1818","price":"$","reviewCount":19,"reviewScore":2.5,"meta":{"revision":0,"created":1547531155008,"version":0},"$loki":63},{"_id":"5c3d65bd3525a329e0c15ad8","address":"2339 N Main St","location":{"type":"Point","coordinates":[-105.1076462,40.4069852]},"isApproved":true,"items":[],"keys":["Fast Food","Burgers","Ice Cream & Frozen Yogurt"],"lastUpdated":1547527612753,"name":"Sonic Drive-In","phone":"(303) 651-9613","price":"$","reviewCount":54,"reviewScore":1,"meta":{"revision":0,"created":1547531155008,"version":0},"$loki":64},{"_id":"5c3d65bd3525a329e0c1abb9","address":"1906 W Eisenhower Blvd","location":{"type":"Point","coordinates":[-105.1044787,40.4069215]},"isApproved":true,"items":[],"keys":["Pizza"],"lastUpdated":1547527612869,"name":"Justine’s Pizza","phone":"(970) 667-8808","price":"$$","reviewCount":33,"reviewScore":4.5,"meta":{"revision":0,"created":1547531155008,"version":0},"$loki":65},{"_id":"5c3d65bd3525a329e0c1960d","address":"1611 W Eisenhower Blvd","location":{"type":"Point","coordinates":[-105.100638,40.407486]},"isApproved":true,"items":[],"keys":["Chinese"],"lastUpdated":1547527612841,"name":"Bamboo Express","phone":"(970) 663-5138","price":"$","reviewCount":15,"reviewScore":3.5,"meta":{"revision":0,"created":1547531155008,"version":0},"$loki":66},{"_id":"5c3d65bd3525a329e0c01e28","address":"2220 Main Street","location":{"type":"Point","coordinates":[-105.1013428,40.4075524]},"isApproved":true,"items":[],"keys":["Fast Food","Mexican"],"lastUpdated":1547527612260,"name":"Taco Bell","phone":"(303) 651-1322","price":"$","reviewCount":24,"reviewScore":1.5,"meta":{"revision":0,"created":1547531155008,"version":0},"$loki":67},{"_id":"5c3d65bd3525a329e0c05d75","address":"1809 W Eisenhower Rd","location":{"type":"Point","coordinates":[-105.102153,40.407663]},"isApproved":true,"items":[],"keys":["Burgers","Fast Food","Coffee & Tea"],"lastUpdated":1547527612361,"name":"McDonald’s","phone":"(970) 669-4211","price":"$","reviewCount":17,"reviewScore":2.5,"meta":{"revision":0,"created":1547531155008,"version":0},"$loki":68},{"_id":"5c3d65bd3525a329e0c0a18a","address":"1525 W Eisenhower Blvd","location":{"type":"Point","coordinates":[-105.099107793448,40.407425995401]},"isApproved":true,"items":[],"keys":["Cafes"],"lastUpdated":1547527612473,"name":"Ocean Bistro","phone":"(970) 461-7731","price":"$$","reviewCount":27,"reviewScore":4.5,"meta":{"revision":0,"created":1547531155008,"version":0},"$loki":69},{"_id":"5c3d65bd3525a329e0c17e65","address":"1519 W Eisenhower Blvd","location":{"type":"Point","coordinates":[-105.0988991,40.407508]},"isApproved":true,"items":[],"keys":["Fast Food","Burgers"],"lastUpdated":1547527612802,"name":"Wendy’s","phone":"(970) 663-3830","price":"$","reviewCount":10,"reviewScore":1,"meta":{"revision":0,"created":1547531155008,"version":0},"$loki":70},{"_id":"5c3d65bd3525a329e0c15e53","address":"1430 W Eisenhower Blvd","location":{"type":"Point","coordinates":[-105.0981696,40.4068266]},"isApproved":true,"items":[],"keys":["Sandwiches"],"lastUpdated":1547527612755,"name":"Silver Mine Subs","phone":"(970) 669-6900","price":"$","reviewCount":28,"reviewScore":2.5,"meta":{"revision":0,"created":1547531155008,"version":0},"$loki":71},{"_id":"5c3d65bd3525a329e0c053bb","address":"1421 W Eisenhower Blvd","location":{"type":"Point","coordinates":[-105.0978374,40.407487]},"isApproved":true,"items":[],"keys":["Mexican","Fast Food"],"lastUpdated":1547527612346,"name":"Chipotle Mexican Grill","phone":"(970) 635-0099","price":"$","reviewCount":14,"reviewScore":4,"meta":{"revision":0,"created":1547531155008,"version":0},"$loki":72},{"_id":"5c3d65bd3525a329e0c09eb9","address":"1100 Oakridge Dr","location":{"type":"Point","coordinates":[-105.0988093,40.4080117]},"isApproved":true,"items":[],"keys":["Pizza"],"lastUpdated":1547527612471,"name":"Otto Pint","phone":"(970) 226-1464","price":"$$","reviewCount":112,"reviewScore":3.5,"meta":{"revision":0,"created":1547531155008,"version":0},"$loki":73},{"_id":"5c3d65bd3525a329e0c09431","address":"1225 W Eisenhower Blvd","location":{"type":"Point","coordinates":[-105.095702,40.407519]},"isApproved":true,"items":[],"keys":["Breakfast & Brunch","Burgers","Sandwiches"],"lastUpdated":1547527612453,"name":"Village Inn","phone":"(970) 667-8555","price":"$$","reviewCount":26,"reviewScore":2.5,"meta":{"revision":0,"created":1547531155008,"version":0},"$loki":74},{"_id":"5c3d65bd3525a329e0c16851","address":"120 W 45th St","location":{"type":"Point","coordinates":[-105.077936971465,40.4378615427291]},"isApproved":true,"items":[],"keys":["Fast Food","Burgers","Ice Cream & Frozen Yogurt"],"lastUpdated":1547527612772,"name":"Sonic Drive-In","phone":"(970) 461-5858","price":"$","reviewCount":14,"reviewScore":1.5,"meta":{"revision":0,"created":1547531155008,"version":0},"$loki":75},{"_id":"5c3d65bd3525a329e0c021f9","address":"129 E 37th St","location":{"type":"Point","coordinates":[-105.07620699762,40.4309332235984]},"isApproved":true,"items":[],"keys":["Pizza"],"lastUpdated":1547527612276,"name":"Little Caesar’s Pizza","phone":"(970) 203-1484","price":"$$","reviewCount":10,"reviewScore":2,"meta":{"revision":0,"created":1547531155008,"version":0},"$loki":76},{"_id":"5c3d65bd3525a329e0c04dbf","address":"630 E 29th St","location":{"type":"Point","coordinates":[-105.0691324,40.4212452]},"isApproved":true,"items":[],"keys":["American (Traditional)"],"lastUpdated":1547527612338,"name":"Twin Sisters","phone":"(970) 663-7130","price":"$","reviewCount":10,"reviewScore":3,"meta":{"revision":0,"created":1547531155008,"version":0},"$loki":77},{"_id":"5c3d65bd3525a329e0c0f128","address":"630 E 29th St","location":{"type":"Point","coordinates":[-105.0691324,40.4212452]},"isApproved":true,"items":[],"keys":["Fast Food","Sandwiches"],"lastUpdated":1547527612590,"name":"Quiznos","phone":"(970) 663-7130","price":"","reviewCount":3,"reviewScore":1.5,"meta":{"revision":0,"created":1547531155008,"version":0},"$loki":78},{"_id":"5c3d65bd3525a329e0c059f8","address":"285 E 29th St","location":{"type":"Point","coordinates":[-105.073657790719,40.4238835293573]},"isApproved":true,"items":[],"keys":["Italian"],"lastUpdated":1547527612355,"name":"Blocky’s Eatery","phone":"(970) 292-8353","price":"$","reviewCount":68,"reviewScore":4.5,"meta":{"revision":0,"created":1547531155008,"version":0},"$loki":79},{"_id":"5c3d65bd3525a329e0c00929","address":"115 65th St","location":{"type":"Point","coordinates":[-105.0748299,40.4249977]},"isApproved":true,"items":[],"keys":["Fast Food","Breakfast & Brunch"],"lastUpdated":1547527612229,"name":"Taco Bell","phone":"","price":"","reviewCount":28,"reviewScore":1.5,"meta":{"revision":0,"created":1547531155008,"version":0},"$loki":80},{"_id":"5c3d65bd3525a329e0c0ef30","address":"1600 28th St","location":{"type":"Point","coordinates":[-105.076829,40.426623]},"isApproved":true,"items":[],"keys":["Noodles"],"lastUpdated":1547527612583,"name":"Noodles & Company","phone":"(303) 546-9000","price":"$","reviewCount":41,"reviewScore":3,"meta":{"revision":0,"created":1547531155008,"version":0},"$loki":81},{"_id":"5c3d65bd3525a329e0c14554","address":"3320 N Garfield Ave","location":{"type":"Point","coordinates":[-105.076885,40.4268589]},"isApproved":true,"items":[],"keys":["Japanese"],"lastUpdated":1547527612715,"name":"Osaka Hibachi Japanese Steakhouse","phone":"(970) 663-5699","price":"$$","reviewCount":21,"reviewScore":3.5,"meta":{"revision":0,"created":1547531155008,"version":0},"$loki":82},{"_id":"5c3d65bd3525a329e0c06159","address":"3201 Walnut St","location":{"type":"Point","coordinates":[-105.0778312,40.424279]},"isApproved":true,"items":[],"keys":["Pizza","American (Traditional)","Bars"],"lastUpdated":1547527612368,"name":"Twisted Pine Brewing Company","phone":"(303) 786-9270","price":"","reviewCount":2,"reviewScore":3.5,"meta":{"revision":0,"created":1547531155008,"version":0},"$loki":83},{"_id":"5c3d65bd3525a329e0c01c43","address":"237 E 29th St","location":{"type":"Point","coordinates":[-105.076973694063,40.4243195637243]},"isApproved":true,"items":[],"keys":["Pizza","Italian","Chicken Wings"],"lastUpdated":1547527612258,"name":"Pizza Hut","phone":"(970) 203-1111","price":"","reviewCount":7,"reviewScore":2.5,"meta":{"revision":0,"created":1547531155008,"version":0},"$loki":84},{"_id":"5c3d65bd3525a329e0c11321","address":"243 E 29th St","location":{"type":"Point","coordinates":[-105.0770448,40.4245669]},"isApproved":true,"items":[],"keys":["Mexican"],"lastUpdated":1547527612642,"name":"Casa Real","phone":"(970) 663-4589","price":"$$","reviewCount":54,"reviewScore":3.5,"meta":{"revision":0,"created":1547531155008,"version":0},"$loki":85},{"_id":"5c3d65bd3525a329e0c0d2a7","address":"233 E 29th St","location":{"type":"Point","coordinates":[-105.076950711639,40.4237994397712]},"isApproved":true,"items":[],"keys":["Mexican","Fast Food"],"lastUpdated":1547527612545,"name":"QDOBA Mexican Eats","phone":"(970) 622-2070","price":"","reviewCount":9,"reviewScore":3,"meta":{"revision":0,"created":1547531155008,"version":0},"$loki":86},{"_id":"5c3d65bd3525a329e0c03676","address":"2051 N Main","location":{"type":"Point","coordinates":[-105.0779582,40.4232388]},"isApproved":true,"items":[],"keys":["Breakfast & Brunch","Bakeries","American (Traditional)"],"lastUpdated":1547527612303,"name":"Perkins Restaurant & Bakery","phone":"(303) 772-1410","price":"$","reviewCount":26,"reviewScore":2.5,"meta":{"revision":0,"created":1547531155008,"version":0},"$loki":87},{"_id":"5c3d65bd3525a329e0c113e3","address":"110 E 29th St","location":{"type":"Point","coordinates":[-105.077257890608,40.4207893]},"isApproved":true,"items":[],"keys":["Breweries","Pubs","Burgers"],"lastUpdated":1547527612642,"name":"Tilted Barrel Brew Pub","phone":"(970) 619-8950","price":"$$","reviewCount":34,"reviewScore":4,"meta":{"revision":0,"created":1547531155008,"version":0},"$loki":88},{"_id":"5c3d65bd3525a329e0c0ddb3","address":"104 E 29th St","location":{"type":"Point","coordinates":[-105.0765975,40.4213743]},"isApproved":true,"items":[],"keys":["Barbeque","American (Traditional)","Southern"],"lastUpdated":1547527612563,"name":"Dickey’s Barbecue Pit","phone":"(970) 663-5050","price":"$$","reviewCount":19,"reviewScore":3,"meta":{"revision":0,"created":1547531155008,"version":0},"$loki":89},{"_id":"5c3d65bd3525a329e0c0e0b4","address":"104 E 29th St","location":{"type":"Point","coordinates":[-105.0765975,40.4213743]},"isApproved":true,"items":[],"keys":["Italian","Pizza"],"lastUpdated":1547527612565,"name":"Abo’s Pizza","phone":"(970) 663-1122","price":"","reviewCount":1,"reviewScore":1,"meta":{"revision":0,"created":1547531155008,"version":0},"$loki":90},{"_id":"5c3d65bd3525a329e0c058ed","address":"225 E 29th St","location":{"type":"Point","coordinates":[-105.0765196,40.42271]},"isApproved":true,"items":[],"keys":["Noodles"],"lastUpdated":1547527612355,"name":"Noodles & Company","phone":"(970) 663-9366","price":"$","reviewCount":10,"reviewScore":2.5,"meta":{"revision":0,"created":1547531155008,"version":0},"$loki":91},{"_id":"5c3d65bd3525a329e0bffef1","address":"213 E 29th St","location":{"type":"Point","coordinates":[-105.075816,40.422019]},"isApproved":true,"items":[],"keys":["Sports Bars","Burgers","American (Traditional)"],"lastUpdated":1547527612223,"name":"Applebee’s Grill + Bar","phone":"(970) 593-0655","price":"$$","reviewCount":28,"reviewScore":3,"meta":{"revision":0,"created":1547531155008,"version":0},"$loki":92},{"_id":"5c3d65bd3525a329e0c10bdb","address":"1106 Main St","location":{"type":"Point","coordinates":[-105.075183,40.4220522]},"isApproved":true,"items":[],"keys":["Pizza","Chicken Wings","Sandwiches"],"lastUpdated":1547527612632,"name":"Domino’s Pizza","phone":"(303) 772-3030","price":"$","reviewCount":21,"reviewScore":2,"meta":{"revision":0,"created":1547531155008,"version":0},"$loki":93},{"_id":"5c3d65bd3525a329e0c12581","address":"228 E 29th St","location":{"type":"Point","coordinates":[-105.074259,40.4210448]},"isApproved":true,"items":[],"keys":["Pizza"],"lastUpdated":1547527612670,"name":"Papa John’s Pizza","phone":"(970) 203-1212","price":"$$","reviewCount":12,"reviewScore":3,"meta":{"revision":0,"created":1547531155008,"version":0},"$loki":94},{"_id":"5c3d65bd3525a329e0c172af","address":"174 E 29th St","location":{"type":"Point","coordinates":[-105.075878730058,40.4206878581029]},"isApproved":true,"items":[],"keys":["Mexican"],"lastUpdated":1547527612783,"name":"Tito’s Mexican Grill","phone":"(970) 669-8486","price":"$","reviewCount":30,"reviewScore":3.5,"meta":{"revision":0,"created":1547531155008,"version":0},"$loki":95},{"_id":"5c3d65bd3525a329e0c077ce","address":"198 E 29th St","location":{"type":"Point","coordinates":[-105.0755304,40.4205244]},"isApproved":true,"items":[],"keys":["Japanese","Sushi Bars"],"lastUpdated":1547527612408,"name":"Sushi Jooa","phone":"(970) 685-4694","price":"$$","reviewCount":28,"reviewScore":4,"meta":{"revision":0,"created":1547531155008,"version":0},"$loki":96},{"_id":"5c3d65bd3525a329e0c17151","address":"256 E 29th St","location":{"type":"Point","coordinates":[-105.0734195,40.420285]},"isApproved":true,"items":[],"keys":["Fast Food","Sandwiches"],"lastUpdated":1547527612782,"name":"Subway","phone":"(970) 663-7874","price":"$","reviewCount":5,"reviewScore":2.5,"meta":{"revision":0,"created":1547531155008,"version":0},"$loki":97},{"_id":"5c3d65bd3525a329e0bffea2","address":"130 W Olive St","location":{"type":"Point","coordinates":[-105.073699951172,40.4183654785156]},"isApproved":true,"items":[],"keys":["Food Trucks","Breakfast & Brunch","Waffles"],"lastUpdated":1547527612222,"name":"Waffle Lab","phone":"(970) 232-9433","price":"$$","reviewCount":142,"reviewScore":4,"meta":{"revision":0,"created":1547531155008,"version":0},"$loki":98},{"_id":"5c3d65bd3525a329e0c06c89","address":"2204 N Lincoln Ave","location":{"type":"Point","coordinates":[-105.072582,40.415064]},"isApproved":true,"items":[],"keys":["Burgers"],"lastUpdated":1547527612386,"name":"Runza Drive Inn","phone":"(970) 669-2131","price":"$","reviewCount":39,"reviewScore":4,"meta":{"revision":0,"created":1547531155008,"version":0},"$loki":99},{"_id":"5c3d65bd3525a329e0c0f15d","address":"1635 N Lincoln Ave","location":{"type":"Point","coordinates":[-105.073451399803,40.4107186066707]},"isApproved":true,"items":[],"keys":["Mexican","Fast Food"],"lastUpdated":1547527612591,"name":"Taco John’s","phone":"(970) 667-2066","price":"$","reviewCount":6,"reviewScore":3.5,"meta":{"revision":0,"created":1547531155008,"version":0},"$loki":100},{"_id":"5c3d65bd3525a329e0c16d21","address":"5350 Arapahoe Rd","location":{"type":"Point","coordinates":[-105.0734335,40.4069647]},"isApproved":true,"items":[],"keys":["Fast Food","Burgers"],"lastUpdated":1547527612774,"name":"Wendy’s","phone":"(303) 449-4644","price":"$","reviewCount":15,"reviewScore":3,"meta":{"revision":0,"created":1547531155008,"version":0},"$loki":101},{"_id":"5c3d65bd3525a329e0c1914e","address":"1340 Cleveland Ave","location":{"type":"Point","coordinates":[-105.073952,40.4069484]},"isApproved":true,"items":[],"keys":["Fast Food","Burgers"],"lastUpdated":1547527612833,"name":"Carl’s Jr","phone":"(970) 669-2922","price":"$","reviewCount":10,"reviewScore":1.5,"meta":{"revision":0,"created":1547531155008,"version":0},"$loki":102},{"_id":"5c3d65bd3525a329e0c05ccd","address":"1435 N Cleveland Ave","location":{"type":"Point","coordinates":[-105.0748979,40.4081155]},"isApproved":true,"items":[],"keys":["Pizza","Italian"],"lastUpdated":1547527612357,"name":"Blackjack Pizza & Salads","phone":"(970) 669-1717","price":"$","reviewCount":13,"reviewScore":3.5,"meta":{"revision":0,"created":1547531155008,"version":0},"$loki":103},{"_id":"5c3d65bd3525a329e0c064af","address":"300 E Eisenhower Blvd","location":{"type":"Point","coordinates":[-105.0727733,40.4070029]},"isApproved":true,"items":[],"keys":["Ice Cream & Frozen Yogurt","Fast Food"],"lastUpdated":1547527612371,"name":"Dairy Queen","phone":"(970) 461-3456","price":"$","reviewCount":14,"reviewScore":3.5,"meta":{"revision":0,"created":1547531155008,"version":0},"$loki":104},{"_id":"5c3d65bd3525a329e0c08d01","address":"1356 N Lincoln Ave","location":{"type":"Point","coordinates":[-105.0728031,40.4067675]},"isApproved":true,"items":[],"keys":["Mexican"],"lastUpdated":1547527612436,"name":"Tata’s Burritos","phone":"(970) 663-2300","price":"$","reviewCount":69,"reviewScore":3.5,"meta":{"revision":0,"created":1547531155008,"version":0},"$loki":105},{"_id":"5c3d65bd3525a329e0c12d38","address":"1569 Fall River Dr","location":{"type":"Point","coordinates":[-105.073203,40.406155]},"isApproved":true,"items":[],"keys":["Sandwiches","Delis","Fast Food"],"lastUpdated":1547527612681,"name":"Jimmy John’s","phone":"(970) 624-6077","price":"$","reviewCount":19,"reviewScore":3,"meta":{"revision":0,"created":1547531155008,"version":0},"$loki":106},{"_id":"5c3d65bd3525a329e0c0a6c5","address":"205 W 4th St","location":{"type":"Point","coordinates":[-105.0782551,40.3957697]},"isApproved":true,"items":[],"keys":["Italian","American (Traditional)"],"lastUpdated":1547527612481,"name":"The Hobnob Restaurant","phone":"(970) 663-5527","price":"$$","reviewCount":8,"reviewScore":3.5,"meta":{"revision":0,"created":1547531155008,"version":0},"$loki":107},{"_id":"5c3d65bd3525a329e0c00bbc","address":"530 Cleveland Ave","location":{"type":"Point","coordinates":[-105.074340839712,40.3973205835329]},"isApproved":true,"items":[],"keys":["Italian","Wine Bars"],"lastUpdated":1547527612230,"name":"Slate Italian Eatery","phone":"(970) 775-2397","price":"$$","reviewCount":82,"reviewScore":4,"meta":{"revision":0,"created":1547531155008,"version":0},"$loki":108},{"_id":"5c3d65bd3525a329e0c140f6","address":"409 N Railroad Ave","location":{"type":"Point","coordinates":[-105.0760877,40.3960468]},"isApproved":true,"items":[],"keys":["American (Traditional)","Sports Bars"],"lastUpdated":1547527612707,"name":"Sports Station American Grill","phone":"(970) 461-8825","price":"$$","reviewCount":63,"reviewScore":3.5,"meta":{"revision":0,"created":1547531155008,"version":0},"$loki":109},{"_id":"5c3d65bd3525a329e0c141fa","address":"2299 Pearl St","location":{"type":"Point","coordinates":[-105.0753224,40.3956235]},"isApproved":true,"items":[],"keys":["Beer, Wine & Spirits","Delis","Pizza"],"lastUpdated":1547527612713,"name":"Bow Tie Cafe & Spirits","phone":"(303) 938-1128","price":"$$","reviewCount":111,"reviewScore":3.5,"meta":{"revision":0,"created":1547531155008,"version":0},"$loki":110},{"_id":"5c3d65bd3525a329e0c1738d","address":"141 E 4th St","location":{"type":"Point","coordinates":[-105.0748042,40.3956468]},"isApproved":true,"items":[],"keys":["Cajun/Creole","Southern","Soul Food"],"lastUpdated":1547527612783,"name":"Mo’Betta Gumbo","phone":"(970) 685-4842","price":"$$","reviewCount":352,"reviewScore":4,"meta":{"revision":0,"created":1547531155008,"version":0},"$loki":111},{"_id":"5c3d65bd3525a329e0c0f8d8","address":"234 E 4th St","location":{"type":"Point","coordinates":[-105.0736767,40.3952128]},"isApproved":true,"items":[],"keys":["American (Traditional)","Pubs","Gastropubs"],"lastUpdated":1547527612600,"name":"Henry’s Pub","phone":"(970) 613-1896","price":"$$","reviewCount":250,"reviewScore":4.5,"meta":{"revision":0,"created":1547531155008,"version":0},"$loki":112},{"_id":"5c3d65bd3525a329e0c0ed85","address":"830 Grand Ave","location":{"type":"Point","coordinates":[-105.074059,40.395164]},"isApproved":true,"items":[],"keys":["Juice Bars & Smoothies","Cafes"],"lastUpdated":1547527612582,"name":"Village Hub","phone":"(970) 627-5095","price":"","reviewCount":1,"reviewScore":3,"meta":{"revision":0,"created":1547531155008,"version":0},"$loki":113},{"_id":"5c3d65bd3525a329e0c1878b","address":"330 Cleveland Ave","location":{"type":"Point","coordinates":[-105.0742819,40.3951615]},"isApproved":true,"items":[],"keys":["Breakfast & Brunch","Sandwiches"],"lastUpdated":1547527612821,"name":"Taste Local","phone":"(970) 690-9448","price":"$$","reviewCount":65,"reviewScore":4.5,"meta":{"revision":0,"created":1547531155008,"version":0},"$loki":114},{"_id":"5c3d65bd3525a329e0c165ef","address":"325 N Cleveland Ave","location":{"type":"Point","coordinates":[-105.0745581,40.3950249]},"isApproved":true,"items":[],"keys":["Cafes","Breakfast & Brunch"],"lastUpdated":1547527612765,"name":"Fresh Plate Cafe & Catering","phone":"(970) 744-3041","price":"","reviewCount":15,"reviewScore":3.5,"meta":{"revision":0,"created":1547531155008,"version":0},"$loki":115},{"_id":"5c3d65bd3525a329e0c1999e","address":"120 N Lincoln Ave","location":{"type":"Point","coordinates":[-105.0731066,40.3930968]},"isApproved":true,"items":[],"keys":["Chinese","Sushi Bars","Asian Fusion"],"lastUpdated":1547527612843,"name":"Wonderful Dragon","phone":"(970) 593-9838","price":"$$","reviewCount":81,"reviewScore":3,"meta":{"revision":0,"created":1547531155008,"version":0},"$loki":116},{"_id":"5c3d65bd3525a329e0bff4c7","address":"116 S Lincoln Ave","location":{"type":"Point","coordinates":[-105.073003135622,40.3923989075757]},"isApproved":true,"items":[],"keys":["Mexican"],"lastUpdated":1547527612216,"name":"Antonio’s Burritos","phone":"(970) 613-0342","price":"$","reviewCount":21,"reviewScore":3.5,"meta":{"revision":0,"created":1547531155008,"version":0},"$loki":117},{"_id":"5c3d65bd3525a329e0c1888f","address":"510 E 4th St","location":{"type":"Point","coordinates":[-105.070272253967,40.3951894]},"isApproved":true,"items":[],"keys":["Mexican"],"lastUpdated":1547527612822,"name":"Tortilleria La Autentica","phone":"(970) 663-9114","price":"$","reviewCount":63,"reviewScore":4,"meta":{"revision":0,"created":1547531155008,"version":0},"$loki":118},{"_id":"5c3d65bd3525a329e0c0ea5c","address":"330 N Lincoln Ave","location":{"type":"Point","coordinates":[-105.0728661,40.3950066]},"isApproved":true,"items":[],"keys":["Dive Bars","American (Traditional)"],"lastUpdated":1547527612581,"name":"Cove Restaurant and Lounge","phone":"(970) 667-1400","price":"$","reviewCount":3,"reviewScore":4,"meta":{"revision":0,"created":1547531155008,"version":0},"$loki":119},{"_id":"5c3d65bd3525a329e0c05325","address":"422 E 4th St","location":{"type":"Point","coordinates":[-105.0712449,40.3952026]},"isApproved":true,"items":[],"keys":["Butcher","Bars","American (Traditional)"],"lastUpdated":1547527612346,"name":"The Boar and Bull","phone":"(970) 599-1090","price":"$$","reviewCount":32,"reviewScore":4.5,"meta":{"revision":0,"created":1547531155008,"version":0},"$loki":120},{"_id":"5c3d65bd3525a329e0c1b1cd","address":"414 E 6th St","location":{"type":"Point","coordinates":[-105.0713134,40.3972381]},"isApproved":true,"items":[],"keys":["American (New)","Breakfast & Brunch"],"lastUpdated":1547527612877,"name":"A.K.A Kitchen","phone":"(970) 617-2325","price":"","reviewCount":24,"reviewScore":4,"meta":{"revision":0,"created":1547531155008,"version":0},"$loki":121},{"_id":"5c3d65bd3525a329e0c043fa","address":"605 Briggs St","location":{"type":"Point","coordinates":[-105.0730908,40.3960935]},"isApproved":true,"items":[],"keys":["Mexican"],"lastUpdated":1547527612321,"name":"Azteca Mexican Restaurant","phone":"(303) 658-0622","price":"$$","reviewCount":61,"reviewScore":3.5,"meta":{"revision":0,"created":1547531155008,"version":0},"$loki":122},{"_id":"5c3d65bd3525a329e0c1499d","address":"532 N Lincoln Ave","location":{"type":"Point","coordinates":[-105.073027,40.396841]},"isApproved":true,"items":[],"keys":["Breakfast & Brunch","Burgers","American (New)"],"lastUpdated":1547527612728,"name":"Doug’s","phone":"(970) 667-7124","price":"$$","reviewCount":269,"reviewScore":4.5,"meta":{"revision":0,"created":1547531155008,"version":0},"$loki":123},{"_id":"5c3d65bd3525a329e0c03986","address":"548 N Lincoln Ave","location":{"type":"Point","coordinates":[-105.073046160406,40.3970384631373]},"isApproved":true,"items":[],"keys":["Pubs","American (New)"],"lastUpdated":1547527612310,"name":"Laureate Publick House","phone":"(970) 775-2980","price":"$$","reviewCount":46,"reviewScore":4,"meta":{"revision":0,"created":1547531155008,"version":0},"$loki":124},{"_id":"5c3d65bd3525a329e0c08a6c","address":"986 East Eisenhower Boulevard","location":{"type":"Point","coordinates":[-105.0641666,40.4069209]},"isApproved":true,"items":[],"keys":["Pizza"],"lastUpdated":1547527612430,"name":"Papa Murphy’s","phone":"(970) 667-9700","price":"","reviewCount":5,"reviewScore":4,"meta":{"revision":0,"created":1547531155008,"version":0},"$loki":125},{"_id":"5c3d65bd3525a329e0c0df85","address":"1011 E Eisenhower Blvd","location":{"type":"Point","coordinates":[-105.062083,40.407754]},"isApproved":true,"items":[],"keys":["Japanese","Chinese","Buffets"],"lastUpdated":1547527612564,"name":"Hokkaido Buffet","phone":"(970) 776-9248","price":"$$","reviewCount":45,"reviewScore":3,"meta":{"revision":0,"created":1547531155008,"version":0},"$loki":126},{"_id":"5c3d65bd3525a329e0c1b5e1","address":"210 Ken Pratt Blvd","location":{"type":"Point","coordinates":[-105.058407559991,40.4089132072278]},"isApproved":true,"items":[],"keys":["Italian"],"lastUpdated":1547527612886,"name":"Pinocchio’s","phone":"(303) 651-7828","price":"$$","reviewCount":99,"reviewScore":3,"meta":{"revision":0,"created":1547531155008,"version":0},"$loki":127},{"_id":"5c3d65bd3525a329e0c00c3d","address":"1477 East Eisenhower Blvd","location":{"type":"Point","coordinates":[-105.0549652,40.4086775]},"isApproved":true,"items":[],"keys":["Mexican"],"lastUpdated":1547527612231,"name":"Santiago’s","phone":"(970) 622-0332","price":"$","reviewCount":47,"reviewScore":3,"meta":{"revision":0,"created":1547531155008,"version":0},"$loki":128},{"_id":"5c3d65bd3525a329e0c061d0","address":"1475 N Boise Ave","location":{"type":"Point","coordinates":[-105.0540519,40.4088789]},"isApproved":true,"items":[],"keys":["Italian","Pizza"],"lastUpdated":1547527612369,"name":"Pizza Street","phone":"(970) 622-0707","price":"$$","reviewCount":22,"reviewScore":3,"meta":{"revision":0,"created":1547531155008,"version":0},"$loki":129},{"_id":"5c3d65bd3525a329e0c0f1ed","address":"1417 Cheyenne Ave","location":{"type":"Point","coordinates":[-105.051074,40.407924]},"isApproved":true,"items":[],"keys":["Mexican"],"lastUpdated":1547527612591,"name":"3 Margaritas - Loveland","phone":"(970) 669-4441","price":"$$","reviewCount":46,"reviewScore":3.5,"meta":{"revision":0,"created":1547531155008,"version":0},"$loki":130},{"_id":"5c3d65bd3525a329e0c15e0b","address":"2318 17th Ave","location":{"type":"Point","coordinates":[-105.0528647,40.407944]},"isApproved":true,"items":[],"keys":["Sandwiches","Delis","Fast Food"],"lastUpdated":1547527612755,"name":"Jimmy John’s","phone":"(303) 651-6181","price":"$","reviewCount":14,"reviewScore":2.5,"meta":{"revision":0,"created":1547531155008,"version":0},"$loki":131},{"_id":"5c3d65bd3525a329e0c05401","address":"1451 Boise Ave","location":{"type":"Point","coordinates":[-105.0541432,40.4083973]},"isApproved":true,"items":[],"keys":["Coffee & Tea","Breakfast & Brunch"],"lastUpdated":1547527612347,"name":"The Breakfast Club","phone":"(970) 461-1261","price":"$","reviewCount":60,"reviewScore":4,"meta":{"revision":0,"created":1547531155008,"version":0},"$loki":132},{"_id":"5c3d65bd3525a329e0c071cd","address":"3175 28th St","location":{"type":"Point","coordinates":[-105.04517,40.406831]},"isApproved":true,"items":[],"keys":["Pizza","Italian","Chicken Wings"],"lastUpdated":1547527612398,"name":"Pizza Hut","phone":"(303) 449-8877","price":"","reviewCount":27,"reviewScore":1.5,"meta":{"revision":0,"created":1547531155008,"version":0},"$loki":133},{"_id":"5c3d65bd3525a329e0c1af1e","address":"1419 N Denver Ave","location":{"type":"Point","coordinates":[-105.044698,40.407814]},"isApproved":true,"items":[],"keys":["Burgers"],"lastUpdated":1547527612876,"name":"Smashburger","phone":"(970) 461-0188","price":"$$","reviewCount":66,"reviewScore":3.5,"meta":{"revision":0,"created":1547531155008,"version":0},"$loki":134},{"_id":"5c3d65bd3525a329e0c17b2a","address":"1423 Denver Ave","location":{"type":"Point","coordinates":[-105.0448034,40.4075275]},"isApproved":true,"items":[],"keys":["Fast Food"],"lastUpdated":1547527612799,"name":"Dazbog Coffee","phone":"(970) 622-0031","price":"$","reviewCount":12,"reviewScore":4.5,"meta":{"revision":0,"created":1547531155008,"version":0},"$loki":135},{"_id":"5c3d65bd3525a329e0c03815","address":"1441 Denver Ave","location":{"type":"Point","coordinates":[-105.0447994,40.4077329]},"isApproved":true,"items":[],"keys":["Fast Food","Mexican"],"lastUpdated":1547527612304,"name":"Big City Burrito","phone":"(970) 669-4242","price":"$","reviewCount":26,"reviewScore":3,"meta":{"revision":0,"created":1547531155008,"version":0},"$loki":136},{"_id":"5c3d65bd3525a329e0c050e0","address":"1445 Denver Ave","location":{"type":"Point","coordinates":[-105.0462061,40.4081932]},"isApproved":true,"items":[],"keys":["Sandwiches","Fast Food"],"lastUpdated":1547527612340,"name":"Subway","phone":"(970) 612-0305","price":"","reviewCount":2,"reviewScore":1,"meta":{"revision":0,"created":1547531155008,"version":0},"$loki":137},{"_id":"5c3d65bd3525a329e0c0614d","address":"1385 Sculptor Dr","location":{"type":"Point","coordinates":[-105.035581,40.4067812]},"isApproved":true,"items":[],"keys":["Pizza","Chicken Wings","Sandwiches"],"lastUpdated":1547527612368,"name":"Domino’s Pizza","phone":"(970) 663-2880","price":"$$","reviewCount":9,"reviewScore":2,"meta":{"revision":0,"created":1547531155008,"version":0},"$loki":138},{"_id":"5c3d65bd3525a329e0c01a7c","address":"1395 Sculptor Dr","location":{"type":"Point","coordinates":[-105.035648147291,40.4067171800452]},"isApproved":true,"items":[],"keys":["Fast Food","Sandwiches","Delis"],"lastUpdated":1547527612257,"name":"Firehouse Subs","phone":"(970) 663-1814","price":"","reviewCount":6,"reviewScore":3.5,"meta":{"revision":0,"created":1547531155008,"version":0},"$loki":139},{"_id":"5c3d65bd3525a329e0c0af02","address":"1315 Dry Creek Dr","location":{"type":"Point","coordinates":[-105.034546,40.4065749]},"isApproved":true,"items":[],"keys":["Steakhouses"],"lastUpdated":1547527612491,"name":"Outback Steakhouse","phone":"(303) 684-8149","price":"$$","reviewCount":54,"reviewScore":2.5,"meta":{"revision":0,"created":1547531155008,"version":0},"$loki":140},{"_id":"5c3d65bd3525a329e0bffe10","address":"2305 E 13th St","location":{"type":"Point","coordinates":[-105.043950457165,40.405541303992]},"isApproved":true,"items":[],"keys":["Burgers","Fast Food","Ice Cream & Frozen Yogurt"],"lastUpdated":1547527612222,"name":"Sonic Drive-In","phone":"(970) 461-5078","price":"$","reviewCount":42,"reviewScore":1,"meta":{"revision":0,"created":1547531155008,"version":0},"$loki":141},{"_id":"5c3d65bd3525a329e0c018dd","address":"2020 Ken Pratt Blvd","location":{"type":"Point","coordinates":[-105.0741412,40.3845947]},"isApproved":true,"items":[],"keys":["Burgers"],"lastUpdated":1547527612251,"name":"Burger King","phone":"(303) 772-2987","price":"$$","reviewCount":10,"reviewScore":2.5,"meta":{"revision":0,"created":1547531155008,"version":0},"$loki":142},{"_id":"5c3d65bd3525a329e0c105bc","address":"804 S Lincoln Ave","location":{"type":"Point","coordinates":[-105.074573322779,40.384836678328]},"isApproved":true,"items":[],"keys":["Mexican"],"lastUpdated":1547527612618,"name":"Senor Rafael at the Mexican Inn","phone":"(970) 669-3422","price":"$","reviewCount":41,"reviewScore":3.5,"meta":{"revision":0,"created":1547531155008,"version":0},"$loki":143},{"_id":"5c3d65bd3525a329e0c1097c","address":"251 SE 14th St","location":{"type":"Point","coordinates":[-105.0747095,40.378591]},"isApproved":true,"items":[],"keys":["Mexican"],"lastUpdated":1547527612625,"name":"Taqueria Rancho Alegre","phone":"(970) 461-1099","price":"$","reviewCount":41,"reviewScore":4,"meta":{"revision":0,"created":1547531155008,"version":0},"$loki":144},{"_id":"5c3d65bd3525a329e0c11c5f","address":"1431 N Denver Ave","location":{"type":"Point","coordinates":[-105.0999953,40.3792455]},"isApproved":true,"items":[],"keys":["American (New)","Soup","Sandwiches"],"lastUpdated":1547527612660,"name":"Tom+Chee","phone":"(970) 776-9682","price":"","reviewCount":3,"reviewScore":4,"meta":{"revision":0,"created":1547531155008,"version":0},"$loki":145},{"_id":"5c3d65bd3525a329e0c0948e","address":"1323 Eagle Dr","location":{"type":"Point","coordinates":[-105.0995614,40.3792449]},"isApproved":true,"items":[],"keys":["Chinese"],"lastUpdated":1547527612453,"name":"Asian Cafe & Grill","phone":"(970) 622-0688","price":"$$","reviewCount":69,"reviewScore":3,"meta":{"revision":0,"created":1547531155008,"version":0},"$loki":146},{"_id":"5c3d65bd3525a329e0c011a8","address":"1402 E Harmony Rd","location":{"type":"Point","coordinates":[-105.0975177,40.3801427]},"isApproved":true,"items":[],"keys":["Breakfast & Brunch","American (Traditional)","Creperies"],"lastUpdated":1547527612239,"name":"Village Inn","phone":"(970) 229-1603","price":"$$","reviewCount":25,"reviewScore":3,"meta":{"revision":0,"created":1547531155008,"version":0},"$loki":147},{"_id":"5c3d65bd3525a329e0c07a16","address":"2120 E Harmony Rd","location":{"type":"Point","coordinates":[-105.097271293414,40.3824770169204]},"isApproved":true,"items":[],"keys":["Mexican","Fast Food"],"lastUpdated":1547527612409,"name":"Chipotle Mexican Grill","phone":"(970) 530-3200","price":"$","reviewCount":25,"reviewScore":4,"meta":{"revision":0,"created":1547531155008,"version":0},"$loki":148},{"_id":"5c3d65bd3525a329e0c0c339","address":"700 Ken Pratt Blvd","location":{"type":"Point","coordinates":[-105.0971634,40.3822712]},"isApproved":true,"items":[],"keys":["Sandwiches","Fast Food"],"lastUpdated":1547527612518,"name":"Subway","phone":"(303) 776-3011","price":"","reviewCount":4,"reviewScore":2.5,"meta":{"revision":0,"created":1547531155008,"version":0},"$loki":149},{"_id":"5c3d65bd3525a329e0c075bd","address":"2150 Main St","location":{"type":"Point","coordinates":[-105.0990678,40.38097]},"isApproved":true,"items":[],"keys":["Fast Food","Sandwiches"],"lastUpdated":1547527612401,"name":"Arby’s Roast Beef Restaurants","phone":"(303) 772-1766","price":"$$","reviewCount":10,"reviewScore":2.5,"meta":{"revision":0,"created":1547531155008,"version":0},"$loki":150},{"_id":"5c3d65bd3525a329e0c01dcf","address":"1139 Eagle Dr","location":{"type":"Point","coordinates":[-105.0992092,40.381192]},"isApproved":true,"items":[],"keys":["Sandwiches","Cheesesteaks","Salad"],"lastUpdated":1547527612260,"name":"Taste of Philly","phone":"(970) 663-6044","price":"$","reviewCount":55,"reviewScore":3,"meta":{"revision":0,"created":1547531155008,"version":0},"$loki":151},{"_id":"5c3d65bd3525a329e0c02e93","address":"720 Austin Ave","location":{"type":"Point","coordinates":[-105.098839,40.380996]},"isApproved":true,"items":[],"keys":["Italian","Pizza"],"lastUpdated":1547527612294,"name":"Abos Pizza","phone":"(303) 828-9777","price":"$$","reviewCount":58,"reviewScore":2.5,"meta":{"revision":0,"created":1547531155008,"version":0},"$loki":152},{"_id":"5c3d65bd3525a329e0c0d668","address":"1990 Youngfield St","location":{"type":"Point","coordinates":[-105.074698,40.312949]},"isApproved":true,"items":[],"keys":["American (Traditional)","Bars","Burgers"],"lastUpdated":1547527612554,"name":"Teller’s Taproom & Kitchen","phone":"(303) 237-1002","price":"$$","reviewCount":453,"reviewScore":4,"meta":{"revision":0,"created":1547531155008,"version":0},"$loki":153},{"_id":"5c3d65bd3525a329e0c18446","address":"600 S Airport Rd","location":{"type":"Point","coordinates":[-105.078898,40.305731]},"isApproved":true,"items":[],"keys":["Pizza"],"lastUpdated":1547527612814,"name":"Proto’s Pizza - Longmont","phone":"(303) 485-5000","price":"$$","reviewCount":69,"reviewScore":4,"meta":{"revision":0,"created":1547531155008,"version":0},"$loki":154},{"_id":"5c3d65bd3525a329e0c102f9","address":"307 Mountain Ave","location":{"type":"Point","coordinates":[-105.0786094,40.3049485]},"isApproved":true,"items":[],"keys":["Fast Food","Sandwiches"],"lastUpdated":1547527612617,"name":"Subway","phone":"(970) 532-9818","price":"$","reviewCount":5,"reviewScore":3.5,"meta":{"revision":0,"created":1547531155008,"version":0},"$loki":155},{"_id":"5c3d65bd3525a329e0c0d042","address":"250 Mountain Ave","location":{"type":"Point","coordinates":[-105.0768393,40.3055017]},"isApproved":true,"items":[],"keys":["Coffee & Tea","Breakfast & Brunch","Sandwiches"],"lastUpdated":1547527612544,"name":"Cornerstone Cafe","phone":"(970) 344-5360","price":"$$","reviewCount":6,"reviewScore":3.5,"meta":{"revision":0,"created":1547531155008,"version":0},"$loki":156},{"_id":"5c3d65bd3525a329e0c01af1","address":"237 Welch Ave","location":{"type":"Point","coordinates":[-105.077603452273,40.303928710272]},"isApproved":true,"items":[],"keys":["Pizza","American (New)","Sandwiches"],"lastUpdated":1547527612258,"name":"Side Tracked","phone":"(970) 532-9905","price":"$","reviewCount":7,"reviewScore":3.5,"meta":{"revision":0,"created":1547531155008,"version":0},"$loki":157},{"_id":"5c3d65bd3525a329e0c0f460","address":"124 E 4th St","location":{"type":"Point","coordinates":[-105.0853569,40.305364]},"isApproved":true,"items":[],"keys":["Bars","American (New)","Pizza"],"lastUpdated":1547527612592,"name":"Pourhouse Bar and Grill","phone":"(970) 669-1699","price":"$$","reviewCount":166,"reviewScore":3.5,"meta":{"revision":0,"created":1547531155008,"version":0},"$loki":158},{"_id":"5c3d65bd3525a329e0c05613","address":"405 5th St","location":{"type":"Point","coordinates":[-105.0814748,40.3045151]},"isApproved":true,"items":[],"keys":["Tapas/Small Plates","Cocktail Bars","Breakfast & Brunch"],"lastUpdated":1547527612348,"name":"One Point Six North","phone":"(970) 344-5625","price":"","reviewCount":10,"reviewScore":4,"meta":{"revision":0,"created":1547531155008,"version":0},"$loki":159},{"_id":"5c3d65bd3525a329e0c00059","address":"1631 Pace St","location":{"type":"Point","coordinates":[-105.0813606,40.3043157]},"isApproved":true,"items":[],"keys":["Pizza"],"lastUpdated":1547527612223,"name":"Nicolo’s Pizza","phone":"(303) 651-2335","price":"$","reviewCount":45,"reviewScore":3.5,"meta":{"revision":0,"created":1547531155008,"version":0},"$loki":160},{"_id":"5c3d65bd3525a329e0c1a1b7","address":"1218 S Hover Rd","location":{"type":"Point","coordinates":[-105.0806299,40.3053489]},"isApproved":true,"items":[],"keys":["Fast Food","Burgers"],"lastUpdated":1547527612858,"name":"Culver’s","phone":"(720) 600-6787","price":"$","reviewCount":26,"reviewScore":4,"meta":{"revision":0,"created":1547531155008,"version":0},"$loki":161},{"_id":"5c3d65bd3525a329e0c17059","address":"22 Second St","location":{"type":"Point","coordinates":[-105.080018118024,40.3056513037948]},"isApproved":true,"items":[],"keys":["Cinema","Bowling","Pizza"],"lastUpdated":1547527612782,"name":"The Foundry Cinema & Bowl","phone":"(970) 363-7161","price":"$$","reviewCount":86,"reviewScore":3.5,"meta":{"revision":0,"created":1547531155008,"version":0},"$loki":162},{"_id":"5c3d65bd3525a329e0c0e07d","address":"301 Goodrich Ave","location":{"type":"Point","coordinates":[-104.821154,40.21363]},"isApproved":true,"items":[],"keys":["American (Traditional)","Ice Cream & Frozen Yogurt"],"lastUpdated":1547527612564,"name":"Marty’s Calzone & Ice Cream","phone":"(970) 785-6090","price":"$","reviewCount":5,"reviewScore":4.5,"meta":{"revision":0,"created":1547531155008,"version":0},"$loki":163},{"_id":"5c3d65bd3525a329e0c03546","address":"703 Main St","location":{"type":"Point","coordinates":[-104.823006,40.213236]},"isApproved":true,"items":[],"keys":["Cafes","American (Traditional)","Breakfast & Brunch"],"lastUpdated":1547527612303,"name":"The Cracked Egg","phone":"(970) 785-6171","price":"$$","reviewCount":5,"reviewScore":3.5,"meta":{"revision":0,"created":1547531155008,"version":0},"$loki":164},{"_id":"5c3d65bd3525a329e0c08ef6","address":"613 Main St","location":{"type":"Point","coordinates":[-104.823119246348,40.214425678106]},"isApproved":true,"items":[],"keys":["Sandwiches"],"lastUpdated":1547527612438,"name":"Doughboy Subs At the Silver Spur","phone":"(970) 785-6155","price":"$$","reviewCount":1,"reviewScore":5,"meta":{"revision":0,"created":1547531155008,"version":0},"$loki":165},{"_id":"5c3d65bd3525a329e0c0d55b","address":"204 E S 1st St","location":{"type":"Point","coordinates":[-104.904424,40.334259]},"isApproved":true,"items":[],"keys":["Mexican","Burgers"],"lastUpdated":1547527612548,"name":"Nacho Y Kika’s Cafe","phone":"(970) 587-4393","price":"$","reviewCount":38,"reviewScore":4.5,"meta":{"revision":0,"created":1547531155008,"version":0},"$loki":166},{"_id":"5c3d65bd3525a329e0c0849e","address":"4733 S Timberline Rd","location":{"type":"Point","coordinates":[-105.0279399,40.406795]},"isApproved":true,"items":[],"keys":["Noodles"],"lastUpdated":1547527612426,"name":"Noodles & Company","phone":"(970) 223-2808","price":"$","reviewCount":37,"reviewScore":3,"meta":{"revision":0,"created":1547531155008,"version":0},"$loki":167},{"_id":"5c3d65bd3525a329e0c0c1a6","address":"3451 Mountain Lion Dr","location":{"type":"Point","coordinates":[-105.0287566,40.4067802]},"isApproved":true,"items":[],"keys":["Pizza"],"lastUpdated":1547527612517,"name":"Pizza Ranch","phone":"(970) 619-8787","price":"$$","reviewCount":77,"reviewScore":2.5,"meta":{"revision":0,"created":1547531155008,"version":0},"$loki":168},{"_id":"5c3d65bd3525a329e0c06a94","address":"1436 Hahns Peak Dr","location":{"type":"Point","coordinates":[-105.010404,40.4078868]},"isApproved":true,"items":[],"keys":["Pizza","American (Traditional)","Sports Bars"],"lastUpdated":1547527612380,"name":"Old Chicago Pizza & Taproom","phone":"(970) 593-1003","price":"$$","reviewCount":77,"reviewScore":3.5,"meta":{"revision":0,"created":1547531155008,"version":0},"$loki":169},{"_id":"5c3d65bd3525a329e0c0b29a","address":"1620 Fox Trail Dr","location":{"type":"Point","coordinates":[-105.001597702503,40.4088713393584]},"isApproved":true,"items":[],"keys":["Fast Food","Burgers","Coffee & Tea"],"lastUpdated":1547527612498,"name":"McDonald’s","phone":"(970) 663-5065","price":"$","reviewCount":30,"reviewScore":1.5,"meta":{"revision":0,"created":1547531155008,"version":0},"$loki":170},{"_id":"5c3d65bd3525a329e0c1aaba","address":"150 E. Harmony Rd.","location":{"type":"Point","coordinates":[-105.003083981574,40.4096155113245]},"isApproved":true,"items":[],"keys":["Sports Bars","Chicken Wings","American (Traditional)"],"lastUpdated":1547527612868,"name":"Buffalo Wild Wings","phone":"(970) 266-9464","price":"$$","reviewCount":72,"reviewScore":2.5,"meta":{"revision":0,"created":1547531155008,"version":0},"$loki":171},{"_id":"5c3d65bd3525a329e0c0276b","address":"1131 Eagle Drive","location":{"type":"Point","coordinates":[-105.002868,40.409506]},"isApproved":true,"items":[],"keys":["Pizza"],"lastUpdated":1547527612284,"name":"Papa Murphy’s","phone":"(970) 669-7272","price":"$$","reviewCount":8,"reviewScore":3,"meta":{"revision":0,"created":1547531155008,"version":0},"$loki":172},{"_id":"5c3d65bd3525a329e0bff428","address":"1200 Eagle Dr","location":{"type":"Point","coordinates":[-105.0028034,40.4087975]},"isApproved":true,"items":[],"keys":["Burgers","Fast Food"],"lastUpdated":1547527612216,"name":"Wendy’s","phone":"(970) 669-1280","price":"$","reviewCount":4,"reviewScore":2.5,"meta":{"revision":0,"created":1547531155008,"version":0},"$loki":173},{"_id":"5c3d65bd3525a329e0c0dbae","address":"1650 Foxtrail Dr","location":{"type":"Point","coordinates":[-105.002,40.4083993]},"isApproved":true,"items":[],"keys":["Chicken Wings","Fast Food","Chicken Shop"],"lastUpdated":1547527612556,"name":"KFC","phone":"(970) 613-1150","price":"$","reviewCount":15,"reviewScore":2.5,"meta":{"revision":0,"created":1547531155008,"version":0},"$loki":174},{"_id":"5c3d65bd3525a329e0c12265","address":"1425 Rocky Mountain Ave","location":{"type":"Point","coordinates":[-105.00303,40.408013]},"isApproved":true,"items":[],"keys":["American (Traditional)","Bars","Tex-Mex"],"lastUpdated":1547527612669,"name":"Chili’s","phone":"(970) 663-6800","price":"$$","reviewCount":44,"reviewScore":3,"meta":{"revision":0,"created":1547531155008,"version":0},"$loki":175},{"_id":"5c3d65bd3525a329e0c17c94","address":"1505 Rocky Mountain Avenue","location":{"type":"Point","coordinates":[-105.005264,40.4077849]},"isApproved":true,"items":[],"keys":["Sports Bars","American (Traditional)","Chicken Wings"],"lastUpdated":1547527612800,"name":"Buffalo Wild Wings","phone":"(970) 461-1999","price":"$$","reviewCount":50,"reviewScore":2.5,"meta":{"revision":0,"created":1547531155008,"version":0},"$loki":176},{"_id":"5c3d65bd3525a329e0c03599","address":"1545 Rocky Mountain Ave","location":{"type":"Point","coordinates":[-105.005949,40.407792]},"isApproved":true,"items":[],"keys":["Fast Food"],"lastUpdated":1547527612303,"name":"Chick-fil-A","phone":"(970) 593-0044","price":"$","reviewCount":38,"reviewScore":3.5,"meta":{"revision":0,"created":1547531155008,"version":0},"$loki":177},{"_id":"5c3d65bd3525a329e0c11d08","address":"2130 Mountain View Ave","location":{"type":"Point","coordinates":[-105.007757,40.408611]},"isApproved":true,"items":[],"keys":["Sandwiches","Salad"],"lastUpdated":1547527612660,"name":"Snarf’s Sandwiches","phone":"(303) 702-1111","price":"$","reviewCount":34,"reviewScore":3,"meta":{"revision":0,"created":1547531155008,"version":0},"$loki":178},{"_id":"5c3d65bd3525a329e0c0f230","address":"589 S Hover Dr","location":{"type":"Point","coordinates":[-105.0077563,40.4085487]},"isApproved":true,"items":[],"keys":["Chinese","Fast Food"],"lastUpdated":1547527612591,"name":"Panda Express","phone":"(303) 772-3636","price":"$","reviewCount":10,"reviewScore":1.5,"meta":{"revision":0,"created":1547531155008,"version":0},"$loki":179},{"_id":"5c3d65bd3525a329e0c17dcc","address":"1569 Fall River Dr","location":{"type":"Point","coordinates":[-105.0077563,40.4085487]},"isApproved":true,"items":[],"keys":["Mexican","Fast Food"],"lastUpdated":1547527612801,"name":"Chipotle Mexican Grill","phone":"(970) 461-8900","price":"$","reviewCount":19,"reviewScore":3.5,"meta":{"revision":0,"created":1547531155008,"version":0},"$loki":180},{"_id":"5c3d65bd3525a329e0c04915","address":"1550 Fall River Dr","location":{"type":"Point","coordinates":[-105.006931217377,40.4088411150601]},"isApproved":true,"items":[],"keys":["Noodles"],"lastUpdated":1547527612330,"name":"Noodles & Company","phone":"(970) 612-0982","price":"$$","reviewCount":43,"reviewScore":2.5,"meta":{"revision":0,"created":1547531155008,"version":0},"$loki":181},{"_id":"5c3d65bd3525a329e0c11731","address":"1550 Fall River Dr","location":{"type":"Point","coordinates":[-105.0070716,40.4084446]},"isApproved":true,"items":[],"keys":["Sandwiches","Salad","Soup"],"lastUpdated":1547527612650,"name":"Panera Bread","phone":"(970) 622-9000","price":"$$","reviewCount":35,"reviewScore":2.5,"meta":{"revision":0,"created":1547531155008,"version":0},"$loki":182},{"_id":"5c3d65bd3525a329e0c16a62","address":"150 Wadsworth Blvd","location":{"type":"Point","coordinates":[-105.0080302,40.4078894]},"isApproved":true,"items":[],"keys":["Fast Food","Burgers","Ice Cream & Frozen Yogurt"],"lastUpdated":1547527612773,"name":"Good Times Burgers & Frozen Custard","phone":"(303) 462-1002","price":"$","reviewCount":14,"reviewScore":2.5,"meta":{"revision":0,"created":1547531155008,"version":0},"$loki":183},{"_id":"5c3d65bd3525a329e0c0ad66","address":"1650 Fox Trail Dr","location":{"type":"Point","coordinates":[-104.9991,40.40695]},"isApproved":true,"items":[],"keys":["Fast Food","Mexican","Chicken Wings"],"lastUpdated":1547527612490,"name":"Taco Bell","phone":"(970) 613-1150","price":"","reviewCount":7,"reviewScore":1,"meta":{"revision":0,"created":1547531155008,"version":0},"$loki":184},{"_id":"5c3d65bd3525a329e0c069df","address":"420 Erie Pkwy","location":{"type":"Point","coordinates":[-104.9983,40.40782]},"isApproved":true,"items":[],"keys":["Burgers","Fast Food"],"lastUpdated":1547527612379,"name":"Burger King","phone":"","price":"$$","reviewCount":19,"reviewScore":2,"meta":{"revision":0,"created":1547531155008,"version":0},"$loki":185},{"_id":"5c3d65bd3525a329e0c0803e","address":"5800 McWhinney Blvd","location":{"type":"Point","coordinates":[-104.9940619,40.4102821]},"isApproved":true,"items":[],"keys":["American (Traditional)","Breakfast & Brunch","Southern"],"lastUpdated":1547527612419,"name":"Cracker Barrel Old Country Store","phone":"(970) 593-9947","price":"$","reviewCount":75,"reviewScore":3,"meta":{"revision":0,"created":1547531155008,"version":0},"$loki":186},{"_id":"5c3d65bd3525a329e0c0e583","address":"4230 Byrd Dr","location":{"type":"Point","coordinates":[-104.9942445,40.436578]},"isApproved":true,"items":[],"keys":["Sports Bars","American (Traditional)","Chicken Wings"],"lastUpdated":1547527612573,"name":"Hooters","phone":"(970) 667-4668","price":"$$","reviewCount":37,"reviewScore":2,"meta":{"revision":0,"created":1547531155008,"version":0},"$loki":187},{"_id":"5c3d65bd3525a329e0c12216","address":"3581 E Harmony Rd","location":{"type":"Point","coordinates":[-105.0114083,40.5227582]},"isApproved":true,"items":[],"keys":["Wine Bars","Tapas/Small Plates"],"lastUpdated":1547527612669,"name":"Taste and Savor Wine Bar","phone":"(970) 698-6639","price":"","reviewCount":4,"reviewScore":4.5,"meta":{"revision":0,"created":1547531155008,"version":0},"$loki":188},{"_id":"5c3d65bd3525a329e0c199e1","address":"3581 E Harmony Rd","location":{"type":"Point","coordinates":[-105.0114083,40.5227582]},"isApproved":true,"items":[],"keys":["Sushi Bars","Japanese","Poke"],"lastUpdated":1547527612848,"name":"Tokyo Joe’s","phone":"(970) 797-3030","price":"$","reviewCount":19,"reviewScore":3,"meta":{"revision":0,"created":1547531155008,"version":0},"$loki":189},{"_id":"5c3d65bd3525a329e0c0d156","address":"3541 E Harmony Rd","location":{"type":"Point","coordinates":[-105.011996,40.522818]},"isApproved":true,"items":[],"keys":["Sandwiches","Fast Food","Salad"],"lastUpdated":1547527612545,"name":"Potbelly Sandwich Shop","phone":"(970) 530-2265","price":"$","reviewCount":16,"reviewScore":4,"meta":{"revision":0,"created":1547531155008,"version":0},"$loki":190},{"_id":"5c3d65bd3525a329e0c01d7d","address":"3541 E Harmony Rd","location":{"type":"Point","coordinates":[-105.0121387,40.5228169]},"isApproved":true,"items":[],"keys":["Breakfast & Brunch","American (Traditional)","Caterers"],"lastUpdated":1547527612259,"name":"Famous Toastery","phone":"(970) 305-5409","price":"$$","reviewCount":69,"reviewScore":3,"meta":{"revision":0,"created":1547531155008,"version":0},"$loki":191},{"_id":"5c3d65bd3525a329e0c11485","address":"2670 E Harmony Rd","location":{"type":"Point","coordinates":[-105.0273869,40.5238277]},"isApproved":true,"items":[],"keys":["Pizza","American (New)","Breweries"],"lastUpdated":1547527612643,"name":"BJ’s Restaurant & Brewhouse","phone":"(970) 282-3700","price":"$$","reviewCount":130,"reviewScore":2.5,"meta":{"revision":0,"created":1547531155008,"version":0},"$loki":192},{"_id":"5c3d65bd3525a329e0c04a24","address":"2860 E Harmony Rd","location":{"type":"Point","coordinates":[-105.0252289,40.523823]},"isApproved":true,"items":[],"keys":["Burgers","Fast Food"],"lastUpdated":1547527612331,"name":"Five Guys","phone":"(970) 204-9140","price":"$","reviewCount":62,"reviewScore":3,"meta":{"revision":0,"created":1547531155008,"version":0},"$loki":193},{"_id":"5c3d65bd3525a329e0c07fa3","address":"2880 E Harmony Rd","location":{"type":"Point","coordinates":[-105.0239589,40.5238282]},"isApproved":true,"items":[],"keys":["Barbeque","Comfort Food","American (Traditional)"],"lastUpdated":1547527612418,"name":"Famous Dave’s Bar-B-Que","phone":"(970) 282-8227","price":"$$","reviewCount":57,"reviewScore":3,"meta":{"revision":0,"created":1547531155008,"version":0},"$loki":194},{"_id":"5c3d65bd3525a329e0c0c407","address":"2815 E Harmony Rd","location":{"type":"Point","coordinates":[-105.0253325,40.5225844]},"isApproved":true,"items":[],"keys":["Bagels","Delis","Caterers"],"lastUpdated":1547527612523,"name":"Gib’s NY Bagel & Deli","phone":"(970) 295-4447","price":"$","reviewCount":11,"reviewScore":3,"meta":{"revision":0,"created":1547531155008,"version":0},"$loki":195},{"_id":"5c3d65bd3525a329e0c11d1b","address":"2815 E Harmony Rd","location":{"type":"Point","coordinates":[-105.0253325,40.5225844]},"isApproved":true,"items":[],"keys":["American (New)","American (Traditional)"],"lastUpdated":1547527612660,"name":"Austins American Grill","phone":"(970) 267-6532","price":"$$","reviewCount":154,"reviewScore":4,"meta":{"revision":0,"created":1547531155008,"version":0},"$loki":196},{"_id":"5c3d65bd3525a329e0c16a9f","address":"2815 E Harmony Rd","location":{"type":"Point","coordinates":[-105.0253325,40.5225844]},"isApproved":true,"items":[],"keys":["Sandwiches","Fast Food"],"lastUpdated":1547527612773,"name":"Subway","phone":"(970) 377-0070","price":"","reviewCount":4,"reviewScore":3,"meta":{"revision":0,"created":1547531155008,"version":0},"$loki":197},{"_id":"5c3d65bd3525a329e0c15369","address":"2909 E Harmony Rd","location":{"type":"Point","coordinates":[-105.023278,40.5226624]},"isApproved":true,"items":[],"keys":["Mexican","Bars"],"lastUpdated":1547527612738,"name":"Fuzzy’s Taco Shop","phone":"(970) 223-8226","price":"$","reviewCount":118,"reviewScore":3.5,"meta":{"revision":0,"created":1547531155008,"version":0},"$loki":198},{"_id":"5c3d65bd3525a329e0c0590d","address":"364 2nd Ave","location":{"type":"Point","coordinates":[-105.023192,40.522716]},"isApproved":true,"items":[],"keys":["Pizza","Italian","Gluten-Free"],"lastUpdated":1547527612355,"name":"Lefty’s Gourmet Pizza","phone":"(303) 652-3100","price":"$","reviewCount":43,"reviewScore":3.5,"meta":{"revision":0,"created":1547531155008,"version":0},"$loki":199},{"_id":"5c3d65bd3525a329e0c1005a","address":"2909 E Harmony Rd","location":{"type":"Point","coordinates":[-105.022963121803,40.5228037709892]},"isApproved":true,"items":[],"keys":["Breakfast & Brunch"],"lastUpdated":1547527612610,"name":"The Original Pancake House","phone":"(970) 682-1029","price":"$$","reviewCount":92,"reviewScore":4,"meta":{"revision":0,"created":1547531155008,"version":0},"$loki":200},{"_id":"5c3d65bd3525a329e0c0365a","address":"2604 Main St","location":{"type":"Point","coordinates":[-105.026241838932,40.5257954098051]},"isApproved":true,"items":[],"keys":["Fast Food","Chicken Wings","Chicken Shop"],"lastUpdated":1547527612303,"name":"KFC","phone":"(303) 776-6560","price":"$","reviewCount":11,"reviewScore":1.5,"meta":{"revision":0,"created":1547531155008,"version":0},"$loki":201},{"_id":"5c3d65bd3525a329e0c0839c","address":"2721 Council Tree Ave","location":{"type":"Point","coordinates":[-105.025803,40.525756]},"isApproved":true,"items":[],"keys":["Thai"],"lastUpdated":1547527612421,"name":"Bann Thai Restaurant","phone":"(970) 377-1282","price":"$$","reviewCount":54,"reviewScore":3.5,"meta":{"revision":0,"created":1547531155008,"version":0},"$loki":202},{"_id":"5c3d65bd3525a329e0c1757d","address":"1823 E Harmony Rd","location":{"type":"Point","coordinates":[-105.024287,40.526119]},"isApproved":true,"items":[],"keys":["Mexican"],"lastUpdated":1547527612790,"name":"Matador Mexican Grill","phone":"(970) 372-5876","price":"$","reviewCount":117,"reviewScore":4,"meta":{"revision":0,"created":1547531155008,"version":0},"$loki":203},{"_id":"5c3d65bd3525a329e0c04261","address":"2842 Council Tree Ave","location":{"type":"Point","coordinates":[-105.0243737,40.5259372]},"isApproved":true,"items":[],"keys":["Sandwiches"],"lastUpdated":1547527612321,"name":"Which Wich","phone":"(970) 204-9424","price":"$$","reviewCount":11,"reviewScore":3.5,"meta":{"revision":0,"created":1547531155008,"version":0},"$loki":204},{"_id":"5c3d65bd3525a329e0c0e102","address":"2842 Council Tree","location":{"type":"Point","coordinates":[-105.0243737,40.5259372]},"isApproved":true,"items":[],"keys":["Breakfast & Brunch","Burgers","Diners"],"lastUpdated":1547527612565,"name":"Doug’s Day Diner","phone":"(970) 377-2660","price":"$$","reviewCount":193,"reviewScore":4,"meta":{"revision":0,"created":1547531155008,"version":0},"$loki":205},{"_id":"5c3d65bd3525a329e0c0ee4c","address":"2842 Council Tree Ave","location":{"type":"Point","coordinates":[-105.0243737,40.5259372]},"isApproved":true,"items":[],"keys":["Sandwiches"],"lastUpdated":1547527612583,"name":"Silver Mine Subs","phone":"(970) 530-1700","price":"$","reviewCount":3,"reviewScore":2.5,"meta":{"revision":0,"created":1547531155008,"version":0},"$loki":206},{"_id":"5c3d65bd3525a329e0c0f635","address":"2720 Council Tree Ave","location":{"type":"Point","coordinates":[-105.024926,40.525778]},"isApproved":true,"items":[],"keys":["Himalayan/Nepalese","Indian"],"lastUpdated":1547527612598,"name":"Himalayan Bistro","phone":"(970) 999-5691","price":"$$","reviewCount":96,"reviewScore":4,"meta":{"revision":0,"created":1547531155008,"version":0},"$loki":207},{"_id":"5c3d65bd3525a329e0c15e34","address":"1753 Main St","location":{"type":"Point","coordinates":[-105.025582,40.525161]},"isApproved":true,"items":[],"keys":["Pizza"],"lastUpdated":1547527612755,"name":"Little Caesars Pizza","phone":"(303) 678-8088","price":"$","reviewCount":13,"reviewScore":2.5,"meta":{"revision":0,"created":1547531155008,"version":0},"$loki":208},{"_id":"5c3d65bd3525a329e0c10c6b","address":"900 Coffman St","location":{"type":"Point","coordinates":[-105.0273413,40.5251163]},"isApproved":true,"items":[],"keys":["Delis"],"lastUpdated":1547527612633,"name":"Bleu Sun Market & Caterers","phone":"(303) 684-8400","price":"$","reviewCount":3,"reviewScore":3.5,"meta":{"revision":0,"created":1547531155008,"version":0},"$loki":209},{"_id":"5c3d65bd3525a329e0c14595","address":"830 Lashley St","location":{"type":"Point","coordinates":[-105.0306873,40.5237485]},"isApproved":true,"items":[],"keys":["Diners","Mexican"],"lastUpdated":1547527612715,"name":"Dia y Noche Cafe","phone":"(303) 827-3099","price":"$","reviewCount":4,"reviewScore":3.5,"meta":{"revision":0,"created":1547531155008,"version":0},"$loki":210},{"_id":"5c3d65bd3525a329e0c04c98","address":"2550 E Harmony Rd","location":{"type":"Point","coordinates":[-105.03071308136,40.52374130418]},"isApproved":true,"items":[],"keys":["Pizza","Italian"],"lastUpdated":1547527612337,"name":"Pulcinella Pizzeria","phone":"(970) 377-8282","price":"$$","reviewCount":60,"reviewScore":3.5,"meta":{"revision":0,"created":1547531155008,"version":0},"$loki":211}],"idIndex":[1,2,3,4,5,6,7,8,9,10,11,12,13,14,15,16,17,18,19,20,21,22,23,24,25,26,27,28,29,30,31,32,33,34,35,36,37,38,39,40,41,42,43,44,45,46,47,48,49,50,51,52,53,54,55,56,57,58,59,60,61,62,63,64,65,66,67,68,69,70,71,72,73,74,75,76,77,78,79,80,81,82,83,84,85,86,87,88,89,90,91,92,93,94,95,96,97,98,99,100,101,102,103,104,105,106,107,108,109,110,111,112,113,114,115,116,117,118,119,120,121,122,123,124,125,126,127,128,129,130,131,132,133,134,135,136,137,138,139,140,141,142,143,144,145,146,147,148,149,150,151,152,153,154,155,156,157,158,159,160,161,162,163,164,165,166,167,168,169,170,171,172,173,174,175,176,177,178,179,180,181,182,183,184,185,186,187,188,189,190,191,192,193,194,195,196,197,198,199,200,201,202,203,204,205,206,207,208,209,210,211],"binaryIndices":{},"constraints":null,"uniqueNames":[],"transforms":{},"objType":"restaurants","dirty":true,"cachedIndex":null,"cachedBinaryIndex":null,"cachedData":null,"adaptiveBinaryIndices":true,"transactional":false,"cloneObjects":false,"cloneMethod":"parse-stringify","asyncListeners":false,"disableMeta":false,"disableChangesApi":true,"disableDeltaChangesApi":true,"autoupdate":false,"serializableIndices":true,"ttl":null,"maxId":211,"DynamicViews":[],"events":{"insert":[],"update":[],"pre-insert":[],"pre-update":[],"close":[],"flushbuffer":[],"error":[],"delete":[null],"warning":[null]},"changes":[]}],"databaseVersion":1.5,"engineVersion":1.5,"autosave":false,"autosaveInterval":5000,"autosaveHandle":null,"throttledSaves":true,"options":{"serializationMethod":"normal","destructureDelimiter":"$<\n"},"persistenceMethod":"fs","persistenceAdapter":null,"verbose":false,"events":{"init":[null],"loaded":[],"flushChanges":[],"close":[],"changes":[],"warning":[]},"ENV":"NODEJS"}