{"filename":"-104.75-40.25","collections":[{"name":"restaurants","data":[{"_id":"5c3d65bd3525a329e0c01257","address":"2285 W Eisenhower Blvd","location":{"type":"Point","coordinates":[-105.108687369174,40.4087593732691]},"isApproved":true,"items":[],"keys":["Chinese"],"lastUpdated":1547527612240,"name":"Main Moon Chinese Kitchen","phone":"(970) 669-8811","price":"$","reviewCount":40,"reviewScore":3.5,"meta":{"revision":0,"created":1547531155699,"version":0},"$loki":1},{"_id":"5c3d65bd3525a329e0c18696","address":"2222 W Eisenhower Blvd","location":{"type":"Point","coordinates":[-105.108416676521,40.406940283226]},"isApproved":true,"items":[],"keys":["Bakeries","Breakfast & Brunch","American (Traditional)"],"lastUpdated":1547527612815,"name":"Perkins Restaurant & Bakery","phone":"(970) 663-1944","price":"$","reviewCount":17,"reviewScore":2,"meta":{"revision":0,"created":1547531155699,"version":0},"$loki":2},{"_id":"5c3d65bd3525a329e0c01d9a","address":"1391 N Denver Ave","location":{"type":"Point","coordinates":[-105.1099301,40.407653]},"isApproved":true,"items":[],"keys":["Chinese","Fast Food"],"lastUpdated":1547527612259,"name":"Panda Express","phone":"(970) 669-1818","price":"$","reviewCount":19,"reviewScore":2.5,"meta":{"revision":0,"created":1547531155699,"version":0},"$loki":3},{"_id":"5c3d65bd3525a329e0c15ad8","address":"2339 N Main St","location":{"type":"Point","coordinates":[-105.1076462,40.4069852]},"isApproved":true,"items":[],"keys":["Fast Food","Burgers","Ice Cream & Frozen Yogurt"],"lastUpdated":1547527612753,"name":"Sonic Drive-In","phone":"(303) 651-9613","price":"$","reviewCount":54,"reviewScore":1,"meta":{"revision":0,"created":1547531155699,"version":0},"$loki":4},{"_id":"5c3d65bd3525a329e0c1abb9","address":"1906 W Eisenhower Blvd","location":{"type":"Point","coordinates":[-105.1044787,40.4069215]},"isApproved":true,"items":[],"keys":["Pizza"],"lastUpdated":1547527612869,"name":"Justine’s Pizza","phone":"(970) 667-8808","price":"$$","reviewCount":33,"reviewScore":4.5,"meta":{"revision":0,"created":1547531155699,"version":0},"$loki":5},{"_id":"5c3d65bd3525a329e0c1960d","address":"1611 W Eisenhower Blvd","location":{"type":"Point","coordinates":[-105.100638,40.407486]},"isApproved":true,"items":[],"keys":["Chinese"],"lastUpdated":1547527612841,"name":"Bamboo Express","phone":"(970) 663-5138","price":"$","reviewCount":15,"reviewScore":3.5,"meta":{"revision":0,"created":1547531155699,"version":0},"$loki":6},{"_id":"5c3d65bd3525a329e0c01e28","address":"2220 Main Street","location":{"type":"Point","coordinates":[-105.1013428,40.4075524]},"isApproved":true,"items":[],"keys":["Fast Food","Mexican"],"lastUpdated":1547527612260,"name":"Taco Bell","phone":"(303) 651-1322","price":"$","reviewCount":24,"reviewScore":1.5,"meta":{"revision":0,"created":1547531155699,"version":0},"$loki":7},{"_id":"5c3d65bd3525a329e0c05d75","address":"1809 W Eisenhower Rd","location":{"type":"Point","coordinates":[-105.102153,40.407663]},"isApproved":true,"items":[],"keys":["Burgers","Fast Food","Coffee & Tea"],"lastUpdated":1547527612361,"name":"McDonald’s","phone":"(970) 669-4211","price":"$","reviewCount":17,"reviewScore":2.5,"meta":{"revision":0,"created":1547531155699,"version":0},"$loki":8},{"_id":"5c3d65bd3525a329e0c0a18a","address":"1525 W Eisenhower Blvd","location":{"type":"Point","coordinates":[-105.099107793448,40.407425995401]},"isApproved":true,"items":[],"keys":["Cafes"],"lastUpdated":1547527612473,"name":"Ocean Bistro","phone":"(970) 461-7731","price":"$$","reviewCount":27,"reviewScore":4.5,"meta":{"revision":0,"created":1547531155699,"version":0},"$loki":9},{"_id":"5c3d65bd3525a329e0c17e65","address":"1519 W Eisenhower Blvd","location":{"type":"Point","coordinates":[-105.0988991,40.407508]},"isApproved":true,"items":[],"keys":["Fast Food","Burgers"],"lastUpdated":1547527612802,"name":"Wendy’s","phone":"(970) 663-3830","price":"$","reviewCount":10,"reviewScore":1,"meta":{"revision":0,"created":1547531155699,"version":0},"$loki":10},{"_id":"5c3d65bd3525a329e0c15e53","address":"1430 W Eisenhower Blvd","location":{"type":"Point","coordinates":[-105.0981696,40.4068266]},"isApproved":true,"items":[],"keys":["Sandwiches"],"lastUpdated":1547527612755,"name":"Silver Mine Subs","phone":"(970) 669-6900","price":"$","reviewCount":28,"reviewScore":2.5,"meta":{"revision":0,"created":1547531155699,"version":0},"$loki":11},{"_id":"5c3d65bd3525a329e0c053bb","address":"1421 W Eisenhower Blvd","location":{"type":"Point","coordinates":[-105.0978374,40.407487]},"isApproved":true,"items":[],"keys":["Mexican","Fast Food"],"lastUpdated":1547527612346,"name":"Chipotle Mexican Grill","phone":"(970) 635-0099","price":"$","reviewCount":14,"reviewScore":4,"meta":{"revision":0,"created":1547531155699,"version":0},"$loki":12},{"_id":"5c3d65bd3525a329e0c09eb9","address":"1100 Oakridge Dr","location":{"type":"Point","coordinates":[-105.0988093,40.4080117]},"isApproved":true,"items":[],"keys":["Pizza"],"lastUpdated":1547527612471,"name":"Otto Pint","phone":"(970) 226-1464","price":"$$","reviewCount":112,"reviewScore":3.5,"meta":{"revision":0,"created":1547531155699,"version":0},"$loki":13},{"_id":"5c3d65bd3525a329e0c09431","address":"1225 W Eisenhower Blvd","location":{"type":"Point","coordinates":[-105.095702,40.407519]},"isApproved":true,"items":[],"keys":["Breakfast & Brunch","Burgers","Sandwiches"],"lastUpdated":1547527612453,"name":"Village Inn","phone":"(970) 667-8555","price":"$$","reviewCount":26,"reviewScore":2.5,"meta":{"revision":0,"created":1547531155699,"version":0},"$loki":14},{"_id":"5c3d65bd3525a329e0c16851","address":"120 W 45th St","location":{"type":"Point","coordinates":[-105.077936971465,40.4378615427291]},"isApproved":true,"items":[],"keys":["Fast Food","Burgers","Ice Cream & Frozen Yogurt"],"lastUpdated":1547527612772,"name":"Sonic Drive-In","phone":"(970) 461-5858","price":"$","reviewCount":14,"reviewScore":1.5,"meta":{"revision":0,"created":1547531155699,"version":0},"$loki":15},{"_id":"5c3d65bd3525a329e0c021f9","address":"129 E 37th St","location":{"type":"Point","coordinates":[-105.07620699762,40.4309332235984]},"isApproved":true,"items":[],"keys":["Pizza"],"lastUpdated":1547527612276,"name":"Little Caesar’s Pizza","phone":"(970) 203-1484","price":"$$","reviewCount":10,"reviewScore":2,"meta":{"revision":0,"created":1547531155699,"version":0},"$loki":16},{"_id":"5c3d65bd3525a329e0c04dbf","address":"630 E 29th St","location":{"type":"Point","coordinates":[-105.0691324,40.4212452]},"isApproved":true,"items":[],"keys":["American (Traditional)"],"lastUpdated":1547527612338,"name":"Twin Sisters","phone":"(970) 663-7130","price":"$","reviewCount":10,"reviewScore":3,"meta":{"revision":0,"created":1547531155699,"version":0},"$loki":17},{"_id":"5c3d65bd3525a329e0c0f128","address":"630 E 29th St","location":{"type":"Point","coordinates":[-105.0691324,40.4212452]},"isApproved":true,"items":[],"keys":["Fast Food","Sandwiches"],"lastUpdated":1547527612590,"name":"Quiznos","phone":"(970) 663-7130","price":"","reviewCount":3,"reviewScore":1.5,"meta":{"revision":0,"created":1547531155699,"version":0},"$loki":18},{"_id":"5c3d65bd3525a329e0c059f8","address":"285 E 29th St","location":{"type":"Point","coordinates":[-105.073657790719,40.4238835293573]},"isApproved":true,"items":[],"keys":["Italian"],"lastUpdated":1547527612355,"name":"Blocky’s Eatery","phone":"(970) 292-8353","price":"$","reviewCount":68,"reviewScore":4.5,"meta":{"revision":0,"created":1547531155699,"version":0},"$loki":19},{"_id":"5c3d65bd3525a329e0c00929","address":"115 65th St","location":{"type":"Point","coordinates":[-105.0748299,40.4249977]},"isApproved":true,"items":[],"keys":["Fast Food","Breakfast & Brunch"],"lastUpdated":1547527612229,"name":"Taco Bell","phone":"","price":"","reviewCount":28,"reviewScore":1.5,"meta":{"revision":0,"created":1547531155699,"version":0},"$loki":20},{"_id":"5c3d65bd3525a329e0c0ef30","address":"1600 28th St","location":{"type":"Point","coordinates":[-105.076829,40.426623]},"isApproved":true,"items":[],"keys":["Noodles"],"lastUpdated":1547527612583,"name":"Noodles & Company","phone":"(303) 546-9000","price":"$","reviewCount":41,"reviewScore":3,"meta":{"revision":0,"created":1547531155699,"version":0},"$loki":21},{"_id":"5c3d65bd3525a329e0c14554","address":"3320 N Garfield Ave","location":{"type":"Point","coordinates":[-105.076885,40.4268589]},"isApproved":true,"items":[],"keys":["Japanese"],"lastUpdated":1547527612715,"name":"Osaka Hibachi Japanese Steakhouse","phone":"(970) 663-5699","price":"$$","reviewCount":21,"reviewScore":3.5,"meta":{"revision":0,"created":1547531155699,"version":0},"$loki":22},{"_id":"5c3d65bd3525a329e0c06159","address":"3201 Walnut St","location":{"type":"Point","coordinates":[-105.0778312,40.424279]},"isApproved":true,"items":[],"keys":["Pizza","American (Traditional)","Bars"],"lastUpdated":1547527612368,"name":"Twisted Pine Brewing Company","phone":"(303) 786-9270","price":"","reviewCount":2,"reviewScore":3.5,"meta":{"revision":0,"created":1547531155699,"version":0},"$loki":23},{"_id":"5c3d65bd3525a329e0c01c43","address":"237 E 29th St","location":{"type":"Point","coordinates":[-105.076973694063,40.4243195637243]},"isApproved":true,"items":[],"keys":["Pizza","Italian","Chicken Wings"],"lastUpdated":1547527612258,"name":"Pizza Hut","phone":"(970) 203-1111","price":"","reviewCount":7,"reviewScore":2.5,"meta":{"revision":0,"created":1547531155699,"version":0},"$loki":24},{"_id":"5c3d65bd3525a329e0c11321","address":"243 E 29th St","location":{"type":"Point","coordinates":[-105.0770448,40.4245669]},"isApproved":true,"items":[],"keys":["Mexican"],"lastUpdated":1547527612642,"name":"Casa Real","phone":"(970) 663-4589","price":"$$","reviewCount":54,"reviewScore":3.5,"meta":{"revision":0,"created":1547531155699,"version":0},"$loki":25},{"_id":"5c3d65bd3525a329e0c0d2a7","address":"233 E 29th St","location":{"type":"Point","coordinates":[-105.076950711639,40.4237994397712]},"isApproved":true,"items":[],"keys":["Mexican","Fast Food"],"lastUpdated":1547527612545,"name":"QDOBA Mexican Eats","phone":"(970) 622-2070","price":"","reviewCount":9,"reviewScore":3,"meta":{"revision":0,"created":1547531155699,"version":0},"$loki":26},{"_id":"5c3d65bd3525a329e0c03676","address":"2051 N Main","location":{"type":"Point","coordinates":[-105.0779582,40.4232388]},"isApproved":true,"items":[],"keys":["Breakfast & Brunch","Bakeries","American (Traditional)"],"lastUpdated":1547527612303,"name":"Perkins Restaurant & Bakery","phone":"(303) 772-1410","price":"$","reviewCount":26,"reviewScore":2.5,"meta":{"revision":0,"created":1547531155699,"version":0},"$loki":27},{"_id":"5c3d65bd3525a329e0c113e3","address":"110 E 29th St","location":{"type":"Point","coordinates":[-105.077257890608,40.4207893]},"isApproved":true,"items":[],"keys":["Breweries","Pubs","Burgers"],"lastUpdated":1547527612642,"name":"Tilted Barrel Brew Pub","phone":"(970) 619-8950","price":"$$","reviewCount":34,"reviewScore":4,"meta":{"revision":0,"created":1547531155699,"version":0},"$loki":28},{"_id":"5c3d65bd3525a329e0c0ddb3","address":"104 E 29th St","location":{"type":"Point","coordinates":[-105.0765975,40.4213743]},"isApproved":true,"items":[],"keys":["Barbeque","American (Traditional)","Southern"],"lastUpdated":1547527612563,"name":"Dickey’s Barbecue Pit","phone":"(970) 663-5050","price":"$$","reviewCount":19,"reviewScore":3,"meta":{"revision":0,"created":1547531155699,"version":0},"$loki":29},{"_id":"5c3d65bd3525a329e0c0e0b4","address":"104 E 29th St","location":{"type":"Point","coordinates":[-105.0765975,40.4213743]},"isApproved":true,"items":[],"keys":["Italian","Pizza"],"lastUpdated":1547527612565,"name":"Abo’s Pizza","phone":"(970) 663-1122","price":"","reviewCount":1,"reviewScore":1,"meta":{"revision":0,"created":1547531155699,"version":0},"$loki":30},{"_id":"5c3d65bd3525a329e0c058ed","address":"225 E 29th St","location":{"type":"Point","coordinates":[-105.0765196,40.42271]},"isApproved":true,"items":[],"keys":["Noodles"],"lastUpdated":1547527612355,"name":"Noodles & Company","phone":"(970) 663-9366","price":"$","reviewCount":10,"reviewScore":2.5,"meta":{"revision":0,"created":1547531155699,"version":0},"$loki":31},{"_id":"5c3d65bd3525a329e0bffef1","address":"213 E 29th St","location":{"type":"Point","coordinates":[-105.075816,40.422019]},"isApproved":true,"items":[],"keys":["Sports Bars","Burgers","American (Traditional)"],"lastUpdated":1547527612223,"name":"Applebee’s Grill + Bar","phone":"(970) 593-0655","price":"$$","reviewCount":28,"reviewScore":3,"meta":{"revision":0,"created":1547531155699,"version":0},"$loki":32},{"_id":"5c3d65bd3525a329e0c10bdb","address":"1106 Main St","location":{"type":"Point","coordinates":[-105.075183,40.4220522]},"isApproved":true,"items":[],"keys":["Pizza","Chicken Wings","Sandwiches"],"lastUpdated":1547527612632,"name":"Domino’s Pizza","phone":"(303) 772-3030","price":"$","reviewCount":21,"reviewScore":2,"meta":{"revision":0,"created":1547531155699,"version":0},"$loki":33},{"_id":"5c3d65bd3525a329e0c12581","address":"228 E 29th St","location":{"type":"Point","coordinates":[-105.074259,40.4210448]},"isApproved":true,"items":[],"keys":["Pizza"],"lastUpdated":1547527612670,"name":"Papa John’s Pizza","phone":"(970) 203-1212","price":"$$","reviewCount":12,"reviewScore":3,"meta":{"revision":0,"created":1547531155699,"version":0},"$loki":34},{"_id":"5c3d65bd3525a329e0c172af","address":"174 E 29th St","location":{"type":"Point","coordinates":[-105.075878730058,40.4206878581029]},"isApproved":true,"items":[],"keys":["Mexican"],"lastUpdated":1547527612783,"name":"Tito’s Mexican Grill","phone":"(970) 669-8486","price":"$","reviewCount":30,"reviewScore":3.5,"meta":{"revision":0,"created":1547531155699,"version":0},"$loki":35},{"_id":"5c3d65bd3525a329e0c077ce","address":"198 E 29th St","location":{"type":"Point","coordinates":[-105.0755304,40.4205244]},"isApproved":true,"items":[],"keys":["Japanese","Sushi Bars"],"lastUpdated":1547527612408,"name":"Sushi Jooa","phone":"(970) 685-4694","price":"$$","reviewCount":28,"reviewScore":4,"meta":{"revision":0,"created":1547531155699,"version":0},"$loki":36},{"_id":"5c3d65bd3525a329e0c17151","address":"256 E 29th St","location":{"type":"Point","coordinates":[-105.0734195,40.420285]},"isApproved":true,"items":[],"keys":["Fast Food","Sandwiches"],"lastUpdated":1547527612782,"name":"Subway","phone":"(970) 663-7874","price":"$","reviewCount":5,"reviewScore":2.5,"meta":{"revision":0,"created":1547531155699,"version":0},"$loki":37},{"_id":"5c3d65bd3525a329e0bffea2","address":"130 W Olive St","location":{"type":"Point","coordinates":[-105.073699951172,40.4183654785156]},"isApproved":true,"items":[],"keys":["Food Trucks","Breakfast & Brunch","Waffles"],"lastUpdated":1547527612222,"name":"Waffle Lab","phone":"(970) 232-9433","price":"$$","reviewCount":142,"reviewScore":4,"meta":{"revision":0,"created":1547531155699,"version":0},"$loki":38},{"_id":"5c3d65bd3525a329e0c06c89","address":"2204 N Lincoln Ave","location":{"type":"Point","coordinates":[-105.072582,40.415064]},"isApproved":true,"items":[],"keys":["Burgers"],"lastUpdated":1547527612386,"name":"Runza Drive Inn","phone":"(970) 669-2131","price":"$","reviewCount":39,"reviewScore":4,"meta":{"revision":0,"created":1547531155699,"version":0},"$loki":39},{"_id":"5c3d65bd3525a329e0c0f15d","address":"1635 N Lincoln Ave","location":{"type":"Point","coordinates":[-105.073451399803,40.4107186066707]},"isApproved":true,"items":[],"keys":["Mexican","Fast Food"],"lastUpdated":1547527612591,"name":"Taco John’s","phone":"(970) 667-2066","price":"$","reviewCount":6,"reviewScore":3.5,"meta":{"revision":0,"created":1547531155699,"version":0},"$loki":40},{"_id":"5c3d65bd3525a329e0c16d21","address":"5350 Arapahoe Rd","location":{"type":"Point","coordinates":[-105.0734335,40.4069647]},"isApproved":true,"items":[],"keys":["Fast Food","Burgers"],"lastUpdated":1547527612774,"name":"Wendy’s","phone":"(303) 449-4644","price":"$","reviewCount":15,"reviewScore":3,"meta":{"revision":0,"created":1547531155699,"version":0},"$loki":41},{"_id":"5c3d65bd3525a329e0c1914e","address":"1340 Cleveland Ave","location":{"type":"Point","coordinates":[-105.073952,40.4069484]},"isApproved":true,"items":[],"keys":["Fast Food","Burgers"],"lastUpdated":1547527612833,"name":"Carl’s Jr","phone":"(970) 669-2922","price":"$","reviewCount":10,"reviewScore":1.5,"meta":{"revision":0,"created":1547531155699,"version":0},"$loki":42},{"_id":"5c3d65bd3525a329e0c05ccd","address":"1435 N Cleveland Ave","location":{"type":"Point","coordinates":[-105.0748979,40.4081155]},"isApproved":true,"items":[],"keys":["Pizza","Italian"],"lastUpdated":1547527612357,"name":"Blackjack Pizza & Salads","phone":"(970) 669-1717","price":"$","reviewCount":13,"reviewScore":3.5,"meta":{"revision":0,"created":1547531155699,"version":0},"$loki":43},{"_id":"5c3d65bd3525a329e0c064af","address":"300 E Eisenhower Blvd","location":{"type":"Point","coordinates":[-105.0727733,40.4070029]},"isApproved":true,"items":[],"keys":["Ice Cream & Frozen Yogurt","Fast Food"],"lastUpdated":1547527612371,"name":"Dairy Queen","phone":"(970) 461-3456","price":"$","reviewCount":14,"reviewScore":3.5,"meta":{"revision":0,"created":1547531155699,"version":0},"$loki":44},{"_id":"5c3d65bd3525a329e0c08d01","address":"1356 N Lincoln Ave","location":{"type":"Point","coordinates":[-105.0728031,40.4067675]},"isApproved":true,"items":[],"keys":["Mexican"],"lastUpdated":1547527612436,"name":"Tata’s Burritos","phone":"(970) 663-2300","price":"$","reviewCount":69,"reviewScore":3.5,"meta":{"revision":0,"created":1547531155699,"version":0},"$loki":45},{"_id":"5c3d65bd3525a329e0c12d38","address":"1569 Fall River Dr","location":{"type":"Point","coordinates":[-105.073203,40.406155]},"isApproved":true,"items":[],"keys":["Sandwiches","Delis","Fast Food"],"lastUpdated":1547527612681,"name":"Jimmy John’s","phone":"(970) 624-6077","price":"$","reviewCount":19,"reviewScore":3,"meta":{"revision":0,"created":1547531155699,"version":0},"$loki":46},{"_id":"5c3d65bd3525a329e0c0a6c5","address":"205 W 4th St","location":{"type":"Point","coordinates":[-105.0782551,40.3957697]},"isApproved":true,"items":[],"keys":["Italian","American (Traditional)"],"lastUpdated":1547527612481,"name":"The Hobnob Restaurant","phone":"(970) 663-5527","price":"$$","reviewCount":8,"reviewScore":3.5,"meta":{"revision":0,"created":1547531155699,"version":0},"$loki":47},{"_id":"5c3d65bd3525a329e0c00bbc","address":"530 Cleveland Ave","location":{"type":"Point","coordinates":[-105.074340839712,40.3973205835329]},"isApproved":true,"items":[],"keys":["Italian","Wine Bars"],"lastUpdated":1547527612230,"name":"Slate Italian Eatery","phone":"(970) 775-2397","price":"$$","reviewCount":82,"reviewScore":4,"meta":{"revision":0,"created":1547531155699,"version":0},"$loki":48},{"_id":"5c3d65bd3525a329e0c140f6","address":"409 N Railroad Ave","location":{"type":"Point","coordinates":[-105.0760877,40.3960468]},"isApproved":true,"items":[],"keys":["American (Traditional)","Sports Bars"],"lastUpdated":1547527612707,"name":"Sports Station American Grill","phone":"(970) 461-8825","price":"$$","reviewCount":63,"reviewScore":3.5,"meta":{"revision":0,"created":1547531155699,"version":0},"$loki":49},{"_id":"5c3d65bd3525a329e0c141fa","address":"2299 Pearl St","location":{"type":"Point","coordinates":[-105.0753224,40.3956235]},"isApproved":true,"items":[],"keys":["Beer, Wine & Spirits","Delis","Pizza"],"lastUpdated":1547527612713,"name":"Bow Tie Cafe & Spirits","phone":"(303) 938-1128","price":"$$","reviewCount":111,"reviewScore":3.5,"meta":{"revision":0,"created":1547531155699,"version":0},"$loki":50},{"_id":"5c3d65bd3525a329e0c1738d","address":"141 E 4th St","location":{"type":"Point","coordinates":[-105.0748042,40.3956468]},"isApproved":true,"items":[],"keys":["Cajun/Creole","Southern","Soul Food"],"lastUpdated":1547527612783,"name":"Mo’Betta Gumbo","phone":"(970) 685-4842","price":"$$","reviewCount":352,"reviewScore":4,"meta":{"revision":0,"created":1547531155699,"version":0},"$loki":51},{"_id":"5c3d65bd3525a329e0c0f8d8","address":"234 E 4th St","location":{"type":"Point","coordinates":[-105.0736767,40.3952128]},"isApproved":true,"items":[],"keys":["American (Traditional)","Pubs","Gastropubs"],"lastUpdated":1547527612600,"name":"Henry’s Pub","phone":"(970) 613-1896","price":"$$","reviewCount":250,"reviewScore":4.5,"meta":{"revision":0,"created":1547531155699,"version":0},"$loki":52},{"_id":"5c3d65bd3525a329e0c0ed85","address":"830 Grand Ave","location":{"type":"Point","coordinates":[-105.074059,40.395164]},"isApproved":true,"items":[],"keys":["Juice Bars & Smoothies","Cafes"],"lastUpdated":1547527612582,"name":"Village Hub","phone":"(970) 627-5095","price":"","reviewCount":1,"reviewScore":3,"meta":{"revision":0,"created":1547531155699,"version":0},"$loki":53},{"_id":"5c3d65bd3525a329e0c1878b","address":"330 Cleveland Ave","location":{"type":"Point","coordinates":[-105.0742819,40.3951615]},"isApproved":true,"items":[],"keys":["Breakfast & Brunch","Sandwiches"],"lastUpdated":1547527612821,"name":"Taste Local","phone":"(970) 690-9448","price":"$$","reviewCount":65,"reviewScore":4.5,"meta":{"revision":0,"created":1547531155699,"version":0},"$loki":54},{"_id":"5c3d65bd3525a329e0c165ef","address":"325 N Cleveland Ave","location":{"type":"Point","coordinates":[-105.0745581,40.3950249]},"isApproved":true,"items":[],"keys":["Cafes","Breakfast & Brunch"],"lastUpdated":1547527612765,"name":"Fresh Plate Cafe & Catering","phone":"(970) 744-3041","price":"","reviewCount":15,"reviewScore":3.5,"meta":{"revision":0,"created":1547531155699,"version":0},"$loki":55},{"_id":"5c3d65bd3525a329e0c1999e","address":"120 N Lincoln Ave","location":{"type":"Point","coordinates":[-105.0731066,40.3930968]},"isApproved":true,"items":[],"keys":["Chinese","Sushi Bars","Asian Fusion"],"lastUpdated":1547527612843,"name":"Wonderful Dragon","phone":"(970) 593-9838","price":"$$","reviewCount":81,"reviewScore":3,"meta":{"revision":0,"created":1547531155699,"version":0},"$loki":56},{"_id":"5c3d65bd3525a329e0bff4c7","address":"116 S Lincoln Ave","location":{"type":"Point","coordinates":[-105.073003135622,40.3923989075757]},"isApproved":true,"items":[],"keys":["Mexican"],"lastUpdated":1547527612216,"name":"Antonio’s Burritos","phone":"(970) 613-0342","price":"$","reviewCount":21,"reviewScore":3.5,"meta":{"revision":0,"created":1547531155699,"version":0},"$loki":57},{"_id":"5c3d65bd3525a329e0c1888f","address":"510 E 4th St","location":{"type":"Point","coordinates":[-105.070272253967,40.3951894]},"isApproved":true,"items":[],"keys":["Mexican"],"lastUpdated":1547527612822,"name":"Tortilleria La Autentica","phone":"(970) 663-9114","price":"$","reviewCount":63,"reviewScore":4,"meta":{"revision":0,"created":1547531155699,"version":0},"$loki":58},{"_id":"5c3d65bd3525a329e0c0ea5c","address":"330 N Lincoln Ave","location":{"type":"Point","coordinates":[-105.0728661,40.3950066]},"isApproved":true,"items":[],"keys":["Dive Bars","American (Traditional)"],"lastUpdated":1547527612581,"name":"Cove Restaurant and Lounge","phone":"(970) 667-1400","price":"$","reviewCount":3,"reviewScore":4,"meta":{"revision":0,"created":1547531155699,"version":0},"$loki":59},{"_id":"5c3d65bd3525a329e0c05325","address":"422 E 4th St","location":{"type":"Point","coordinates":[-105.0712449,40.3952026]},"isApproved":true,"items":[],"keys":["Butcher","Bars","American (Traditional)"],"lastUpdated":1547527612346,"name":"The Boar and Bull","phone":"(970) 599-1090","price":"$$","reviewCount":32,"reviewScore":4.5,"meta":{"revision":0,"created":1547531155699,"version":0},"$loki":60},{"_id":"5c3d65bd3525a329e0c1b1cd","address":"414 E 6th St","location":{"type":"Point","coordinates":[-105.0713134,40.3972381]},"isApproved":true,"items":[],"keys":["American (New)","Breakfast & Brunch"],"lastUpdated":1547527612877,"name":"A.K.A Kitchen","phone":"(970) 617-2325","price":"","reviewCount":24,"reviewScore":4,"meta":{"revision":0,"created":1547531155699,"version":0},"$loki":61},{"_id":"5c3d65bd3525a329e0c043fa","address":"605 Briggs St","location":{"type":"Point","coordinates":[-105.0730908,40.3960935]},"isApproved":true,"items":[],"keys":["Mexican"],"lastUpdated":1547527612321,"name":"Azteca Mexican Restaurant","phone":"(303) 658-0622","price":"$$","reviewCount":61,"reviewScore":3.5,"meta":{"revision":0,"created":1547531155699,"version":0},"$loki":62},{"_id":"5c3d65bd3525a329e0c1499d","address":"532 N Lincoln Ave","location":{"type":"Point","coordinates":[-105.073027,40.396841]},"isApproved":true,"items":[],"keys":["Breakfast & Brunch","Burgers","American (New)"],"lastUpdated":1547527612728,"name":"Doug’s","phone":"(970) 667-7124","price":"$$","reviewCount":269,"reviewScore":4.5,"meta":{"revision":0,"created":1547531155699,"version":0},"$loki":63},{"_id":"5c3d65bd3525a329e0c03986","address":"548 N Lincoln Ave","location":{"type":"Point","coordinates":[-105.073046160406,40.3970384631373]},"isApproved":true,"items":[],"keys":["Pubs","American (New)"],"lastUpdated":1547527612310,"name":"Laureate Publick House","phone":"(970) 775-2980","price":"$$","reviewCount":46,"reviewScore":4,"meta":{"revision":0,"created":1547531155699,"version":0},"$loki":64},{"_id":"5c3d65bd3525a329e0c08a6c","address":"986 East Eisenhower Boulevard","location":{"type":"Point","coordinates":[-105.0641666,40.4069209]},"isApproved":true,"items":[],"keys":["Pizza"],"lastUpdated":1547527612430,"name":"Papa Murphy’s","phone":"(970) 667-9700","price":"","reviewCount":5,"reviewScore":4,"meta":{"revision":0,"created":1547531155699,"version":0},"$loki":65},{"_id":"5c3d65bd3525a329e0c0df85","address":"1011 E Eisenhower Blvd","location":{"type":"Point","coordinates":[-105.062083,40.407754]},"isApproved":true,"items":[],"keys":["Japanese","Chinese","Buffets"],"lastUpdated":1547527612564,"name":"Hokkaido Buffet","phone":"(970) 776-9248","price":"$$","reviewCount":45,"reviewScore":3,"meta":{"revision":0,"created":1547531155699,"version":0},"$loki":66},{"_id":"5c3d65bd3525a329e0c1b5e1","address":"210 Ken Pratt Blvd","location":{"type":"Point","coordinates":[-105.058407559991,40.4089132072278]},"isApproved":true,"items":[],"keys":["Italian"],"lastUpdated":1547527612886,"name":"Pinocchio’s","phone":"(303) 651-7828","price":"$$","reviewCount":99,"reviewScore":3,"meta":{"revision":0,"created":1547531155699,"version":0},"$loki":67},{"_id":"5c3d65bd3525a329e0c00c3d","address":"1477 East Eisenhower Blvd","location":{"type":"Point","coordinates":[-105.0549652,40.4086775]},"isApproved":true,"items":[],"keys":["Mexican"],"lastUpdated":1547527612231,"name":"Santiago’s","phone":"(970) 622-0332","price":"$","reviewCount":47,"reviewScore":3,"meta":{"revision":0,"created":1547531155699,"version":0},"$loki":68},{"_id":"5c3d65bd3525a329e0c061d0","address":"1475 N Boise Ave","location":{"type":"Point","coordinates":[-105.0540519,40.4088789]},"isApproved":true,"items":[],"keys":["Italian","Pizza"],"lastUpdated":1547527612369,"name":"Pizza Street","phone":"(970) 622-0707","price":"$$","reviewCount":22,"reviewScore":3,"meta":{"revision":0,"created":1547531155699,"version":0},"$loki":69},{"_id":"5c3d65bd3525a329e0c0f1ed","address":"1417 Cheyenne Ave","location":{"type":"Point","coordinates":[-105.051074,40.407924]},"isApproved":true,"items":[],"keys":["Mexican"],"lastUpdated":1547527612591,"name":"3 Margaritas - Loveland","phone":"(970) 669-4441","price":"$$","reviewCount":46,"reviewScore":3.5,"meta":{"revision":0,"created":1547531155699,"version":0},"$loki":70},{"_id":"5c3d65bd3525a329e0c15e0b","address":"2318 17th Ave","location":{"type":"Point","coordinates":[-105.0528647,40.407944]},"isApproved":true,"items":[],"keys":["Sandwiches","Delis","Fast Food"],"lastUpdated":1547527612755,"name":"Jimmy John’s","phone":"(303) 651-6181","price":"$","reviewCount":14,"reviewScore":2.5,"meta":{"revision":0,"created":1547531155699,"version":0},"$loki":71},{"_id":"5c3d65bd3525a329e0c05401","address":"1451 Boise Ave","location":{"type":"Point","coordinates":[-105.0541432,40.4083973]},"isApproved":true,"items":[],"keys":["Coffee & Tea","Breakfast & Brunch"],"lastUpdated":1547527612347,"name":"The Breakfast Club","phone":"(970) 461-1261","price":"$","reviewCount":60,"reviewScore":4,"meta":{"revision":0,"created":1547531155699,"version":0},"$loki":72},{"_id":"5c3d65bd3525a329e0c071cd","address":"3175 28th St","location":{"type":"Point","coordinates":[-105.04517,40.406831]},"isApproved":true,"items":[],"keys":["Pizza","Italian","Chicken Wings"],"lastUpdated":1547527612398,"name":"Pizza Hut","phone":"(303) 449-8877","price":"","reviewCount":27,"reviewScore":1.5,"meta":{"revision":0,"created":1547531155699,"version":0},"$loki":73},{"_id":"5c3d65bd3525a329e0c1af1e","address":"1419 N Denver Ave","location":{"type":"Point","coordinates":[-105.044698,40.407814]},"isApproved":true,"items":[],"keys":["Burgers"],"lastUpdated":1547527612876,"name":"Smashburger","phone":"(970) 461-0188","price":"$$","reviewCount":66,"reviewScore":3.5,"meta":{"revision":0,"created":1547531155699,"version":0},"$loki":74},{"_id":"5c3d65bd3525a329e0c17b2a","address":"1423 Denver Ave","location":{"type":"Point","coordinates":[-105.0448034,40.4075275]},"isApproved":true,"items":[],"keys":["Fast Food"],"lastUpdated":1547527612799,"name":"Dazbog Coffee","phone":"(970) 622-0031","price":"$","reviewCount":12,"reviewScore":4.5,"meta":{"revision":0,"created":1547531155699,"version":0},"$loki":75},{"_id":"5c3d65bd3525a329e0c03815","address":"1441 Denver Ave","location":{"type":"Point","coordinates":[-105.0447994,40.4077329]},"isApproved":true,"items":[],"keys":["Fast Food","Mexican"],"lastUpdated":1547527612304,"name":"Big City Burrito","phone":"(970) 669-4242","price":"$","reviewCount":26,"reviewScore":3,"meta":{"revision":0,"created":1547531155699,"version":0},"$loki":76},{"_id":"5c3d65bd3525a329e0c050e0","address":"1445 Denver Ave","location":{"type":"Point","coordinates":[-105.0462061,40.4081932]},"isApproved":true,"items":[],"keys":["Sandwiches","Fast Food"],"lastUpdated":1547527612340,"name":"Subway","phone":"(970) 612-0305","price":"","reviewCount":2,"reviewScore":1,"meta":{"revision":0,"created":1547531155699,"version":0},"$loki":77},{"_id":"5c3d65bd3525a329e0c0614d","address":"1385 Sculptor Dr","location":{"type":"Point","coordinates":[-105.035581,40.4067812]},"isApproved":true,"items":[],"keys":["Pizza","Chicken Wings","Sandwiches"],"lastUpdated":1547527612368,"name":"Domino’s Pizza","phone":"(970) 663-2880","price":"$$","reviewCount":9,"reviewScore":2,"meta":{"revision":0,"created":1547531155699,"version":0},"$loki":78},{"_id":"5c3d65bd3525a329e0c01a7c","address":"1395 Sculptor Dr","location":{"type":"Point","coordinates":[-105.035648147291,40.4067171800452]},"isApproved":true,"items":[],"keys":["Fast Food","Sandwiches","Delis"],"lastUpdated":1547527612257,"name":"Firehouse Subs","phone":"(970) 663-1814","price":"","reviewCount":6,"reviewScore":3.5,"meta":{"revision":0,"created":1547531155699,"version":0},"$loki":79},{"_id":"5c3d65bd3525a329e0c0af02","address":"1315 Dry Creek Dr","location":{"type":"Point","coordinates":[-105.034546,40.4065749]},"isApproved":true,"items":[],"keys":["Steakhouses"],"lastUpdated":1547527612491,"name":"Outback Steakhouse","phone":"(303) 684-8149","price":"$$","reviewCount":54,"reviewScore":2.5,"meta":{"revision":0,"created":1547531155699,"version":0},"$loki":80},{"_id":"5c3d65bd3525a329e0bffe10","address":"2305 E 13th St","location":{"type":"Point","coordinates":[-105.043950457165,40.405541303992]},"isApproved":true,"items":[],"keys":["Burgers","Fast Food","Ice Cream & Frozen Yogurt"],"lastUpdated":1547527612222,"name":"Sonic Drive-In","phone":"(970) 461-5078","price":"$","reviewCount":42,"reviewScore":1,"meta":{"revision":0,"created":1547531155699,"version":0},"$loki":81},{"_id":"5c3d65bd3525a329e0c018dd","address":"2020 Ken Pratt Blvd","location":{"type":"Point","coordinates":[-105.0741412,40.3845947]},"isApproved":true,"items":[],"keys":["Burgers"],"lastUpdated":1547527612251,"name":"Burger King","phone":"(303) 772-2987","price":"$$","reviewCount":10,"reviewScore":2.5,"meta":{"revision":0,"created":1547531155699,"version":0},"$loki":82},{"_id":"5c3d65bd3525a329e0c105bc","address":"804 S Lincoln Ave","location":{"type":"Point","coordinates":[-105.074573322779,40.384836678328]},"isApproved":true,"items":[],"keys":["Mexican"],"lastUpdated":1547527612618,"name":"Senor Rafael at the Mexican Inn","phone":"(970) 669-3422","price":"$","reviewCount":41,"reviewScore":3.5,"meta":{"revision":0,"created":1547531155699,"version":0},"$loki":83},{"_id":"5c3d65bd3525a329e0c1097c","address":"251 SE 14th St","location":{"type":"Point","coordinates":[-105.0747095,40.378591]},"isApproved":true,"items":[],"keys":["Mexican"],"lastUpdated":1547527612625,"name":"Taqueria Rancho Alegre","phone":"(970) 461-1099","price":"$","reviewCount":41,"reviewScore":4,"meta":{"revision":0,"created":1547531155699,"version":0},"$loki":84},{"_id":"5c3d65bd3525a329e0c11c5f","address":"1431 N Denver Ave","location":{"type":"Point","coordinates":[-105.0999953,40.3792455]},"isApproved":true,"items":[],"keys":["American (New)","Soup","Sandwiches"],"lastUpdated":1547527612660,"name":"Tom+Chee","phone":"(970) 776-9682","price":"","reviewCount":3,"reviewScore":4,"meta":{"revision":0,"created":1547531155699,"version":0},"$loki":85},{"_id":"5c3d65bd3525a329e0c0948e","address":"1323 Eagle Dr","location":{"type":"Point","coordinates":[-105.0995614,40.3792449]},"isApproved":true,"items":[],"keys":["Chinese"],"lastUpdated":1547527612453,"name":"Asian Cafe & Grill","phone":"(970) 622-0688","price":"$$","reviewCount":69,"reviewScore":3,"meta":{"revision":0,"created":1547531155699,"version":0},"$loki":86},{"_id":"5c3d65bd3525a329e0c011a8","address":"1402 E Harmony Rd","location":{"type":"Point","coordinates":[-105.0975177,40.3801427]},"isApproved":true,"items":[],"keys":["Breakfast & Brunch","American (Traditional)","Creperies"],"lastUpdated":1547527612239,"name":"Village Inn","phone":"(970) 229-1603","price":"$$","reviewCount":25,"reviewScore":3,"meta":{"revision":0,"created":1547531155699,"version":0},"$loki":87},{"_id":"5c3d65bd3525a329e0c07a16","address":"2120 E Harmony Rd","location":{"type":"Point","coordinates":[-105.097271293414,40.3824770169204]},"isApproved":true,"items":[],"keys":["Mexican","Fast Food"],"lastUpdated":1547527612409,"name":"Chipotle Mexican Grill","phone":"(970) 530-3200","price":"$","reviewCount":25,"reviewScore":4,"meta":{"revision":0,"created":1547531155699,"version":0},"$loki":88},{"_id":"5c3d65bd3525a329e0c0c339","address":"700 Ken Pratt Blvd","location":{"type":"Point","coordinates":[-105.0971634,40.3822712]},"isApproved":true,"items":[],"keys":["Sandwiches","Fast Food"],"lastUpdated":1547527612518,"name":"Subway","phone":"(303) 776-3011","price":"","reviewCount":4,"reviewScore":2.5,"meta":{"revision":0,"created":1547531155699,"version":0},"$loki":89},{"_id":"5c3d65bd3525a329e0c075bd","address":"2150 Main St","location":{"type":"Point","coordinates":[-105.0990678,40.38097]},"isApproved":true,"items":[],"keys":["Fast Food","Sandwiches"],"lastUpdated":1547527612401,"name":"Arby’s Roast Beef Restaurants","phone":"(303) 772-1766","price":"$$","reviewCount":10,"reviewScore":2.5,"meta":{"revision":0,"created":1547531155699,"version":0},"$loki":90},{"_id":"5c3d65bd3525a329e0c01dcf","address":"1139 Eagle Dr","location":{"type":"Point","coordinates":[-105.0992092,40.381192]},"isApproved":true,"items":[],"keys":["Sandwiches","Cheesesteaks","Salad"],"lastUpdated":1547527612260,"name":"Taste of Philly","phone":"(970) 663-6044","price":"$","reviewCount":55,"reviewScore":3,"meta":{"revision":0,"created":1547531155699,"version":0},"$loki":91},{"_id":"5c3d65bd3525a329e0c02e93","address":"720 Austin Ave","location":{"type":"Point","coordinates":[-105.098839,40.380996]},"isApproved":true,"items":[],"keys":["Italian","Pizza"],"lastUpdated":1547527612294,"name":"Abos Pizza","phone":"(303) 828-9777","price":"$$","reviewCount":58,"reviewScore":2.5,"meta":{"revision":0,"created":1547531155699,"version":0},"$loki":92},{"_id":"5c3d65bd3525a329e0c0d668","address":"1990 Youngfield St","location":{"type":"Point","coordinates":[-105.074698,40.312949]},"isApproved":true,"items":[],"keys":["American (Traditional)","Bars","Burgers"],"lastUpdated":1547527612554,"name":"Teller’s Taproom & Kitchen","phone":"(303) 237-1002","price":"$$","reviewCount":453,"reviewScore":4,"meta":{"revision":0,"created":1547531155699,"version":0},"$loki":93},{"_id":"5c3d65bd3525a329e0c18446","address":"600 S Airport Rd","location":{"type":"Point","coordinates":[-105.078898,40.305731]},"isApproved":true,"items":[],"keys":["Pizza"],"lastUpdated":1547527612814,"name":"Proto’s Pizza - Longmont","phone":"(303) 485-5000","price":"$$","reviewCount":69,"reviewScore":4,"meta":{"revision":0,"created":1547531155699,"version":0},"$loki":94},{"_id":"5c3d65bd3525a329e0c102f9","address":"307 Mountain Ave","location":{"type":"Point","coordinates":[-105.0786094,40.3049485]},"isApproved":true,"items":[],"keys":["Fast Food","Sandwiches"],"lastUpdated":1547527612617,"name":"Subway","phone":"(970) 532-9818","price":"$","reviewCount":5,"reviewScore":3.5,"meta":{"revision":0,"created":1547531155699,"version":0},"$loki":95},{"_id":"5c3d65bd3525a329e0c0d042","address":"250 Mountain Ave","location":{"type":"Point","coordinates":[-105.0768393,40.3055017]},"isApproved":true,"items":[],"keys":["Coffee & Tea","Breakfast & Brunch","Sandwiches"],"lastUpdated":1547527612544,"name":"Cornerstone Cafe","phone":"(970) 344-5360","price":"$$","reviewCount":6,"reviewScore":3.5,"meta":{"revision":0,"created":1547531155699,"version":0},"$loki":96},{"_id":"5c3d65bd3525a329e0c01af1","address":"237 Welch Ave","location":{"type":"Point","coordinates":[-105.077603452273,40.303928710272]},"isApproved":true,"items":[],"keys":["Pizza","American (New)","Sandwiches"],"lastUpdated":1547527612258,"name":"Side Tracked","phone":"(970) 532-9905","price":"$","reviewCount":7,"reviewScore":3.5,"meta":{"revision":0,"created":1547531155699,"version":0},"$loki":97},{"_id":"5c3d65bd3525a329e0c0f460","address":"124 E 4th St","location":{"type":"Point","coordinates":[-105.0853569,40.305364]},"isApproved":true,"items":[],"keys":["Bars","American (New)","Pizza"],"lastUpdated":1547527612592,"name":"Pourhouse Bar and Grill","phone":"(970) 669-1699","price":"$$","reviewCount":166,"reviewScore":3.5,"meta":{"revision":0,"created":1547531155699,"version":0},"$loki":98},{"_id":"5c3d65bd3525a329e0c0d691","address":"821 W Mountain Ave","location":{"type":"Point","coordinates":[-105.086398,40.3047039]},"isApproved":true,"items":[],"keys":["Pizza","Italian","Chicken Wings"],"lastUpdated":1547527612554,"name":"Pizza Hut","phone":"(970) 532-1111","price":"$","reviewCount":14,"reviewScore":2,"meta":{"revision":0,"created":1547531155699,"version":0},"$loki":99},{"_id":"5c3d65bd3525a329e0c05613","address":"405 5th St","location":{"type":"Point","coordinates":[-105.0814748,40.3045151]},"isApproved":true,"items":[],"keys":["Tapas/Small Plates","Cocktail Bars","Breakfast & Brunch"],"lastUpdated":1547527612348,"name":"One Point Six North","phone":"(970) 344-5625","price":"","reviewCount":10,"reviewScore":4,"meta":{"revision":0,"created":1547531155699,"version":0},"$loki":100},{"_id":"5c3d65bd3525a329e0c00059","address":"1631 Pace St","location":{"type":"Point","coordinates":[-105.0813606,40.3043157]},"isApproved":true,"items":[],"keys":["Pizza"],"lastUpdated":1547527612223,"name":"Nicolo’s Pizza","phone":"(303) 651-2335","price":"$","reviewCount":45,"reviewScore":3.5,"meta":{"revision":0,"created":1547531155699,"version":0},"$loki":101},{"_id":"5c3d65bd3525a329e0c1a1b7","address":"1218 S Hover Rd","location":{"type":"Point","coordinates":[-105.0806299,40.3053489]},"isApproved":true,"items":[],"keys":["Fast Food","Burgers"],"lastUpdated":1547527612858,"name":"Culver’s","phone":"(720) 600-6787","price":"$","reviewCount":26,"reviewScore":4,"meta":{"revision":0,"created":1547531155699,"version":0},"$loki":102},{"_id":"5c3d65bd3525a329e0c17059","address":"22 Second St","location":{"type":"Point","coordinates":[-105.080018118024,40.3056513037948]},"isApproved":true,"items":[],"keys":["Cinema","Bowling","Pizza"],"lastUpdated":1547527612782,"name":"The Foundry Cinema & Bowl","phone":"(970) 363-7161","price":"$$","reviewCount":86,"reviewScore":3.5,"meta":{"revision":0,"created":1547531155699,"version":0},"$loki":103},{"_id":"5c3d65bd3525a329e0c063a4","address":"1283 3rd Ave","location":{"type":"Point","coordinates":[-105.104472,40.30337]},"isApproved":true,"items":[],"keys":["Gastropubs","Cocktail Bars","American (New)"],"lastUpdated":1547527612370,"name":"West Side Tavern","phone":"(720) 526-0360","price":"$$","reviewCount":42,"reviewScore":4.5,"meta":{"revision":0,"created":1547531155699,"version":0},"$loki":104},{"_id":"5c3d65bd3525a329e0c069a6","address":"600 Briggs St","location":{"type":"Point","coordinates":[-105.0477277,40.0504278]},"isApproved":true,"items":[],"keys":["Pizza","Breweries"],"lastUpdated":1547527612379,"name":"Echo Brewing - Erie","phone":"(720) 361-2332","price":"$$","reviewCount":65,"reviewScore":3.5,"meta":{"revision":0,"created":1547531155699,"version":0},"$loki":105},{"_id":"5c3d65bd3525a329e0c0b36c","address":"9135 E Northfield Blvd","location":{"type":"Point","coordinates":[-105.0477277,40.0504278]},"isApproved":true,"items":[],"keys":["Fast Food","Pizza"],"lastUpdated":1547527612498,"name":"MOD Pizza","phone":"(720) 242-6046","price":"$$","reviewCount":41,"reviewScore":4.5,"meta":{"revision":0,"created":1547531155699,"version":0},"$loki":106},{"_id":"5c3d65bd3525a329e0c0b700","address":"5026 E Colfax Ave","location":{"type":"Point","coordinates":[-105.0476821,40.049919]},"isApproved":true,"items":[],"keys":["Bars","Pizza","Sandwiches"],"lastUpdated":1547527612505,"name":"The Owl Saloon","phone":"(720) 379-5085","price":"$","reviewCount":24,"reviewScore":4.5,"meta":{"revision":0,"created":1547531155699,"version":0},"$loki":107},{"_id":"5c3d65bd3525a329e0c1079c","address":"1075 E South Boulder Rd","location":{"type":"Point","coordinates":[-105.0476821,40.049919]},"isApproved":true,"items":[],"keys":["Indian","Pakistani"],"lastUpdated":1547527612619,"name":"Taj Mahal","phone":"(303) 926-0999","price":"$$","reviewCount":164,"reviewScore":4.5,"meta":{"revision":0,"created":1547531155699,"version":0},"$loki":108},{"_id":"5c3d65bd3525a329e0c1128b","address":"554 Briggs St","location":{"type":"Point","coordinates":[-105.0476821,40.0497277]},"isApproved":true,"items":[],"keys":["Coffee & Tea","Breakfast & Brunch"],"lastUpdated":1547527612642,"name":"Rose Cafe","phone":"(303) 828-3675","price":"$","reviewCount":22,"reviewScore":3.5,"meta":{"revision":0,"created":1547531155699,"version":0},"$loki":109},{"_id":"5c3d65bd3525a329e0c0524d","address":"800 S Hover Rd","location":{"type":"Point","coordinates":[-105.04718,40.050445]},"isApproved":true,"items":[],"keys":["Cajun/Creole","Breakfast & Brunch","Caterers"],"lastUpdated":1547527612346,"name":"Leenie’s Cafe Longmont","phone":"(303) 776-4195","price":"$","reviewCount":100,"reviewScore":3.5,"meta":{"revision":0,"created":1547531155699,"version":0},"$loki":110},{"_id":"5c3d65bd3525a329e0c006be","address":"3050 28th St","location":{"type":"Point","coordinates":[-105.046255880945,40.0514034251527]},"isApproved":true,"items":[],"keys":["Indian","Halal"],"lastUpdated":1547527612227,"name":"Curry n Kebob","phone":"(720) 328-4696","price":"$","reviewCount":437,"reviewScore":4,"meta":{"revision":0,"created":1547531155699,"version":0},"$loki":111},{"_id":"5c3d65bd3525a329e0c17a0c","address":"800 E 26th Ave","location":{"type":"Point","coordinates":[-105.046255880945,40.0514034251527]},"isApproved":true,"items":[],"keys":["Chicken Shop","Sandwiches","Breakfast & Brunch"],"lastUpdated":1547527612793,"name":"Birdcall","phone":"(720) 361-2976","price":"$","reviewCount":215,"reviewScore":4.5,"meta":{"revision":0,"created":1547531155699,"version":0},"$loki":112},{"_id":"5c3d65bd3525a329e0c09a16","address":"8283 S Akron St","location":{"type":"Point","coordinates":[-105.0476364,40.049343]},"isApproved":true,"items":[],"keys":["Sushi Bars","Ramen"],"lastUpdated":1547527612463,"name":"Denma Sushi & Ramen","phone":"(303) 799-7716","price":"$$","reviewCount":54,"reviewScore":4.5,"meta":{"revision":0,"created":1547531155699,"version":0},"$loki":113},{"_id":"5c3d65bd3525a329e0c10e55","address":"2817 E 3rd Ave","location":{"type":"Point","coordinates":[-105.047502,40.049129]},"isApproved":true,"items":[],"keys":["Mexican","Bars"],"lastUpdated":1547527612634,"name":"Machete Tequila + Tacos","phone":"(303) 333-1567","price":"$$","reviewCount":599,"reviewScore":4,"meta":{"revision":0,"created":1547531155699,"version":0},"$loki":114},{"_id":"5c3d65bd3525a329e0c17e9b","address":"1265 Alpine Ave","location":{"type":"Point","coordinates":[-105.047502,40.049129]},"isApproved":true,"items":[],"keys":["New Mexican Cuisine"],"lastUpdated":1547527612802,"name":"Santo","phone":"(303) 442-6100","price":"$$$","reviewCount":92,"reviewScore":4,"meta":{"revision":0,"created":1547531155699,"version":0},"$loki":115},{"_id":"5c3d65bd3525a329e0c083d3","address":"4245 W Colfax Ave","location":{"type":"Point","coordinates":[-105.045199949013,40.0431138800534]},"isApproved":true,"items":[],"keys":["Sandwiches","Salad","Breakfast & Brunch"],"lastUpdated":1547527612421,"name":"Even Stevens Sandwiches","phone":"","price":"$","reviewCount":101,"reviewScore":4.5,"meta":{"revision":0,"created":1547531155699,"version":0},"$loki":116},{"_id":"5c3d65bd3525a329e0c0b712","address":"78885 US Hwy 40","location":{"type":"Point","coordinates":[-105.045199949013,40.0431138800534]},"isApproved":true,"items":[],"keys":["Fast Food","Sandwiches"],"lastUpdated":1547527612505,"name":"Subway","phone":"(970) 726-0202","price":"$","reviewCount":11,"reviewScore":3,"meta":{"revision":0,"created":1547531155699,"version":0},"$loki":117},{"_id":"5c3d65bd3525a329e0c04bf9","address":"1600 28th St","location":{"type":"Point","coordinates":[-105.047065,40.042075]},"isApproved":true,"items":[],"keys":["Japanese","Sushi Bars"],"lastUpdated":1547527612337,"name":"Motomaki","phone":"(720) 943-2030","price":"$$","reviewCount":223,"reviewScore":4,"meta":{"revision":0,"created":1547531155699,"version":0},"$loki":118},{"_id":"5c3d65bd3525a329e0c06815","address":"11310 E Colfax Ave","location":{"type":"Point","coordinates":[-105.047065,40.042075]},"isApproved":true,"items":[],"keys":["Tex-Mex","Greek","American (Traditional)"],"lastUpdated":1547527612378,"name":"The Omelette Restaurant","phone":"(303) 366-3047","price":"$$","reviewCount":42,"reviewScore":3.5,"meta":{"revision":0,"created":1547531155699,"version":0},"$loki":119},{"_id":"5c3d65bd3525a329e0c1a811","address":"89 Briggs St","location":{"type":"Point","coordinates":[-105.0471113,40.0424148]},"isApproved":true,"items":[],"keys":["Cafes","Coffee & Tea"],"lastUpdated":1547527612867,"name":"Cristos Coffee","phone":"(303) 828-1380","price":"$","reviewCount":41,"reviewScore":4,"meta":{"revision":0,"created":1547531155699,"version":0},"$loki":120},{"_id":"5c3d65bd3525a329e0c192c0","address":"1501 S Pearl St","location":{"type":"Point","coordinates":[-105.0515753,40.0364331]},"isApproved":true,"items":[],"keys":["Japanese","Tapas/Small Plates"],"lastUpdated":1547527612833,"name":"Ototo","phone":"(303) 733-2503","price":"$$","reviewCount":172,"reviewScore":4.5,"meta":{"revision":0,"created":1547531155699,"version":0},"$loki":121},{"_id":"5c3d65bd3525a329e0c0b828","address":"4600 S Mason St","location":{"type":"Point","coordinates":[-105.052826,40.036037]},"isApproved":true,"items":[],"keys":["Chinese","Fast Food"],"lastUpdated":1547527612506,"name":"Panda Express","phone":"(970) 223-6262","price":"$","reviewCount":23,"reviewScore":2.5,"meta":{"revision":0,"created":1547531155699,"version":0},"$loki":122},{"_id":"5c3d65bd3525a329e0c1038c","address":"3210 Arapahoe Blvd","location":{"type":"Point","coordinates":[-105.05480656012,40.032667442616]},"isApproved":true,"items":[],"keys":["Fast Food","Mexican","Chicken Wings"],"lastUpdated":1547527612617,"name":"Taco Bell","phone":"(303) 447-0702","price":"$","reviewCount":13,"reviewScore":1.5,"meta":{"revision":0,"created":1547531155699,"version":0},"$loki":123},{"_id":"5c3d65bd3525a329e0c0bc7c","address":"3335 Arapahoe Rd","location":{"type":"Point","coordinates":[-105.06348,40.0614310630086]},"isApproved":true,"items":[],"keys":["Ice Cream & Frozen Yogurt","Fast Food"],"lastUpdated":1547527612509,"name":"Dairy Queen","phone":"(720) 890-8759","price":"$","reviewCount":7,"reviewScore":3.5,"meta":{"revision":0,"created":1547531155699,"version":0},"$loki":124},{"_id":"5c3d65bd3525a329e0c08cae","address":"1131 Francis St","location":{"type":"Point","coordinates":[-105.076372,40.187565]},"isApproved":true,"items":[],"keys":["Mexican","Diners","Breakfast & Brunch"],"lastUpdated":1547527612436,"name":"Taqueria Las Palmeras","phone":"(303) 682-0300","price":"$","reviewCount":21,"reviewScore":3.5,"meta":{"revision":0,"created":1547531155699,"version":0},"$loki":125},{"_id":"5c3d65bd3525a329e0c0197f","address":"1635 Pace St","location":{"type":"Point","coordinates":[-105.074577,40.187823]},"isApproved":true,"items":[],"keys":["Fast Food","Sandwiches"],"lastUpdated":1547527612257,"name":"Subway","phone":"(303) 682-2665","price":"","reviewCount":4,"reviewScore":1,"meta":{"revision":0,"created":1547531155699,"version":0},"$loki":126},{"_id":"5c3d65bd3525a329e0c03575","address":"209 E 29th","location":{"type":"Point","coordinates":[-105.072945,40.186847]},"isApproved":true,"items":[],"keys":["Fast Food","Burgers","Coffee & Tea"],"lastUpdated":1547527612303,"name":"McDonald’s","phone":"(970) 669-8250","price":"","reviewCount":6,"reviewScore":3,"meta":{"revision":0,"created":1547531155699,"version":0},"$loki":127},{"_id":"5c3d65bd3525a329e0c0300c","address":"3920 Tennyson St","location":{"type":"Point","coordinates":[-105.0721147928,40.188017931068]},"isApproved":true,"items":[],"keys":["Pizza","Beer Bar","Sandwiches"],"lastUpdated":1547527612295,"name":"Hops & Pie","phone":"(303) 477-7000","price":"$$","reviewCount":844,"reviewScore":4.5,"meta":{"revision":0,"created":1547531155699,"version":0},"$loki":128},{"_id":"5c3d65bd3525a329e0c16aad","address":"1430 W Eisenhower Blvd","location":{"type":"Point","coordinates":[-105.087694,40.173275]},"isApproved":true,"items":[],"keys":["Sandwiches"],"lastUpdated":1547527612773,"name":"Silvermine Subs","phone":"(970) 669-6900","price":"$$$","reviewCount":13,"reviewScore":2.5,"meta":{"revision":0,"created":1547531155699,"version":0},"$loki":129},{"_id":"5c3d65bd3525a329e0c05e38","address":"830 Lashley St","location":{"type":"Point","coordinates":[-105.088006,40.172925]},"isApproved":true,"items":[],"keys":["Mexican"],"lastUpdated":1547527612362,"name":"Taqueria Madero","phone":"(303) 776-7225","price":"","reviewCount":3,"reviewScore":3,"meta":{"revision":0,"created":1547531155699,"version":0},"$loki":130},{"_id":"5c3d65bd3525a329e0c0697d","address":"380 Main St","location":{"type":"Point","coordinates":[-105.102323703468,40.1656063940128]},"isApproved":true,"items":[],"keys":["American (Traditional)"],"lastUpdated":1547527612379,"name":"Breakers Grill","phone":"(303) 772-3839","price":"$$","reviewCount":51,"reviewScore":2.5,"meta":{"revision":0,"created":1547531155699,"version":0},"$loki":131},{"_id":"5c3d65bd3525a329e0c186b3","address":"2050 26th St","location":{"type":"Point","coordinates":[-105.102341,40.16588]},"isApproved":true,"items":[],"keys":["Burgers","Fast Food","Ice Cream & Frozen Yogurt"],"lastUpdated":1547527612815,"name":"Good Times Burgers & Frozen Custard","phone":"(303) 449-5185","price":"$","reviewCount":44,"reviewScore":3.5,"meta":{"revision":0,"created":1547531155699,"version":0},"$loki":132},{"_id":"5c3d65bd3525a329e0c026ed","address":"2303 Clover Basin Dr","location":{"type":"Point","coordinates":[-105.1021649,40.1663106]},"isApproved":true,"items":[],"keys":["Chicken Wings","American (Traditional)","Sports Bars"],"lastUpdated":1547527612284,"name":"Buffalo Wild Wings","phone":"(303) 485-9464","price":"$$","reviewCount":59,"reviewScore":2.5,"meta":{"revision":0,"created":1547531155699,"version":0},"$loki":133},{"_id":"5c3d65bd3525a329e0c0a6a2","address":"14807 W 64th Ave","location":{"type":"Point","coordinates":[-105.1023241,40.1678872]},"isApproved":true,"items":[],"keys":["Sushi Bars"],"lastUpdated":1547527612481,"name":"Sushi Aji","phone":"(303) 515-2569","price":"$$","reviewCount":94,"reviewScore":4,"meta":{"revision":0,"created":1547531155699,"version":0},"$loki":134},{"_id":"5c3d65bd3525a329e0c0ba51","address":"1331 Eagle Dr","location":{"type":"Point","coordinates":[-105.1023241,40.1678872]},"isApproved":true,"items":[],"keys":["American (Traditional)"],"lastUpdated":1547527612507,"name":"CJ’s Patio Grill","phone":"(970) 685-4556","price":"$$","reviewCount":44,"reviewScore":3.5,"meta":{"revision":0,"created":1547531155699,"version":0},"$loki":135},{"_id":"5c3d65bd3525a329e0c17ede","address":"516 Main St","location":{"type":"Point","coordinates":[-105.1024734,40.1681326]},"isApproved":true,"items":[],"keys":["Indian"],"lastUpdated":1547527612802,"name":"Flavor of India","phone":"(303) 682-9010","price":"$$","reviewCount":110,"reviewScore":4,"meta":{"revision":0,"created":1547531155699,"version":0},"$loki":136},{"_id":"5c3d65bd3525a329e0c0b0f2","address":"78415 US-40","location":{"type":"Point","coordinates":[-105.1023012,40.1683811]},"isApproved":true,"items":[],"keys":["Breakfast & Brunch"],"lastUpdated":1547527612497,"name":"Wake N’ Bacon","phone":"(970) 363-7520","price":"","reviewCount":8,"reviewScore":4,"meta":{"revision":0,"created":1547531155699,"version":0},"$loki":137},{"_id":"5c3d65bd3525a329e0c130bf","address":"2524 Main St","location":{"type":"Point","coordinates":[-105.102335,40.1683829]},"isApproved":true,"items":[],"keys":["Chinese","Fast Food"],"lastUpdated":1547527612688,"name":"Panda Express","phone":"(303) 776-9986","price":"$","reviewCount":12,"reviewScore":2.5,"meta":{"revision":0,"created":1547531155699,"version":0},"$loki":138},{"_id":"5c3d65bd3525a329e0c02d22","address":"6831 W 120th Ave","location":{"type":"Point","coordinates":[-105.1011064,40.1682216]},"isApproved":true,"items":[],"keys":["Mediterranean","Greek","Pizza"],"lastUpdated":1547527612293,"name":"Oscar’s Kabob & Gyros","phone":"(303) 404-3434","price":"$$","reviewCount":157,"reviewScore":4,"meta":{"revision":0,"created":1547531155699,"version":0},"$loki":139},{"_id":"5c3d65bd3525a329e0c19077","address":"300 Riverside Dr","location":{"type":"Point","coordinates":[-105.102163,40.168842]},"isApproved":true,"items":[],"keys":["American (New)"],"lastUpdated":1547527612832,"name":"The View","phone":"(970) 586-1087","price":"$$","reviewCount":59,"reviewScore":4,"meta":{"revision":0,"created":1547531155699,"version":0},"$loki":140},{"_id":"5c3d65bd3525a329e0c04eec","address":"926 Main St","location":{"type":"Point","coordinates":[-105.1020349,40.1748108]},"isApproved":true,"items":[],"keys":["Mexican"],"lastUpdated":1547527612339,"name":"Tacos Al Molcajete","phone":"(303) 776-4649","price":"$","reviewCount":88,"reviewScore":4.5,"meta":{"revision":0,"created":1547531155699,"version":0},"$loki":141},{"_id":"5c3d65bd3525a329e0c0cd75","address":"926 Main St","location":{"type":"Point","coordinates":[-105.1020349,40.1748108]},"isApproved":true,"items":[],"keys":["Mexican"],"lastUpdated":1547527612534,"name":"Sabor A Mexico Panaderia Y Taqueria","phone":"(303) 834-9411","price":"","reviewCount":1,"reviewScore":3,"meta":{"revision":0,"created":1547531155699,"version":0},"$loki":142},{"_id":"5c3d65bd3525a329e0c18665","address":"237 W 64th St","location":{"type":"Point","coordinates":[-105.101923,40.1781602]},"isApproved":true,"items":[],"keys":["Chicken Wings","Pizza","Sandwiches"],"lastUpdated":1547527612815,"name":"Domino’s Pizza","phone":"(970) 685-4075","price":"","reviewCount":5,"reviewScore":3,"meta":{"revision":0,"created":1547531155699,"version":0},"$loki":143},{"_id":"5c3d65bd3525a329e0c11d73","address":"1118 Main St","location":{"type":"Point","coordinates":[-105.1020189,40.1784725]},"isApproved":true,"items":[],"keys":["Mexican"],"lastUpdated":1547527612661,"name":"La Panda Bakery II","phone":"(303) 682-0649","price":"$","reviewCount":30,"reviewScore":4,"meta":{"revision":0,"created":1547531155699,"version":0},"$loki":144},{"_id":"5c3d65bd3525a329e0c0421c","address":"1450 N Main St","location":{"type":"Point","coordinates":[-105.1020417,40.1847165]},"isApproved":true,"items":[],"keys":["Juice Bars & Smoothies","Mexican"],"lastUpdated":1547527612321,"name":"Oasis Fresh Fruit & More","phone":"(303) 776-6387","price":"","reviewCount":4,"reviewScore":5,"meta":{"revision":0,"created":1547531155699,"version":0},"$loki":145},{"_id":"5c3d65bd3525a329e0c0a7fb","address":"1420 10th St SW","location":{"type":"Point","coordinates":[-105.098822,40.205153]},"isApproved":true,"items":[],"keys":["Sandwiches","Fast Food"],"lastUpdated":1547527612482,"name":"Subway","phone":"(970) 667-8487","price":"","reviewCount":2,"reviewScore":3,"meta":{"revision":0,"created":1547531155699,"version":0},"$loki":146},{"_id":"5c3d65bd3525a329e0c04368","address":"300 2nd Ave","location":{"type":"Point","coordinates":[-105.1018452,40.2047589]},"isApproved":true,"items":[],"keys":["Italian"],"lastUpdated":1547527612321,"name":"Treppedas Gourmet Market and Catering","phone":"(303) 652-1606","price":"","reviewCount":1,"reviewScore":1,"meta":{"revision":0,"created":1547531155699,"version":0},"$loki":147},{"_id":"5c3d65bd3525a329e0c159dd","address":"2350 Main St","location":{"type":"Point","coordinates":[-105.101731,40.2013638]},"isApproved":true,"items":[],"keys":["Mexican"],"lastUpdated":1547527612747,"name":"3 Margaritas","phone":"(303) 682-0888","price":"$$","reviewCount":77,"reviewScore":3,"meta":{"revision":0,"created":1547531155699,"version":0},"$loki":148},{"_id":"5c3d65bd3525a329e0c17d6e","address":"3335 Arapahoe Rd","location":{"type":"Point","coordinates":[-105.102001,40.200502]},"isApproved":true,"items":[],"keys":["Pizza","Chicken Wings","Sandwiches"],"lastUpdated":1547527612801,"name":"Domino’s Pizza","phone":"(303) 664-5111","price":"","reviewCount":3,"reviewScore":3,"meta":{"revision":0,"created":1547531155699,"version":0},"$loki":149},{"_id":"5c3d65bd3525a329e0c04d3c","address":"2250 Main St","location":{"type":"Point","coordinates":[-105.1019363,40.1992877]},"isApproved":true,"items":[],"keys":["Burgers","Ice Cream & Frozen Yogurt","Fast Food"],"lastUpdated":1547527612338,"name":"Freddy’s Frozen Custard & Steakburgers","phone":"(303) 776-4101","price":"$","reviewCount":60,"reviewScore":3.5,"meta":{"revision":0,"created":1547531155699,"version":0},"$loki":150},{"_id":"5c3d65bd3525a329e0c19a42","address":"965 South Hover Road","location":{"type":"Point","coordinates":[-105.102308,40.198179]},"isApproved":true,"items":[],"keys":["Pizza"],"lastUpdated":1547527612848,"name":"Papa Murphy’s","phone":"(303) 834-8466","price":"","reviewCount":3,"reviewScore":3,"meta":{"revision":0,"created":1547531155699,"version":0},"$loki":151},{"_id":"5c3d65bd3525a329e0c03f40","address":"26 Ken Pratt Blvd","location":{"type":"Point","coordinates":[-105.1019365,40.1979178]},"isApproved":true,"items":[],"keys":["Burgers"],"lastUpdated":1547527612319,"name":"Carl’s Jr.","phone":"(720) 494-4300","price":"$$","reviewCount":15,"reviewScore":2,"meta":{"revision":0,"created":1547531155699,"version":0},"$loki":152},{"_id":"5c3d65bd3525a329e0c0f2ac","address":"2144 Main St","location":{"type":"Point","coordinates":[-105.1009545,40.1973648]},"isApproved":true,"items":[],"keys":["Asian Fusion"],"lastUpdated":1547527612591,"name":"East Moon Asian Bistro","phone":"(303) 684-8383","price":"$$","reviewCount":85,"reviewScore":3.5,"meta":{"revision":0,"created":1547531155699,"version":0},"$loki":153},{"_id":"5c3d65bd3525a329e0c06c46","address":"3021 N Garfield Ave","location":{"type":"Point","coordinates":[-105.1010002,40.1966216]},"isApproved":true,"items":[],"keys":["American (Traditional)","Sports Bars","Burgers"],"lastUpdated":1547527612386,"name":"Blue 32 Sports Grille","phone":"(970) 962-9659","price":"$$","reviewCount":22,"reviewScore":3.5,"meta":{"revision":0,"created":1547531155699,"version":0},"$loki":154},{"_id":"5c3d65bd3525a329e0c0c31a","address":"2130 Main St","location":{"type":"Point","coordinates":[-105.1010002,40.1966216]},"isApproved":true,"items":[],"keys":["Indian"],"lastUpdated":1547527612518,"name":"Everest Restaurant","phone":"(303) 772-5000","price":"$$","reviewCount":64,"reviewScore":3.5,"meta":{"revision":0,"created":1547531155699,"version":0},"$loki":155},{"_id":"5c3d65bd3525a329e0c0b740","address":"2020 Main St","location":{"type":"Point","coordinates":[-105.1023719,40.1944661]},"isApproved":true,"items":[],"keys":["Mexican"],"lastUpdated":1547527612505,"name":"Taco Star","phone":"(303) 485-8450","price":"$","reviewCount":34,"reviewScore":2.5,"meta":{"revision":0,"created":1547531155699,"version":0},"$loki":156},{"_id":"5c3d65bd3525a329e0c0a742","address":"2000 Main St","location":{"type":"Point","coordinates":[-105.1018452,40.1941401]},"isApproved":true,"items":[],"keys":["Burgers","Fast Food"],"lastUpdated":1547527612481,"name":"Burger King","phone":"(303) 684-0624","price":"","reviewCount":22,"reviewScore":1.5,"meta":{"revision":0,"created":1547531155699,"version":0},"$loki":157},{"_id":"5c3d65bd3525a329e0c1626b","address":"2393 W Eisenhower Blvd","location":{"type":"Point","coordinates":[-105.101714754376,40.1925766917739]},"isApproved":true,"items":[],"keys":["Burgers"],"lastUpdated":1547527612763,"name":"Burger King","phone":"(970) 203-1380","price":"$","reviewCount":13,"reviewScore":1.5,"meta":{"revision":0,"created":1547531155699,"version":0},"$loki":158},{"_id":"5c3d65bd3525a329e0c1732b","address":"224 Main St","location":{"type":"Point","coordinates":[-105.1016396,40.1934837]},"isApproved":true,"items":[],"keys":["Performing Arts","Dinner Theater"],"lastUpdated":1547527612783,"name":"Jesters Dinner Theatre","phone":"(303) 502-9069","price":"$$","reviewCount":35,"reviewScore":3.5,"meta":{"revision":0,"created":1547531155699,"version":0},"$loki":159},{"_id":"5c3d65bd3525a329e0c1749c","address":"1834 Main St","location":{"type":"Point","coordinates":[-105.1011299,40.1914272]},"isApproved":true,"items":[],"keys":["Pizza"],"lastUpdated":1547527612790,"name":"Abo’s Pizza Longmont","phone":"(303) 678-0111","price":"$","reviewCount":48,"reviewScore":3.5,"meta":{"revision":0,"created":1547531155699,"version":0},"$loki":160},{"_id":"5c3d65bd3525a329e0c05363","address":"1333 Broadway St","location":{"type":"Point","coordinates":[-105.1007522,40.1883075]},"isApproved":true,"items":[],"keys":["Diners"],"lastUpdated":1547527612346,"name":"Dot’s Diner On the Hill","phone":"(303) 447-9184","price":"$","reviewCount":69,"reviewScore":4,"meta":{"revision":0,"created":1547531155699,"version":0},"$loki":161},{"_id":"5c3d65bd3525a329e0c08c2e","address":"1440 Diana Dr","location":{"type":"Point","coordinates":[-105.1007522,40.1883075]},"isApproved":true,"items":[],"keys":["Bars","Barbeque","Seafood"],"lastUpdated":1547527612436,"name":"Hogfish Smokehouse Grill","phone":"(970) 278-5813","price":"","reviewCount":29,"reviewScore":3.5,"meta":{"revision":0,"created":1547531155699,"version":0},"$loki":162},{"_id":"5c3d65bd3525a329e0c0a07e","address":"1708 Main St","location":{"type":"Point","coordinates":[-105.101731,40.1891681]},"isApproved":true,"items":[],"keys":["Mexican","Fast Food"],"lastUpdated":1547527612472,"name":"Chipotle Mexican Grill","phone":"(303) 485-6369","price":"$","reviewCount":18,"reviewScore":3.5,"meta":{"revision":0,"created":1547531155699,"version":0},"$loki":163},{"_id":"5c3d65bd3525a329e0c178b9","address":"1708 Main St","location":{"type":"Point","coordinates":[-105.1016844,40.1891681]},"isApproved":true,"items":[],"keys":["Fast Food","Burgers"],"lastUpdated":1547527612792,"name":"Five Guys","phone":"(303) 485-8924","price":"$","reviewCount":58,"reviewScore":3.5,"meta":{"revision":0,"created":1547531155699,"version":0},"$loki":164},{"_id":"5c3d65bd3525a329e0c04e7a","address":"1690 Main St","location":{"type":"Point","coordinates":[-105.1016196,40.1883354]},"isApproved":true,"items":[],"keys":["Mexican"],"lastUpdated":1547527612339,"name":"Polleria La Fogata","phone":"(303) 651-0270","price":"$$","reviewCount":5,"reviewScore":3,"meta":{"revision":0,"created":1547531155699,"version":0},"$loki":165},{"_id":"5c3d65bd3525a329e0c07f02","address":"390 S McCaslin Blvd","location":{"type":"Point","coordinates":[-105.103147,40.185292]},"isApproved":true,"items":[],"keys":["Indian","Halal","Pakistani"],"lastUpdated":1547527612417,"name":"Bawarchi Biryanis","phone":"(303) 955-8228","price":"$$","reviewCount":123,"reviewScore":4,"meta":{"revision":0,"created":1547531155699,"version":0},"$loki":166},{"_id":"5c3d65bd3525a329e0c14ecf","address":"10639 Melody Dr","location":{"type":"Point","coordinates":[-105.103147,40.185292]},"isApproved":true,"items":[],"keys":["Mexican"],"lastUpdated":1547527612736,"name":"EL Sabor Jerezano","phone":"(303) 450-7960","price":"$","reviewCount":83,"reviewScore":4,"meta":{"revision":0,"created":1547531155699,"version":0},"$loki":167},{"_id":"5c3d65bd3525a329e0c1a0d0","address":"1515 Main St","location":{"type":"Point","coordinates":[-105.103147,40.1853508]},"isApproved":true,"items":[],"keys":["Delis","Sandwiches"],"lastUpdated":1547527612857,"name":"Brooklyn Deli","phone":"(303) 684-8400","price":"$","reviewCount":44,"reviewScore":4,"meta":{"revision":0,"created":1547531155699,"version":0},"$loki":168},{"_id":"5c3d65bd3525a329e0c0dade","address":"3070 28th St","location":{"type":"Point","coordinates":[-105.10382458751,40.1905065637198]},"isApproved":true,"items":[],"keys":["Sandwiches","Fast Food"],"lastUpdated":1547527612556,"name":"Subway","phone":"(303) 440-0724","price":"","reviewCount":3,"reviewScore":2.5,"meta":{"revision":0,"created":1547531155699,"version":0},"$loki":169},{"_id":"5c3d65bd3525a329e0c1450a","address":"1805 Main St","location":{"type":"Point","coordinates":[-105.1030099,40.1910351]},"isApproved":true,"items":[],"keys":["American (Traditional)"],"lastUpdated":1547527612715,"name":"Aunt Alice’s Kitchen","phone":"(303) 651-0495","price":"$","reviewCount":77,"reviewScore":3.5,"meta":{"revision":0,"created":1547531155699,"version":0},"$loki":170},{"_id":"5c3d65bd3525a329e0c0f0b6","address":"1905 Main St","location":{"type":"Point","coordinates":[-105.1028524,40.1926391]},"isApproved":true,"items":[],"keys":["Burgers","Fast Food"],"lastUpdated":1547527612590,"name":"Wendy’s","phone":"(303) 776-4431","price":"$","reviewCount":9,"reviewScore":1.5,"meta":{"revision":0,"created":1547531155699,"version":0},"$loki":171},{"_id":"5c3d65bd3525a329e0c11610","address":"2251 Ken Pratt Blvd","location":{"type":"Point","coordinates":[-105.1030099,40.1933795]},"isApproved":true,"items":[],"keys":["Bowling","American (New)","Arcades"],"lastUpdated":1547527612649,"name":"The Wild Game Entertainment Experience - Longmont","phone":"(720) 600-4875","price":"$$","reviewCount":68,"reviewScore":3,"meta":{"revision":0,"created":1547531155699,"version":0},"$loki":172},{"_id":"5c3d65bd3525a329e0c07295","address":"4709 S Timberline Rd","location":{"type":"Point","coordinates":[-105.1028957,40.1935706]},"isApproved":true,"items":[],"keys":["Pizza","Sports Bars","American (Traditional)"],"lastUpdated":1547527612399,"name":"Old Chicago Pizza & Taproom","phone":"(970) 207-9456","price":"$$","reviewCount":81,"reviewScore":3,"meta":{"revision":0,"created":1547531155699,"version":0},"$loki":173},{"_id":"5c3d65bd3525a329e0c07978","address":"2065 Main St","location":{"type":"Point","coordinates":[-105.1029186,40.1954169]},"isApproved":true,"items":[],"keys":["Sushi Bars"],"lastUpdated":1547527612409,"name":"Sushi Hana","phone":"(303) 485-1055","price":"$$","reviewCount":63,"reviewScore":3,"meta":{"revision":0,"created":1547531155699,"version":0},"$loki":174},{"_id":"5c3d65bd3525a329e0c0380b","address":"4431 Corbett Dr","location":{"type":"Point","coordinates":[-105.102924853563,40.1949993792112]},"isApproved":true,"items":[],"keys":["Japanese","Sushi Bars"],"lastUpdated":1547527612304,"name":"Suehiro Japanese Restaurant","phone":"(970) 672-8185","price":"$$","reviewCount":109,"reviewScore":3,"meta":{"revision":0,"created":1547531155699,"version":0},"$loki":175},{"_id":"5c3d65bd3525a329e0c01940","address":"2255 N Main St","location":{"type":"Point","coordinates":[-105.1044087,40.1971916]},"isApproved":true,"items":[],"keys":["Italian","Pizza","Chicken Wings"],"lastUpdated":1547527612251,"name":"Pizza Hut","phone":"(303) 776-3316","price":"$$$","reviewCount":24,"reviewScore":1.5,"meta":{"revision":0,"created":1547531155699,"version":0},"$loki":176},{"_id":"5c3d65bd3525a329e0c03c5e","address":"2255 N Main St","location":{"type":"Point","coordinates":[-105.1035973,40.1973916]},"isApproved":true,"items":[],"keys":["Noodles"],"lastUpdated":1547527612312,"name":"Noodles & Company","phone":"(303) 776-8506","price":"$","reviewCount":13,"reviewScore":3.5,"meta":{"revision":0,"created":1547531155699,"version":0},"$loki":177},{"_id":"5c3d65bd3525a329e0c0ff4d","address":"2514 Main St","location":{"type":"Point","coordinates":[-105.1031622,40.2013477]},"isApproved":true,"items":[],"keys":["Sandwiches","Fast Food"],"lastUpdated":1547527612609,"name":"Subway","phone":"(303) 684-9072","price":"","reviewCount":3,"reviewScore":2.5,"meta":{"revision":0,"created":1547531155699,"version":0},"$loki":178},{"_id":"5c3d65bd3525a329e0c15215","address":"1108 Francis St","location":{"type":"Point","coordinates":[-105.1165329,40.177694]},"isApproved":true,"items":[],"keys":["Pizza","Italian"],"lastUpdated":1547527612737,"name":"Blackjack Pizza & Salads","phone":"(303) 776-1900","price":"$","reviewCount":35,"reviewScore":3,"meta":{"revision":0,"created":1547531155699,"version":0},"$loki":179},{"_id":"5c3d65bd3525a329e0c0e787","address":"1232 S Hover St","location":{"type":"Point","coordinates":[-105.117025790213,40.177930945888]},"isApproved":true,"items":[],"keys":["American (New)","Burgers"],"lastUpdated":1547527612574,"name":"Next Door - Longmont","phone":"(303) 325-9690","price":"$$","reviewCount":93,"reviewScore":4,"meta":{"revision":0,"created":1547531155699,"version":0},"$loki":180},{"_id":"5c3d65bd3525a329e0c02a2f","address":"1104 Francis St","location":{"type":"Point","coordinates":[-105.1159141,40.1780059]},"isApproved":true,"items":[],"keys":["Vietnamese","Chinese","Seafood"],"lastUpdated":1547527612286,"name":"Luu’s Asian Cuisine","phone":"(720) 600-0579","price":"$","reviewCount":53,"reviewScore":3.5,"meta":{"revision":0,"created":1547531155699,"version":0},"$loki":181},{"_id":"5c3d65bd3525a329e0c0c9b1","address":"1133 Francis St","location":{"type":"Point","coordinates":[-105.117056,40.178986]},"isApproved":true,"items":[],"keys":["Chicken Wings","Fast Food","American (Traditional)"],"lastUpdated":1547527612526,"name":"Mikey’s Wing Shack","phone":"(303) 834-8066","price":"$","reviewCount":54,"reviewScore":3.5,"meta":{"revision":0,"created":1547531155699,"version":0},"$loki":182},{"_id":"5c3d65bd3525a329e0c0059a","address":"3267 28th St","location":{"type":"Point","coordinates":[-105.117046,40.178893]},"isApproved":true,"items":[],"keys":["Bagels","Breakfast & Brunch","Sandwiches"],"lastUpdated":1547527612227,"name":"Moe’s Broadway Bagel","phone":"(720) 406-9000","price":"$","reviewCount":40,"reviewScore":3,"meta":{"revision":0,"created":1547531155699,"version":0},"$loki":183},{"_id":"5c3d65bd3525a329e0c0190b","address":"1136 Francis St","location":{"type":"Point","coordinates":[-105.116005441716,40.1789721]},"isApproved":true,"items":[],"keys":["Mexican"],"lastUpdated":1547527612251,"name":"Tortilleria Laguna","phone":"(303) 682-5727","price":"$","reviewCount":1,"reviewScore":2,"meta":{"revision":0,"created":1547531155699,"version":0},"$loki":184},{"_id":"5c3d65bd3525a329e0c0e44b","address":"1445 Main St","location":{"type":"Point","coordinates":[-105.1026514,40.184677]},"isApproved":true,"items":[],"keys":["Mexican","Food Trucks"],"lastUpdated":1547527612572,"name":"Danny’s tacos y tortas","phone":"(720) 317-4260","price":"","reviewCount":8,"reviewScore":4.5,"meta":{"revision":0,"created":1547531155699,"version":0},"$loki":185},{"_id":"5c3d65bd3525a329e0c0d0e8","address":"1355 N Lincoln Ave","location":{"type":"Point","coordinates":[-105.1032836,40.1742725]},"isApproved":true,"items":[],"keys":["Burgers","Fast Food","Ice Cream & Frozen Yogurt"],"lastUpdated":1547527612545,"name":"Good Times Burgers & Frozen Custard","phone":"(970) 663-7291","price":"$$","reviewCount":10,"reviewScore":4,"meta":{"revision":0,"created":1547531155699,"version":0},"$loki":186},{"_id":"5c3d65bd3525a329e0c0ea54","address":"900 Coffman St","location":{"type":"Point","coordinates":[-105.1032902,40.1742553]},"isApproved":true,"items":[],"keys":["Pizza","Sandwiches"],"lastUpdated":1547527612581,"name":"Mama Mead’s Pizzeria","phone":"(303) 682-8833","price":"$$","reviewCount":43,"reviewScore":4,"meta":{"revision":0,"created":1547531155699,"version":0},"$loki":187},{"_id":"5c3d65bd3525a329e0c12957","address":"1300 Pearl St","location":{"type":"Point","coordinates":[-105.1029186,40.1745556]},"isApproved":true,"items":[],"keys":["Hot Dogs"],"lastUpdated":1547527612679,"name":"Fast Eddie’s World Famous Chicago Hot Dogs","phone":"","price":"","reviewCount":7,"reviewScore":3.5,"meta":{"revision":0,"created":1547531155699,"version":0},"$loki":188},{"_id":"5c3d65bd3525a329e0c06db4","address":"4645 E 23rd Ave","location":{"type":"Point","coordinates":[-105.102907,40.174516]},"isApproved":true,"items":[],"keys":["Italian"],"lastUpdated":1547527612387,"name":"The Cherry Tomato","phone":"(303) 377-1914","price":"$$","reviewCount":269,"reviewScore":4,"meta":{"revision":0,"created":1547531155699,"version":0},"$loki":189},{"_id":"5c3d65bd3525a329e0c0b8a6","address":"599 Crossing Dr","location":{"type":"Point","coordinates":[-105.102907,40.174516]},"isApproved":true,"items":[],"keys":["Barbeque","Breweries"],"lastUpdated":1547527612507,"name":"Uturn BBQ","phone":"(303) 993-6033","price":"$$","reviewCount":156,"reviewScore":3.5,"meta":{"revision":0,"created":1547531155699,"version":0},"$loki":190},{"_id":"5c3d65bd3525a329e0c03969","address":"829 Main St","location":{"type":"Point","coordinates":[-105.1028272,40.173479]},"isApproved":true,"items":[],"keys":["Diners","Breakfast & Brunch"],"lastUpdated":1547527612310,"name":"Hidden Cafe","phone":"(303) 678-8034","price":"$","reviewCount":27,"reviewScore":4,"meta":{"revision":0,"created":1547531155699,"version":0},"$loki":191},{"_id":"5c3d65bd3525a329e0c0b116","address":"829 Main St","location":{"type":"Point","coordinates":[-105.1028272,40.173479]},"isApproved":true,"items":[],"keys":["Pizza"],"lastUpdated":1547527612497,"name":"Smack Daddy Pizza","phone":"(303) 485-5522","price":"$$","reviewCount":62,"reviewScore":3.5,"meta":{"revision":0,"created":1547531155699,"version":0},"$loki":192},{"_id":"5c3d65bd3525a329e0c07607","address":"296 E 29th St","location":{"type":"Point","coordinates":[-105.103619880974,40.170817811052]},"isApproved":true,"items":[],"keys":["Vietnamese"],"lastUpdated":1547527612401,"name":"Pho Lan","phone":"(970) 685-4411","price":"$$","reviewCount":64,"reviewScore":4,"meta":{"revision":0,"created":1547531155699,"version":0},"$loki":193},{"_id":"5c3d65bd3525a329e0c15b4e","address":"5378 Gunbarrel Center Ct","location":{"type":"Point","coordinates":[-105.1029582,40.1708966]},"isApproved":true,"items":[],"keys":["Sandwiches","Salad","Beverage Store"],"lastUpdated":1547527612753,"name":"Raglin Market","phone":"","price":"","reviewCount":5,"reviewScore":5,"meta":{"revision":0,"created":1547531155699,"version":0},"$loki":194},{"_id":"5c3d65bd3525a329e0c0129e","address":"635 Main St","location":{"type":"Point","coordinates":[-105.1030099,40.1702439]},"isApproved":true,"items":[],"keys":["Sandwiches"],"lastUpdated":1547527612240,"name":"Cheba Hut Toasted Subs","phone":"(720) 600-4949","price":"$$","reviewCount":23,"reviewScore":4,"meta":{"revision":0,"created":1547531155699,"version":0},"$loki":195},{"_id":"5c3d65bd3525a329e0c0a561","address":"2630 Baseline Rd","location":{"type":"Point","coordinates":[-105.10554,40.16877]},"isApproved":true,"items":[],"keys":["Indian","Buffets"],"lastUpdated":1547527612480,"name":"Taj Indian Cuisine","phone":"(303) 494-5216","price":"$$","reviewCount":113,"reviewScore":4,"meta":{"revision":0,"created":1547531155699,"version":0},"$loki":196},{"_id":"5c3d65bd3525a329e0c0bd2c","address":"2716 Welton St","location":{"type":"Point","coordinates":[-105.10554,40.16877]},"isApproved":true,"items":[],"keys":["Coffee & Tea","Breakfast & Brunch","Bakeries"],"lastUpdated":1547527612515,"name":"The Rolling Pin Bakeshop","phone":"(720) 708-3026","price":"$","reviewCount":291,"reviewScore":5,"meta":{"revision":0,"created":1547531155699,"version":0},"$loki":197},{"_id":"5c3d65bd3525a329e0c162ca","address":"269 Mountain Ave","location":{"type":"Point","coordinates":[-105.1030099,40.1692276]},"isApproved":true,"items":[],"keys":["Pizza"],"lastUpdated":1547527612763,"name":"Brick Oven Pizza & Subs","phone":"(970) 532-4747","price":"$$","reviewCount":21,"reviewScore":3.5,"meta":{"revision":0,"created":1547531155699,"version":0},"$loki":198},{"_id":"5c3d65bd3525a329e0c1428e","address":"471 Main St","location":{"type":"Point","coordinates":[-105.1028936,40.1671014]},"isApproved":true,"items":[],"keys":["Desserts","Cafes","Breakfast & Brunch"],"lastUpdated":1547527612713,"name":"La Vita Bella Cafe","phone":"","price":"$","reviewCount":85,"reviewScore":4.5,"meta":{"revision":0,"created":1547531155699,"version":0},"$loki":199},{"_id":"5c3d65bd3525a329e0c06cf1","address":"461 Main St","location":{"type":"Point","coordinates":[-105.1028173,40.1669265]},"isApproved":true,"items":[],"keys":["Pizza"],"lastUpdated":1547527612387,"name":"Rosalee’s Pizzeria","phone":"(303) 485-5020","price":"$$","reviewCount":149,"reviewScore":4,"meta":{"revision":0,"created":1547531155699,"version":0},"$loki":200},{"_id":"5c3d65bd3525a329e0c05bde","address":"1131 Thompson Rd","location":{"type":"Point","coordinates":[-105.1029414,40.1664027]},"isApproved":true,"items":[],"keys":["Fast Food","Coffee & Tea","Burgers"],"lastUpdated":1547527612356,"name":"McDonald’s","phone":"(970) 887-3501","price":"$","reviewCount":12,"reviewScore":2,"meta":{"revision":0,"created":1547531155699,"version":0},"$loki":201},{"_id":"5c3d65bd3525a329e0c1a1d3","address":"62927 US 40","location":{"type":"Point","coordinates":[-105.1028158,40.1648851]},"isApproved":true,"items":[],"keys":["American (Traditional)"],"lastUpdated":1547527612858,"name":"Grand Manor","phone":"(970) 509-9535","price":"","reviewCount":8,"reviewScore":3,"meta":{"revision":0,"created":1547531155699,"version":0},"$loki":202},{"_id":"5c3d65bd3525a329e0c177d8","address":"150 1st St","location":{"type":"Point","coordinates":[-105.1155429,40.1666013]},"isApproved":true,"items":[],"keys":["Mexican"],"lastUpdated":1547527612792,"name":"Santiago’s III Mexican Restaurant","phone":"(303) 857-4797","price":"$","reviewCount":21,"reviewScore":2,"meta":{"revision":0,"created":1547531155699,"version":0},"$loki":203},{"_id":"5c3d65bd3525a329e0c179b1","address":"1200 Yarmouth Ave","location":{"type":"Point","coordinates":[-105.1155429,40.1666013]},"isApproved":true,"items":[],"keys":["Italian","Desserts","Pizza"],"lastUpdated":1547527612792,"name":"Bacco Trattoria","phone":"(303) 442-3899","price":"$$","reviewCount":117,"reviewScore":3.5,"meta":{"revision":0,"created":1547531155699,"version":0},"$loki":204},{"_id":"5c3d65bd3525a329e0c0d864","address":"1805 Industrial Cir","location":{"type":"Point","coordinates":[-105.1234743,40.1474948]},"isApproved":true,"items":[],"keys":["Pizza","Sports Bars","American (Traditional)"],"lastUpdated":1547527612555,"name":"Old Chicago Pizza & Taproom","phone":"(303) 651-7000","price":"$$","reviewCount":94,"reviewScore":3,"meta":{"revision":0,"created":1547531155699,"version":0},"$loki":205},{"_id":"5c3d65bd3525a329e0c02a24","address":"4670 Broadway","location":{"type":"Point","coordinates":[-105.124762,40.1461603]},"isApproved":true,"items":[],"keys":["Pizza"],"lastUpdated":1547527612286,"name":"Proto’s Pizzeria Napoletana - Boulder","phone":"(720) 565-1050","price":"$$","reviewCount":78,"reviewScore":3.5,"meta":{"revision":0,"created":1547531155699,"version":0},"$loki":206},{"_id":"5c3d65bd3525a329e0c19abe","address":"5318 Sheridan Blvd","location":{"type":"Point","coordinates":[-105.124762,40.1461603]},"isApproved":true,"items":[],"keys":["Burgers","Hot Dogs","Mexican"],"lastUpdated":1547527612849,"name":"Hamburguesas Don Jesus","phone":"(720) 242-9052","price":"$","reviewCount":10,"reviewScore":4.5,"meta":{"revision":0,"created":1547531155699,"version":0},"$loki":207},{"_id":"5c3d65bd3525a329e0c19ecf","address":"613 Frontage Rd","location":{"type":"Point","coordinates":[-105.1194544,40.1514798]},"isApproved":true,"items":[],"keys":["Pizza"],"lastUpdated":1547527612851,"name":"Old World Pizzeria","phone":"(303) 678-1014","price":"","reviewCount":17,"reviewScore":3,"meta":{"revision":0,"created":1547531155699,"version":0},"$loki":208},{"_id":"5c3d65bd3525a329e0c08f01","address":"1719 Broadway St","location":{"type":"Point","coordinates":[-105.119070323042,40.1523392296415]},"isApproved":true,"items":[],"keys":["Hot Dogs","Burgers","Fast Food"],"lastUpdated":1547527612438,"name":"Mustard’s Last Stand","phone":"(303) 444-5841","price":"$","reviewCount":113,"reviewScore":3.5,"meta":{"revision":0,"created":1547531155699,"version":0},"$loki":209},{"_id":"5c3d65bd3525a329e0c11566","address":"1225 Ken Pratt Blvd","location":{"type":"Point","coordinates":[-105.1142925,40.1518151]},"isApproved":true,"items":[],"keys":["Breakfast & Brunch","Gluten-Free","Sandwiches"],"lastUpdated":1547527612649,"name":"Le Peep","phone":"(720) 652-6680","price":"$$","reviewCount":63,"reviewScore":3.5,"meta":{"revision":0,"created":1547531155699,"version":0},"$loki":210},{"_id":"5c3d65bd3525a329e0c16705","address":"1225 Ken Pratt Blvd","location":{"type":"Point","coordinates":[-105.1142925,40.1518151]},"isApproved":true,"items":[],"keys":["Vietnamese"],"lastUpdated":1547527612766,"name":"Saigon Xpress","phone":"(303) 774-8555","price":"$","reviewCount":81,"reviewScore":3.5,"meta":{"revision":0,"created":1547531155699,"version":0},"$loki":211},{"_id":"5c3d65bd3525a329e0c0a267","address":"1240 Ken Pratt Blvd","location":{"type":"Point","coordinates":[-105.113927,40.1528021]},"isApproved":true,"items":[],"keys":["Sandwiches"],"lastUpdated":1547527612473,"name":"Deli Zone","phone":"(303) 485-1600","price":"$","reviewCount":31,"reviewScore":3,"meta":{"revision":0,"created":1547531155699,"version":0},"$loki":212},{"_id":"5c3d65bd3525a329e0c12193","address":"1100 Ken Pratt Blvd Ste A","location":{"type":"Point","coordinates":[-105.113927,40.1528021]},"isApproved":true,"items":[],"keys":["Chicken Wings"],"lastUpdated":1547527612663,"name":"Wingstop","phone":"(303) 684-9464","price":"","reviewCount":13,"reviewScore":3,"meta":{"revision":0,"created":1547531155699,"version":0},"$loki":213},{"_id":"5c3d65bd3525a329e0c197dd","address":"1100 Ken Pratt Blvd","location":{"type":"Point","coordinates":[-105.1110492,40.1528333]},"isApproved":true,"items":[],"keys":["Mexican","Fast Food"],"lastUpdated":1547527612842,"name":"Chipotle Mexican Grill","phone":"(303) 651-6763","price":"$","reviewCount":19,"reviewScore":3,"meta":{"revision":0,"created":1547531155699,"version":0},"$loki":214},{"_id":"5c3d65bd3525a329e0c13e0a","address":"736 Main St","location":{"type":"Point","coordinates":[-105.11094962963,40.15274]},"isApproved":true,"items":[],"keys":["Chinese"],"lastUpdated":1547527612706,"name":"Tasty Asia","phone":"(303) 772-6888","price":"$","reviewCount":89,"reviewScore":3.5,"meta":{"revision":0,"created":1547531155699,"version":0},"$loki":215},{"_id":"5c3d65bd3525a329e0c18176","address":"2720 Council Tree Ave","location":{"type":"Point","coordinates":[-105.1102727,40.1536013]},"isApproved":true,"items":[],"keys":["Fast Food","Mexican"],"lastUpdated":1547527612809,"name":"QDOBA Mexican Eats","phone":"(970) 377-0155","price":"$","reviewCount":7,"reviewScore":3,"meta":{"revision":0,"created":1547531155699,"version":0},"$loki":216},{"_id":"5c3d65bd3525a329e0c06fb6","address":"2715 17th St","location":{"type":"Point","coordinates":[-105.1034871,40.1517492]},"isApproved":true,"items":[],"keys":["Bars","Beer Gardens","Burgers"],"lastUpdated":1547527612388,"name":"Recess Beer Garden","phone":"(720) 638-0020","price":"$$","reviewCount":221,"reviewScore":4,"meta":{"revision":0,"created":1547531155699,"version":0},"$loki":217},{"_id":"5c3d65bd3525a329e0c0e001","address":"637 S Broadway St","location":{"type":"Point","coordinates":[-105.1034871,40.1517492]},"isApproved":true,"items":[],"keys":["Sandwiches"],"lastUpdated":1547527612564,"name":"Snarf’s Sandwiches","phone":"(303) 444-7714","price":"$","reviewCount":20,"reviewScore":4,"meta":{"revision":0,"created":1547531155699,"version":0},"$loki":218},{"_id":"5c3d65bd3525a329e0c08d51","address":"623 Ken Pratt Blvd","location":{"type":"Point","coordinates":[-105.103708038571,40.1521804895911]},"isApproved":true,"items":[],"keys":["American (Traditional)","Breakfast & Brunch","Bakeries"],"lastUpdated":1547527612437,"name":"Goodfella’s Restaurant & Bakery","phone":"(303) 485-7000","price":"$","reviewCount":61,"reviewScore":3.5,"meta":{"revision":0,"created":1547531155699,"version":0},"$loki":219},{"_id":"5c3d65bd3525a329e0c07ea0","address":"790 16th St","location":{"type":"Point","coordinates":[-105.1038777,40.1520526]},"isApproved":true,"items":[],"keys":["Vietnamese"],"lastUpdated":1547527612417,"name":"Banh Me","phone":"(714) 293-6490","price":"","reviewCount":4,"reviewScore":4,"meta":{"revision":0,"created":1547531155699,"version":0},"$loki":220},{"_id":"5c3d65bd3525a329e0c12564","address":"5 Grand County Rd","location":{"type":"Point","coordinates":[-105.1038777,40.1520526]},"isApproved":true,"items":[],"keys":["Mexican"],"lastUpdated":1547527612670,"name":"Azteca Family Mexican Restaruant","phone":"(970) 726-4145","price":"$$","reviewCount":86,"reviewScore":3.5,"meta":{"revision":0,"created":1547531155699,"version":0},"$loki":221},{"_id":"5c3d65bd3525a329e0c0baa0","address":"827 Ken Pratt Blvd","location":{"type":"Point","coordinates":[-105.106913624021,40.1517483039877]},"isApproved":true,"items":[],"keys":["Mexican"],"lastUpdated":1547527612508,"name":"Guacamole’s Elohim Taqueria Mexican Food","phone":"(303) 772-0074","price":"","reviewCount":2,"reviewScore":3.5,"meta":{"revision":0,"created":1547531155699,"version":0},"$loki":222},{"_id":"5c3d65bd3525a329e0c00571","address":"950 Elgin Ave","location":{"type":"Point","coordinates":[-105.1079353,40.153794]},"isApproved":true,"items":[],"keys":["Diners","Cafes"],"lastUpdated":1547527612227,"name":"Mama’s Cafe","phone":"(720) 340-4409","price":"$","reviewCount":18,"reviewScore":3.5,"meta":{"revision":0,"created":1547531155699,"version":0},"$loki":223},{"_id":"5c3d65bd3525a329e0c094bb","address":"451 S Pratt Pkwy","location":{"type":"Point","coordinates":[-105.10740481317,40.1536430377618]},"isApproved":true,"items":[],"keys":["Mexican","Seafood","Soup"],"lastUpdated":1547527612453,"name":"Tequila’s Family Mexican Restaurant","phone":"(720) 494-0777","price":"$$","reviewCount":20,"reviewScore":3.5,"meta":{"revision":0,"created":1547531155699,"version":0},"$loki":224},{"_id":"5c3d65bd3525a329e0c007b1","address":"1709 W Eisenhower Blvd","location":{"type":"Point","coordinates":[-105.1042086,40.153677]},"isApproved":true,"items":[],"keys":["Sandwiches","Fast Food"],"lastUpdated":1547527612228,"name":"Subway","phone":"(970) 663-7883","price":"","reviewCount":3,"reviewScore":2.5,"meta":{"revision":0,"created":1547531155699,"version":0},"$loki":225},{"_id":"5c3d65bd3525a329e0c0bfc3","address":"700 Ken Pratt Blvd","location":{"type":"Point","coordinates":[-105.1044585,40.1534422]},"isApproved":true,"items":[],"keys":["Grocery","Delis","Health Markets"],"lastUpdated":1547527612516,"name":"Lucky’s Market","phone":"(303) 827-3684","price":"$$","reviewCount":41,"reviewScore":4,"meta":{"revision":0,"created":1547531155699,"version":0},"$loki":226},{"_id":"5c3d65bd3525a329e0c12e92","address":"199 S Main St","location":{"type":"Point","coordinates":[-105.105421319604,40.1532207239554]},"isApproved":true,"items":[],"keys":["Mexican","Seafood","Bars"],"lastUpdated":1547527612687,"name":"Las Palmeras Mexican Restaurant","phone":"(303) 848-0103","price":"$$","reviewCount":74,"reviewScore":4,"meta":{"revision":0,"created":1547531155699,"version":0},"$loki":227},{"_id":"5c3d65bd3525a329e0c12ebd","address":"245 S Main","location":{"type":"Point","coordinates":[-105.103172878744,40.1535238280664]},"isApproved":true,"items":[],"keys":["Fast Food","Burgers","Coffee & Tea"],"lastUpdated":1547527612687,"name":"McDonald’s","phone":"(303) 776-9383","price":"$","reviewCount":20,"reviewScore":2,"meta":{"revision":0,"created":1547531155699,"version":0},"$loki":228},{"_id":"5c3d65bd3525a329e0c036e0","address":"4330 State Hwy 66","location":{"type":"Point","coordinates":[-105.1029887,40.1550967]},"isApproved":true,"items":[],"keys":["Comfort Food","Breakfast & Brunch"],"lastUpdated":1547527612304,"name":"Red Rooster Restaurant","phone":"(970) 535-0889","price":"$","reviewCount":53,"reviewScore":4,"meta":{"revision":0,"created":1547531155699,"version":0},"$loki":229},{"_id":"5c3d65bd3525a329e0c18d5e","address":"33 S Main St","location":{"type":"Point","coordinates":[-105.1029414,40.1585059]},"isApproved":true,"items":[],"keys":["Mexican","Coffee & Tea"],"lastUpdated":1547527612830,"name":"Santa Fe Coffee & Burrito","phone":"(303) 996-1010","price":"$","reviewCount":43,"reviewScore":4,"meta":{"revision":0,"created":1547531155699,"version":0},"$loki":230},{"_id":"5c3d65bd3525a329e0c163e6","address":"1100 13th St","location":{"type":"Point","coordinates":[-105.1073617,40.1608307]},"isApproved":true,"items":[],"keys":["Sandwiches","Salad","American (New)"],"lastUpdated":1547527612764,"name":"The Corner","phone":"(720) 398-8331","price":"$$","reviewCount":82,"reviewScore":3.5,"meta":{"revision":0,"created":1547531155699,"version":0},"$loki":231},{"_id":"5c3d65bd3525a329e0c192b1","address":"2515 Tunnell Rd","location":{"type":"Point","coordinates":[-105.1073617,40.1608307]},"isApproved":true,"items":[],"keys":["Cafes"],"lastUpdated":1547527612833,"name":"Rustic Cafe","phone":"(970) 586-4444","price":"","reviewCount":4,"reviewScore":1,"meta":{"revision":0,"created":1547531155699,"version":0},"$loki":232},{"_id":"5c3d65bd3525a329e0c0fec4","address":"103 Main St","location":{"type":"Point","coordinates":[-105.1029186,40.1605615]},"isApproved":true,"items":[],"keys":["Specialty Food","French","Gift Shops"],"lastUpdated":1547527612609,"name":"Cheese Importers","phone":"(303) 772-9599","price":"$$","reviewCount":312,"reviewScore":4.5,"meta":{"revision":0,"created":1547531155699,"version":0},"$loki":233},{"_id":"5c3d65bd3525a329e0c1050a","address":"215 Main St","location":{"type":"Point","coordinates":[-105.1030099,40.162504]},"isApproved":true,"items":[],"keys":["Mexican"],"lastUpdated":1547527612618,"name":"Santiago’s Mexican Restaurant","phone":"(303) 772-1169","price":"$","reviewCount":79,"reviewScore":3.5,"meta":{"revision":0,"created":1547531155699,"version":0},"$loki":234},{"_id":"5c3d65bd3525a329e0c0677e","address":"249 Main St","location":{"type":"Point","coordinates":[-105.102644,40.1636818]},"isApproved":true,"items":[],"keys":["Coffee & Tea","Books, Mags, Music & Video","Cafes"],"lastUpdated":1547527612378,"name":"Inspirations Christian Store/ I-Cafe","phone":"(720) 340-4404","price":"","reviewCount":1,"reviewScore":5,"meta":{"revision":0,"created":1547531155699,"version":0},"$loki":235},{"_id":"5c3d65bd3525a329e0c0e62c","address":"301 Main St","location":{"type":"Point","coordinates":[-105.1027359,40.1641823]},"isApproved":true,"items":[],"keys":["Chinese"],"lastUpdated":1547527612574,"name":"China Panda Cafe","phone":"(303) 678-8882","price":"$$","reviewCount":71,"reviewScore":4,"meta":{"revision":0,"created":1547531155699,"version":0},"$loki":236},{"_id":"5c3d65bd3525a329e0c0a5fe","address":"331 Main St","location":{"type":"Point","coordinates":[-105.102699,40.1645909]},"isApproved":true,"items":[],"keys":["Gluten-Free","Bakeries","Desserts"],"lastUpdated":1547527612481,"name":"Aime’s Love","phone":"(720) 340-4636","price":"$$","reviewCount":37,"reviewScore":4,"meta":{"revision":0,"created":1547531155699,"version":0},"$loki":237},{"_id":"5c3d65bd3525a329e0c13995","address":"332 Main St","location":{"type":"Point","coordinates":[-105.1021878,40.1646462]},"isApproved":true,"items":[],"keys":["Mexican"],"lastUpdated":1547527612698,"name":"Abuelita’s Empanadas","phone":"(720) 218-9808","price":"","reviewCount":1,"reviewScore":5,"meta":{"revision":0,"created":1547531155699,"version":0},"$loki":238},{"_id":"5c3d65bd3525a329e0c148dc","address":"338 Main St","location":{"type":"Point","coordinates":[-105.1021878,40.1646462]},"isApproved":true,"items":[],"keys":["Mexican"],"lastUpdated":1547527612727,"name":"Deli Cioso Downtown","phone":"(303) 776-8511","price":"$","reviewCount":15,"reviewScore":4,"meta":{"revision":0,"created":1547531155699,"version":0},"$loki":239},{"_id":"5c3d65bd3525a329e0c09e54","address":"135 Parry Peak Way","location":{"type":"Point","coordinates":[-105.102285499965,40.164643096747]},"isApproved":true,"items":[],"keys":["Mexican"],"lastUpdated":1547527612471,"name":"Lime Winter Park","phone":"(970) 726-5463","price":"$$","reviewCount":93,"reviewScore":3,"meta":{"revision":0,"created":1547531155699,"version":0},"$loki":240},{"_id":"5c3d65bd3525a329e0c0e657","address":"7519 Grandview Ave","location":{"type":"Point","coordinates":[-105.1021329,40.164143]},"isApproved":true,"items":[],"keys":["Beer Bar","American (Traditional)"],"lastUpdated":1547527612574,"name":"Kline’s Beer Hall","phone":"(303) 351-7938","price":"$$","reviewCount":133,"reviewScore":4.5,"meta":{"revision":0,"created":1547531155699,"version":0},"$loki":241},{"_id":"5c3d65bd3525a329e0c10408","address":"","location":{"type":"Point","coordinates":[-105.1021329,40.164143]},"isApproved":true,"items":[],"keys":["Food Stands"],"lastUpdated":1547527612618,"name":"Tacos Al Vapor","phone":"","price":"$","reviewCount":5,"reviewScore":4.5,"meta":{"revision":0,"created":1547531155699,"version":0},"$loki":242},{"_id":"5c3d65bd3525a329e0c1b596","address":"","location":{"type":"Point","coordinates":[-105.1022334,40.1628027]},"isApproved":true,"items":[],"keys":["Food Stands"],"lastUpdated":1547527612886,"name":"Joe’s Coffee","phone":"(303) 992-0343","price":"","reviewCount":1,"reviewScore":5,"meta":{"revision":0,"created":1547531155699,"version":0},"$loki":243},{"_id":"5c3d65bd3525a329e0c1b09f","address":"1602 E Eisenhower Blvd","location":{"type":"Point","coordinates":[-105.1002309,40.1636113]},"isApproved":true,"items":[],"keys":["Fish & Chips","American (Traditional)","Bars"],"lastUpdated":1547527612877,"name":"McGraff’s American Grill","phone":"(970) 669-8847","price":"$$","reviewCount":85,"reviewScore":3.5,"meta":{"revision":0,"created":1547531155699,"version":0},"$loki":244},{"_id":"5c3d65bd3525a329e0c0e3e7","address":"237 Collyer St","location":{"type":"Point","coordinates":[-105.0985565,40.1630767]},"isApproved":true,"items":[],"keys":["Barbeque","American (Traditional)"],"lastUpdated":1547527612572,"name":"Georgia Boys BBQ - Longmont","phone":"(720) 999-4099","price":"$$","reviewCount":485,"reviewScore":4.5,"meta":{"revision":0,"created":1547531155699,"version":0},"$loki":245},{"_id":"5c3d65bd3525a329e0c01062","address":"155 E Ken Pratt Blvd","location":{"type":"Point","coordinates":[-105.091655,40.151743]},"isApproved":true,"items":[],"keys":["Chinese","Fast Food"],"lastUpdated":1547527612238,"name":"Panda Express","phone":"(303) 776-6907","price":"","reviewCount":13,"reviewScore":1,"meta":{"revision":0,"created":1547531155699,"version":0},"$loki":246},{"_id":"5c3d65bd3525a329e0c15df7","address":"15 Ken Pratt Blvd","location":{"type":"Point","coordinates":[-105.093320296867,40.1518379900127]},"isApproved":true,"items":[],"keys":["Japanese","Asian Fusion","Sushi Bars"],"lastUpdated":1547527612755,"name":"Tokyo Joe’s","phone":"(720) 684-4159","price":"$$","reviewCount":42,"reviewScore":2.5,"meta":{"revision":0,"created":1547531155699,"version":0},"$loki":247},{"_id":"5c3d65bd3525a329e0c17870","address":"2301 Clover Basin Dr","location":{"type":"Point","coordinates":[-105.093263623053,40.1517212995552]},"isApproved":true,"items":[],"keys":["Mexican","Fast Food"],"lastUpdated":1547527612792,"name":"QDOBA Mexican Eats","phone":"(303) 651-0258","price":"$","reviewCount":20,"reviewScore":3,"meta":{"revision":0,"created":1547531155699,"version":0},"$loki":248},{"_id":"5c3d65bd3525a329e0c11266","address":"15 Ken Pratt Blvd","location":{"type":"Point","coordinates":[-105.09349822998,40.1521397280672]},"isApproved":true,"items":[],"keys":["Coffee & Tea","Juice Bars & Smoothies","Sandwiches"],"lastUpdated":1547527612642,"name":"Red Frog Coffee","phone":"(303) 772-7209","price":"$","reviewCount":91,"reviewScore":4.5,"meta":{"revision":0,"created":1547531155699,"version":0},"$loki":249},{"_id":"5c3d65bd3525a329e0c04b9e","address":"48 Ken Pratt Blvd","location":{"type":"Point","coordinates":[-105.0948745,40.1529509]},"isApproved":true,"items":[],"keys":["Mexican","Fast Food"],"lastUpdated":1547527612331,"name":"Cafe Rio","phone":"(720) 518-2170","price":"$","reviewCount":37,"reviewScore":3,"meta":{"revision":0,"created":1547531155699,"version":0},"$loki":250},{"_id":"5c3d65bd3525a329e0c17e48","address":"1945 N Main St","location":{"type":"Point","coordinates":[-105.0942631,40.1530524]},"isApproved":true,"items":[],"keys":["Ice Cream & Frozen Yogurt","Fast Food"],"lastUpdated":1547527612801,"name":"Dairy Queen","phone":"(303) 776-6552","price":"$","reviewCount":5,"reviewScore":3,"meta":{"revision":0,"created":1547531155699,"version":0},"$loki":251},{"_id":"5c3d65bd3525a329e0c08d7b","address":"33 E Ken Pratt Blvd","location":{"type":"Point","coordinates":[-105.094339,40.15293]},"isApproved":true,"items":[],"keys":["Fast Food","Mexican"],"lastUpdated":1547527612437,"name":"Taco Bell","phone":"(303) 776-0376","price":"","reviewCount":6,"reviewScore":1,"meta":{"revision":0,"created":1547531155699,"version":0},"$loki":252},{"_id":"5c3d65bd3525a329e0c0ad9b","address":"125 Ken Pratt Blvd","location":{"type":"Point","coordinates":[-105.094423,40.1519131]},"isApproved":true,"items":[],"keys":["Bars","American (Traditional)"],"lastUpdated":1547527612490,"name":"TGI Fridays","phone":"(303) 485-8004","price":"$$","reviewCount":45,"reviewScore":3,"meta":{"revision":0,"created":1547531155699,"version":0},"$loki":253},{"_id":"5c3d65bd3525a329e0c073c0","address":"5209 W Mississippi Ave","location":{"type":"Point","coordinates":[-105.0937835,40.1519236]},"isApproved":true,"items":[],"keys":["Mexican"],"lastUpdated":1547527612399,"name":"Alameda Burrito","phone":"(303) 238-0285","price":"$","reviewCount":106,"reviewScore":4.5,"meta":{"revision":0,"created":1547531155699,"version":0},"$loki":254},{"_id":"5c3d65bd3525a329e0c0b733","address":"401 Zerex St","location":{"type":"Point","coordinates":[-105.0937835,40.1519236]},"isApproved":true,"items":[],"keys":["Bars","American (New)"],"lastUpdated":1547527612505,"name":"Crooked Creek Saloon","phone":"(970) 726-9250","price":"$$","reviewCount":75,"reviewScore":3.5,"meta":{"revision":0,"created":1547531155699,"version":0},"$loki":255},{"_id":"5c3d65bd3525a329e0c13eb2","address":"15 Ken Pratt Blvd","location":{"type":"Point","coordinates":[-105.0937835,40.1519236]},