{"filename":"-105.75-40.25","collections":[{"name":"restaurants","data":[{"_id":"5c3d65bd3525a329e0c02d86","address":"12311 N St Vrain Dr","location":{"type":"Point","coordinates":[-105.359315,40.274403]},"isApproved":true,"items":[],"keys":["Specialty Food","Desserts","Breakfast & Brunch"],"lastUpdated":1547527612294,"name":"Colorado Cherry Company","phone":"(303) 823-2324","price":"$","reviewCount":69,"reviewScore":4.5,"meta":{"revision":0,"created":1547531153356,"version":0},"$loki":1},{"_id":"5c3d65bd3525a329e0c13ce5","address":"401 E Elkhorn Ave","location":{"type":"Point","coordinates":[-105.359315,40.274403]},"isApproved":true,"items":[],"keys":["Tex-Mex","Mexican","Fast Food"],"lastUpdated":1547527612705,"name":"Peppers Mexican Grill","phone":"(970) 577-0032","price":"$","reviewCount":202,"reviewScore":4,"meta":{"revision":0,"created":1547531153356,"version":0},"$loki":2},{"_id":"5c3d65bd3525a329e0c05426","address":"1617 Miner St","location":{"type":"Point","coordinates":[-105.3599415,40.2737736]},"isApproved":true,"items":[],"keys":["Breweries","American (Traditional)"],"lastUpdated":1547527612347,"name":"Westbound & Down Brewing Company","phone":"(720) 502-3121","price":"$$","reviewCount":332,"reviewScore":4.5,"meta":{"revision":0,"created":1547531153356,"version":0},"$loki":3},{"_id":"5c3d65bd3525a329e0c1a77f","address":"11953 State Hwy 7","location":{"type":"Point","coordinates":[-105.5302534,40.2345389]},"isApproved":true,"items":[],"keys":["Hotels","Horseback Riding","Diners"],"lastUpdated":1547527612866,"name":"Lane Guest Ranch","phone":"(303) 747-2493","price":"","reviewCount":3,"reviewScore":3,"meta":{"revision":0,"created":1547531153356,"version":0},"$loki":4},{"_id":"5c3d65bd3525a329e0c16df5","address":"12650 W 64th Ave","location":{"type":"Point","coordinates":[-105.53136227424,40.3378366010728]},"isApproved":true,"items":[],"keys":["Middle Eastern","Mediterranean"],"lastUpdated":1547527612780,"name":"Sultan Grill","phone":"(303) 463-5333","price":"$$","reviewCount":113,"reviewScore":3.5,"meta":{"revision":0,"created":1547531153356,"version":0},"$loki":5},{"_id":"5c3d65bd3525a329e0c016ba","address":"4900 S Hwy","location":{"type":"Point","coordinates":[-105.534113,40.308549]},"isApproved":true,"items":[],"keys":["Soup","Salad","Vegetarian"],"lastUpdated":1547527612250,"name":"The Baldpate Inn Restaurant","phone":"(970) 586-5397","price":"","reviewCount":21,"reviewScore":2,"meta":{"revision":0,"created":1547531153356,"version":0},"$loki":6},{"_id":"5c3d65bd3525a329e0c08464","address":"2525 Arapahoe Ave","location":{"type":"Point","coordinates":[-105.566154,40.3403702]},"isApproved":true,"items":[],"keys":["Chicken Shop"],"lastUpdated":1547527612426,"name":"Yellowbelly","phone":"(303) 532-4596","price":"$","reviewCount":116,"reviewScore":3.5,"meta":{"revision":0,"created":1547531153356,"version":0},"$loki":7},{"_id":"5c3d65bd3525a329e0c17e5b","address":"915 Moraine Ave","location":{"type":"Point","coordinates":[-105.553550720215,40.3618168476428]},"isApproved":true,"items":[],"keys":["American (New)"],"lastUpdated":1547527612801,"name":"Bird & Jim","phone":"(970) 586-9832","price":"$$","reviewCount":251,"reviewScore":4.5,"meta":{"revision":0,"created":1547531153356,"version":0},"$loki":8},{"_id":"5c3d65bd3525a329e0bffb30","address":"2805 Colorado Blvd","location":{"type":"Point","coordinates":[-105.5682987,40.3494575]},"isApproved":true,"items":[],"keys":["Breakfast & Brunch","American (Traditional)"],"lastUpdated":1547527612220,"name":"Marion’s of the Rockies","phone":"(303) 567-2925","price":"$","reviewCount":128,"reviewScore":4,"meta":{"revision":0,"created":1547531153356,"version":0},"$loki":9},{"_id":"5c3d65bd3525a329e0c0eaf7","address":"189/191 E Riverside Dr","location":{"type":"Point","coordinates":[-105.5473915,40.383697]},"isApproved":true,"items":[],"keys":["Tiki Bars","Hot Dogs"],"lastUpdated":1547527612581,"name":"Mountain Munchies Tiki Bar","phone":"(970) 577-0555","price":"$","reviewCount":33,"reviewScore":4,"meta":{"revision":0,"created":1547531153356,"version":0},"$loki":10},{"_id":"5c3d65bd3525a329e0c14440","address":"600 W Elkhorn Ave","location":{"type":"Point","coordinates":[-105.5342366,40.3774132]},"isApproved":true,"items":[],"keys":["Performing Arts","Music Venues","Barbeque"],"lastUpdated":1547527612714,"name":"Lazy B Chuckwagon and Show","phone":"(970) 235-9400","price":"$$","reviewCount":20,"reviewScore":4.5,"meta":{"revision":0,"created":1547531153356,"version":0},"$loki":11},{"_id":"5c3d65bd3525a329e0c0564f","address":"401 W Elkhorn Ave","location":{"type":"Point","coordinates":[-105.5286161,40.3765978]},"isApproved":true,"items":[],"keys":["American (Traditional)"],"lastUpdated":1547527612348,"name":"Big Horn Restaurant","phone":"(970) 586-2792","price":"$$","reviewCount":160,"reviewScore":3.5,"meta":{"revision":0,"created":1547531153356,"version":0},"$loki":12},{"_id":"5c3d65bd3525a329e0c180b9","address":"247 W Elkhorn Ave","location":{"type":"Point","coordinates":[-105.5259717,40.3762893]},"isApproved":true,"items":[],"keys":["American (Traditional)","Pubs"],"lastUpdated":1547527612803,"name":"Wapiti Colorado Pub","phone":"(970) 586-5056","price":"$$","reviewCount":322,"reviewScore":3.5,"meta":{"revision":0,"created":1547531153356,"version":0},"$loki":13},{"_id":"5c3d65bd3525a329e0c13212","address":"157 W Elkhorn Ave","location":{"type":"Point","coordinates":[-105.525005,40.376315]},"isApproved":true,"items":[],"keys":["American (Traditional)"],"lastUpdated":1547527612689,"name":"The Wild Rose Food & Spirits","phone":"(970) 586-2806","price":"$$","reviewCount":180,"reviewScore":2.5,"meta":{"revision":0,"created":1547531153356,"version":0},"$loki":14},{"_id":"5c3d65bd3525a329e0c02289","address":"134 W Elkhorn Ave","location":{"type":"Point","coordinates":[-105.5244949,40.3759179]},"isApproved":true,"items":[],"keys":["Steakhouses","American (Traditional)","Cocktail Bars"],"lastUpdated":1547527612276,"name":"The Grubsteak Restaurant","phone":"(970) 586-8838","price":"$$","reviewCount":339,"reviewScore":3,"meta":{"revision":0,"created":1547531153356,"version":0},"$loki":15},{"_id":"5c3d65bd3525a329e0c033ae","address":"124 W Elkhorn Ave","location":{"type":"Point","coordinates":[-105.5243012,40.375928]},"isApproved":true,"items":[],"keys":["Pizza"],"lastUpdated":1547527612302,"name":"Bob & Tony’s Pizza","phone":"(970) 586-2044","price":"$$","reviewCount":134,"reviewScore":2.5,"meta":{"revision":0,"created":1547531153356,"version":0},"$loki":16},{"_id":"5c3d65bd3525a329e0c092ef","address":"4550 Main St","location":{"type":"Point","coordinates":[-105.5295494,40.3699136]},"isApproved":true,"items":[],"keys":["Mediterranean","Sandwiches","Greek"],"lastUpdated":1547527612452,"name":"Zoes Kitchen","phone":"(303) 466-9658","price":"$$","reviewCount":56,"reviewScore":4,"meta":{"revision":0,"created":1547531153356,"version":0},"$loki":17},{"_id":"5c3d65bd3525a329e0c01007","address":"430 Prospect Village Dr","location":{"type":"Point","coordinates":[-105.5243118,40.3715078]},"isApproved":true,"items":[],"keys":["Italian"],"lastUpdated":1547527612238,"name":"Sweet Basilico Italian Cuisine","phone":"(970) 586-3899","price":"$$","reviewCount":169,"reviewScore":3.5,"meta":{"revision":0,"created":1547531153356,"version":0},"$loki":18},{"_id":"5c3d65bd3525a329e0c0316d","address":"165 Virginia Dr","location":{"type":"Point","coordinates":[-105.5243118,40.3715078]},"isApproved":true,"items":[],"keys":["Bars","Mexican"],"lastUpdated":1547527612296,"name":"La Cabana Mexican Bar & Grill","phone":"(970) 586-1156","price":"$$","reviewCount":147,"reviewScore":2.5,"meta":{"revision":0,"created":1547531153356,"version":0},"$loki":19},{"_id":"5c3d65bd3525a329e0c0a959","address":"531 Main St","location":{"type":"Point","coordinates":[-105.5411862,40.3652054]},"isApproved":true,"items":[],"keys":["Grocery","Cafes"],"lastUpdated":1547527612482,"name":"Gold Hill General Store","phone":"(303) 443-7724","price":"$","reviewCount":9,"reviewScore":4,"meta":{"revision":0,"created":1547531153356,"version":0},"$loki":20},{"_id":"5c3d65bd3525a329e0c0c193","address":"1535 Pearl St","location":{"type":"Point","coordinates":[-105.5450813,40.3643717]},"isApproved":true,"items":[],"keys":["Pubs","Burgers","Breweries"],"lastUpdated":1547527612517,"name":"Mountain Sun Pub & Brewery","phone":"(303) 546-0886","price":"$$","reviewCount":1334,"reviewScore":4.5,"meta":{"revision":0,"created":1547531153356,"version":0},"$loki":21},{"_id":"5c3d65bd3525a329e0c046bd","address":"78930 US Hwy 40","location":{"type":"Point","coordinates":[-105.5442774,40.3646449]},"isApproved":true,"items":[],"keys":["Mexican","Bars"],"lastUpdated":1547527612329,"name":"Casa Mexico","phone":"(970) 726-9674","price":"$$","reviewCount":218,"reviewScore":4,"meta":{"revision":0,"created":1547531153356,"version":0},"$loki":22},{"_id":"5c3d65bd3525a329e0c0e5af","address":"860 Moraine Ave","location":{"type":"Point","coordinates":[-105.5407042,40.3646471]},"isApproved":true,"items":[],"keys":["Burgers","Fast Food","American (Traditional)"],"lastUpdated":1547527612573,"name":"Fresh Burger Stop","phone":"(970) 480-1492","price":"$","reviewCount":37,"reviewScore":4.5,"meta":{"revision":0,"created":1547531153356,"version":0},"$loki":23},{"_id":"5c3d65bd3525a329e0c1b559","address":"1560 Big Thompson Ave","location":{"type":"Point","coordinates":[-105.5407042,40.3646471]},"isApproved":true,"items":[],"keys":["Pizza","Italian"],"lastUpdated":1547527612886,"name":"Antonios Real New York Pizza","phone":"(970) 586-7275","price":"$$","reviewCount":497,"reviewScore":4.5,"meta":{"revision":0,"created":1547531153356,"version":0},"$loki":24},{"_id":"5c3d65bd3525a329e0c06b45","address":"78491 Hwy 40","location":{"type":"Point","coordinates":[-105.53925,40.365316]},"isApproved":true,"items":[],"keys":["American (Traditional)","Breweries","Pizza"],"lastUpdated":1547527612385,"name":"The Peak Bistro & Brewery","phone":"(970) 726-7951","price":"$$","reviewCount":127,"reviewScore":4,"meta":{"revision":0,"created":1547531153356,"version":0},"$loki":25},{"_id":"5c3d65bd3525a329e0c000bc","address":"816 Dunraven St","location":{"type":"Point","coordinates":[-105.5100703,40.3728832]},"isApproved":true,"items":[],"keys":["Barbeque","Sandwiches"],"lastUpdated":1547527612224,"name":"Trail Ridge","phone":"(970) 586-3097","price":"$$","reviewCount":5,"reviewScore":4,"meta":{"revision":0,"created":1547531153356,"version":0},"$loki":26},{"_id":"5c3d65bd3525a329e0c0ce97","address":"2845 28th St","location":{"type":"Point","coordinates":[-105.5074618,40.3724186]},"isApproved":true,"items":[],"keys":["Mexican","Bars","Breakfast & Brunch"],"lastUpdated":1547527612534,"name":"Red Agave Tequileria Cantina and Calaca Bar","phone":"(303) 444-2922","price":"","reviewCount":32,"reviewScore":4.5,"meta":{"revision":0,"created":1547531153356,"version":0},"$loki":27},{"_id":"5c3d65bd3525a329e0c05cab","address":"401 S Saint Vrain Ave","location":{"type":"Point","coordinates":[-105.507142,40.3719729]},"isApproved":true,"items":[],"keys":["American (New)"],"lastUpdated":1547527612357,"name":"Mountain Restaurant","phone":"","price":"","reviewCount":1,"reviewScore":1,"meta":{"revision":0,"created":1547531153356,"version":0},"$loki":28},{"_id":"5c3d65bd3525a329e0c0c4da","address":"51 Erie Pkwy","location":{"type":"Point","coordinates":[-105.5068208,40.3713362]},"isApproved":true,"items":[],"keys":["Mexican"],"lastUpdated":1547527612524,"name":"La Casona Del Mariachi","phone":"(720) 398-8434","price":"$$","reviewCount":58,"reviewScore":3,"meta":{"revision":0,"created":1547531153356,"version":0},"$loki":29},{"_id":"5c3d65bd3525a329e0c10a06","address":"2018 Broadway","location":{"type":"Point","coordinates":[-105.523359,40.3702168]},"isApproved":true,"items":[],"keys":["Japanese","Cafes","Himalayan/Nepalese"],"lastUpdated":1547527612631,"name":"Fuji Cafe and Bar","phone":"(720) 420-9050","price":"$","reviewCount":69,"reviewScore":4,"meta":{"revision":0,"created":1547531153356,"version":0},"$loki":30},{"_id":"5c3d65bd3525a329e0c07479","address":"390 W Riverside Dr","location":{"type":"Point","coordinates":[-105.5229489,40.3718277]},"isApproved":true,"items":[],"keys":["Chicken Wings","Burgers","Breakfast & Brunch"],"lastUpdated":1547527612400,"name":"Two Chicks Wings And Henhouse Eatery","phone":"(970) 308-3030","price":"$$","reviewCount":48,"reviewScore":4.5,"meta":{"revision":0,"created":1547531153356,"version":0},"$loki":31},{"_id":"5c3d65bd3525a329e0c086a6","address":"225 W Riverside Dr","location":{"type":"Point","coordinates":[-105.5230936,40.3744258]},"isApproved":true,"items":[],"keys":["Vietnamese","Thai"],"lastUpdated":1547527612427,"name":"Cafe de Pho-Thai","phone":"(970) 577-0682","price":"$$","reviewCount":267,"reviewScore":4,"meta":{"revision":0,"created":1547531153356,"version":0},"$loki":32},{"_id":"5c3d65bd3525a329e0c05e77","address":"200 Moraine Ave","location":{"type":"Point","coordinates":[-105.523378,40.3747766]},"isApproved":true,"items":[],"keys":["American (Traditional)","Sandwiches"],"lastUpdated":1547527612362,"name":"Molly B Restaurant","phone":"(970) 586-2766","price":"$$","reviewCount":90,"reviewScore":2.5,"meta":{"revision":0,"created":1547531153356,"version":0},"$loki":33},{"_id":"5c3d65bd3525a329e0c05b6d","address":"150 E Elkhorn Ave","location":{"type":"Point","coordinates":[-105.5228136,40.3749825]},"isApproved":true,"items":[],"keys":["Coffee & Tea","Bakeries","Sandwiches"],"lastUpdated":1547527612356,"name":"Inkwell & Brew","phone":"(970) 342-1297","price":"$","reviewCount":102,"reviewScore":4.5,"meta":{"revision":0,"created":1547531153356,"version":0},"$loki":34},{"_id":"5c3d65bd3525a329e0c133d4","address":"184 E Elkhorn Ave","location":{"type":"Point","coordinates":[-105.521547,40.37628]},"isApproved":true,"items":[],"keys":["Fast Food","Sandwiches"],"lastUpdated":1547527612690,"name":"Subway","phone":"(970) 586-5023","price":"$$","reviewCount":8,"reviewScore":2,"meta":{"revision":0,"created":1547531153356,"version":0},"$loki":35},{"_id":"5c3d65bd3525a329e0c0c6a5","address":"110 W Elkhorn Ave","location":{"type":"Point","coordinates":[-105.523914322257,40.375914782906]},"isApproved":true,"items":[],"keys":["Karaoke","American (Traditional)","Irish Pub"],"lastUpdated":1547527612525,"name":"Lonigan’s","phone":"(970) 586-4346","price":"$$","reviewCount":134,"reviewScore":3,"meta":{"revision":0,"created":1547531153356,"version":0},"$loki":36},{"_id":"5c3d65bd3525a329e0c16b25","address":"116 E Elkhorn Ave","location":{"type":"Point","coordinates":[-105.5230145,40.3760666]},"isApproved":true,"items":[],"keys":["Beer Gardens","Pubs","Wraps"],"lastUpdated":1547527612773,"name":"The Slab","phone":"(970) 586-8904","price":"$","reviewCount":9,"reviewScore":2.5,"meta":{"revision":0,"created":1547531153356,"version":0},"$loki":37},{"_id":"5c3d65bd3525a329e0c1509e","address":"459 E Wonder View Ave","location":{"type":"Point","coordinates":[-105.523849516309,40.3764552240788]},"isApproved":true,"items":[],"keys":["Breakfast & Brunch","Bakeries","Vegan"],"lastUpdated":1547527612736,"name":"Notchtop Bakery & Cafe","phone":"(970) 586-0272","price":"$$","reviewCount":555,"reviewScore":4,"meta":{"revision":0,"created":1547531153356,"version":0},"$loki":38},{"_id":"5c3d65bd3525a329e0c1b408","address":"153 E Elkhorn Ave","location":{"type":"Point","coordinates":[-105.5224831,40.3766216]},"isApproved":true,"items":[],"keys":["Pizza","American (New)","Burgers"],"lastUpdated":1547527612885,"name":"Local’s Grill","phone":"(970) 586-6900","price":"$","reviewCount":98,"reviewScore":2.5,"meta":{"revision":0,"created":1547531153356,"version":0},"$loki":39},{"_id":"5c3d65bd3525a329e0c156c4","address":"210 E Elkhorn Ave","location":{"type":"Point","coordinates":[-105.5212019,40.3767188]},"isApproved":true,"items":[],"keys":["Mexican"],"lastUpdated":1547527612746,"name":"Casa Grande Mexican Restaurant","phone":"(970) 577-0799","price":"$$","reviewCount":172,"reviewScore":2.5,"meta":{"revision":0,"created":1547531153356,"version":0},"$loki":40},{"_id":"5c3d65bd3525a329e0c18e92","address":"101 South Saint Vrain Ave","location":{"type":"Point","coordinates":[-105.521717705547,40.3774514835717]},"isApproved":true,"items":[],"keys":["Breakfast & Brunch","Burgers","American (Traditional)"],"lastUpdated":1547527612831,"name":"Latitude 105","phone":"(970) 586-2332","price":"$$","reviewCount":209,"reviewScore":4,"meta":{"revision":0,"created":1547531153356,"version":0},"$loki":41},{"_id":"5c3d65bd3525a329e0c00035","address":"333 E Wonder View Ave","location":{"type":"Point","coordinates":[-105.5195043,40.3767598]},"isApproved":true,"items":[],"keys":["American (New)"],"lastUpdated":1547527612223,"name":"Cascades Restaurant & Lounge","phone":"(970) 577-4001","price":"$$","reviewCount":383,"reviewScore":3,"meta":{"revision":0,"created":1547531153356,"version":0},"$loki":42},{"_id":"5c3d65bd3525a329e0c0828b","address":"229 W Elkhorn Ave","location":{"type":"Point","coordinates":[-105.5191634,40.3768765]},"isApproved":true,"items":[],"keys":["American (Traditional)"],"lastUpdated":1547527612420,"name":"Penelope’s Old Time Burgers","phone":"(970) 586-2277","price":"$$","reviewCount":164,"reviewScore":3,"meta":{"revision":0,"created":1547531153356,"version":0},"$loki":43},{"_id":"5c3d65bd3525a329e0c00c3e","address":"7468 Co Rd 43","location":{"type":"Point","coordinates":[-105.517667406048,40.3782615383701]},"isApproved":true,"items":[],"keys":["Bed & Breakfast","American (Traditional)","Venues & Event Spaces"],"lastUpdated":1547527612231,"name":"The Inn of Glen Haven","phone":"(970) 586-4696","price":"$$$","reviewCount":5,"reviewScore":5,"meta":{"revision":0,"created":1547531153356,"version":0},"$loki":44},{"_id":"5c3d65bd3525a329e0c187ff","address":"338 E Elkhorn Ave","location":{"type":"Point","coordinates":[-105.517103282802,40.3772649609484]},"isApproved":true,"items":[],"keys":["Italian","Bars"],"lastUpdated":1547527612821,"name":"Mama Rose’s","phone":"(970) 586-3330","price":"$$","reviewCount":220,"reviewScore":3,"meta":{"revision":0,"created":1547531153356,"version":0},"$loki":45},{"_id":"5c3d65bd3525a329e0c049ba","address":"509 Big Thompson Ave","location":{"type":"Point","coordinates":[-105.5162798,40.3783813]},"isApproved":true,"items":[],"keys":["Bakeries","American (Traditional)","Breakfast & Brunch"],"lastUpdated":1547527612331,"name":"Estes Park Pie Shop & Bakery","phone":"(970) 577-7437","price":"$","reviewCount":177,"reviewScore":4,"meta":{"revision":0,"created":1547531153356,"version":0},"$loki":46},{"_id":"5c3d65bd3525a329e0c03975","address":"541 Big Thompson Ave","location":{"type":"Point","coordinates":[-105.5150638,40.3798625]},"isApproved":true,"items":[],"keys":["Mexican"],"lastUpdated":1547527612310,"name":"La Esmeralda Tamale House","phone":"(970) 313-7655","price":"","reviewCount":4,"reviewScore":5,"meta":{"revision":0,"created":1547531153356,"version":0},"$loki":47},{"_id":"5c3d65bd3525a329e0c10418","address":"543 Big Thompson Ave","location":{"type":"Point","coordinates":[-105.5147918,40.3799714]},"isApproved":true,"items":[],"keys":["Pizza"],"lastUpdated":1547527612618,"name":"Village Pizza","phone":"(970) 577-1300","price":"$$","reviewCount":160,"reviewScore":3.5,"meta":{"revision":0,"created":1547531153356,"version":0},"$loki":48},{"_id":"5c3d65bd3525a329e0c07cd7","address":"517 Big Thompson Ave","location":{"type":"Point","coordinates":[-105.516069366689,40.3793552807676]},"isApproved":true,"items":[],"keys":["Fast Food","Sandwiches"],"lastUpdated":1547527612411,"name":"Subway","phone":"(970) 577-7744","price":"$$","reviewCount":14,"reviewScore":2.5,"meta":{"revision":0,"created":1547531153356,"version":0},"$loki":49},{"_id":"5c3d65bd3525a329e0c1b565","address":"501 Big Thompson Ave","location":{"type":"Point","coordinates":[-105.516582263876,40.3786329505717]},"isApproved":true,"items":[],"keys":["Fast Food","Burgers","Coffee & Tea"],"lastUpdated":1547527612886,"name":"McDonald’s","phone":"(970) 586-3434","price":"$","reviewCount":28,"reviewScore":2.5,"meta":{"revision":0,"created":1547531153356,"version":0},"$loki":50},{"_id":"5c3d65bd3525a329e0c01e52","address":"225 Park Ln","location":{"type":"Point","coordinates":[-105.521423,40.377921]},"isApproved":true,"items":[],"keys":["American (New)","Breakfast & Brunch","Venues & Event Spaces"],"lastUpdated":1547527612260,"name":"Claire’s On the Park","phone":"(970) 586-9564","price":"$$","reviewCount":447,"reviewScore":4,"meta":{"revision":0,"created":1547531153356,"version":0},"$loki":51},{"_id":"5c3d65bd3525a329e0c196d4","address":"1700 Big Thompson Ave","location":{"type":"Point","coordinates":[-105.519456,40.382929]},"isApproved":true,"items":[],"keys":["American (Traditional)","Bars"],"lastUpdated":1547527612841,"name":"The Waterfront Grille","phone":"(970) 577-6400","price":"$$$","reviewCount":70,"reviewScore":3,"meta":{"revision":0,"created":1547531153356,"version":0},"$loki":52},{"_id":"5c3d65bd3525a329e0c051b4","address":"333 Wonderview Ave","location":{"type":"Point","coordinates":[-105.518995,40.382956]},"isApproved":true,"items":[],"keys":["American (New)","Diners","Lounges"],"lastUpdated":1547527612340,"name":"Table - A Culinary Journey","phone":"(970) 577-4160","price":"$$$$","reviewCount":7,"reviewScore":4.5,"meta":{"revision":0,"created":1547531153356,"version":0},"$loki":53},{"_id":"5c3d65bd3525a329e0c01d49","address":"1480 Golf Course Rd","location":{"type":"Point","coordinates":[-105.4982195,40.3616189]},"isApproved":true,"items":[],"keys":["Barbeque","American (Traditional)","American (New)"],"lastUpdated":1547527612259,"name":"Smokin’ Dave’s BBQ at The Hangar - Temp. CLOSED","phone":"(970) 586-8146","price":"$$","reviewCount":28,"reviewScore":4,"meta":{"revision":0,"created":1547531153356,"version":0},"$loki":54},{"_id":"5c3d65bd3525a329e0c126f1","address":"101 Elkhorn Ave","location":{"type":"Point","coordinates":[-105.449303649366,40.4530027121523]},"isApproved":true,"items":[],"keys":["Indian","Himalayan/Nepalese"],"lastUpdated":1547527612671,"name":"Himalayan Curry & Kebob","phone":"(970) 586-6226","price":"$$","reviewCount":289,"reviewScore":4,"meta":{"revision":0,"created":1547531153356,"version":0},"$loki":55},{"_id":"5c3d65bd3525a329e0c16291","address":"3450 Fall River Rd","location":{"type":"Point","coordinates":[-105.5872632,40.4018008]},"isApproved":true,"items":[],"keys":["American (Traditional)","Breakfast & Brunch","Sandwiches"],"lastUpdated":1547527612763,"name":"Trailhead Restaurant","phone":"(970) 577-0043","price":"$$","reviewCount":42,"reviewScore":3,"meta":{"revision":0,"created":1547531153356,"version":0},"$loki":56},{"_id":"5c3d65bd3525a329e0c1ad02","address":"10188 US Hwy 34","location":{"type":"Point","coordinates":[-105.8711868,40.1967042]},"isApproved":true,"items":[],"keys":["American (Traditional)","Bars"],"lastUpdated":1547527612875,"name":"Roadhouse Bar & Grill","phone":"(970) 627-9300","price":"$$","reviewCount":32,"reviewScore":3.5,"meta":{"revision":0,"created":1547531153356,"version":0},"$loki":57},{"_id":"5c3d65bd3525a329e0c10f24","address":"200 W Portal Rd","location":{"type":"Point","coordinates":[-105.8338459,40.2523456]},"isApproved":true,"items":[],"keys":["American (New)","Tapas/Small Plates","Wine Bars"],"lastUpdated":1547527612640,"name":"O-a Bistro","phone":"(970) 627-5080","price":"$$","reviewCount":84,"reviewScore":4,"meta":{"revision":0,"created":1547531153356,"version":0},"$loki":58},{"_id":"5c3d65bd3525a329e0bffa39","address":"78707 US Hwy 40","location":{"type":"Point","coordinates":[-105.8380835,40.2563198]},"isApproved":true,"items":[],"keys":["Asian Fusion","Fish & Chips","Bars"],"lastUpdated":1547527612220,"name":"Pepe Osaka’s Fishtaco","phone":"(970) 726-7159","price":"$$","reviewCount":325,"reviewScore":4.5,"meta":{"revision":0,"created":1547531153356,"version":0},"$loki":59},{"_id":"5c3d65bd3525a329e0c06747","address":"4910 Nautilus Ct N","location":{"type":"Point","coordinates":[-105.815205,40.252133]},"isApproved":true,"items":[],"keys":["Breweries","Barbeque","American (Traditional)"],"lastUpdated":1547527612378,"name":"Avery Brewing","phone":"(720) 773-9817","price":"$$","reviewCount":725,"reviewScore":4.5,"meta":{"revision":0,"created":1547531153356,"version":0},"$loki":60},{"_id":"5c3d65bd3525a329e0c004e9","address":"2600 Canyon Blvd","location":{"type":"Point","coordinates":[-105.8172422,40.251477]},"isApproved":true,"items":[],"keys":["Breakfast & Brunch","Salad","Soup"],"lastUpdated":1547527612226,"name":"The Buff Restaurant","phone":"(303) 442-9150","price":"$$","reviewCount":1170,"reviewScore":4.5,"meta":{"revision":0,"created":1547531153356,"version":0},"$loki":61},{"_id":"5c3d65bd3525a329e0c0866e","address":"457 E Wonderview Ave","location":{"type":"Point","coordinates":[-105.816989,40.251428]},"isApproved":true,"items":[],"keys":["American (Traditional)","Breakfast & Brunch","Mexican"],"lastUpdated":1547527612427,"name":"Mountain Home Cafe","phone":"(970) 586-6624","price":"$","reviewCount":296,"reviewScore":4,"meta":{"revision":0,"created":1547531153356,"version":0},"$loki":62},{"_id":"5c3d65bd3525a329e0c0c8af","address":"2860 E Harmony Rd","location":{"type":"Point","coordinates":[-105.816989,40.251428]},"isApproved":true,"items":[],"keys":["Pizza"],"lastUpdated":1547527612526,"name":"Urban Bricks","phone":"(970) 449-1111","price":"","reviewCount":19,"reviewScore":4,"meta":{"revision":0,"created":1547531153356,"version":0},"$loki":63},{"_id":"5c3d65bd3525a329e0c0e3a8","address":"2470 State Hwy 66","location":{"type":"Point","coordinates":[-105.816989,40.251428]},"isApproved":true,"items":[],"keys":["Italian","Bars","Seafood"],"lastUpdated":1547527612572,"name":"The Dunraven Inn","phone":"(970) 586-6409","price":"$$","reviewCount":323,"reviewScore":4,"meta":{"revision":0,"created":1547531153356,"version":0},"$loki":64},{"_id":"5c3d65bd3525a329e0c12558","address":"1450 Fall River Dr","location":{"type":"Point","coordinates":[-105.816989,40.251428]},"isApproved":true,"items":[],"keys":["Breakfast & Brunch","American (Traditional)","French"],"lastUpdated":1547527612670,"name":"Mimi’s Cafe","phone":"(970) 461-9888","price":"$$","reviewCount":79,"reviewScore":2.5,"meta":{"revision":0,"created":1547531153356,"version":0},"$loki":65},{"_id":"5c3d65bd3525a329e0c17230","address":"470 E Elkhorn Ave","location":{"type":"Point","coordinates":[-105.816989,40.251428]},"isApproved":true,"items":[],"keys":["Coffee & Tea","Breakfast & Brunch","Sandwiches"],"lastUpdated":1547527612783,"name":"Kind Coffee","phone":"(970) 586-5206","price":"$","reviewCount":272,"reviewScore":4.5,"meta":{"revision":0,"created":1547531153356,"version":0},"$loki":66},{"_id":"5c3d65bd3525a329e0c1953a","address":"1569 Fall River Dr","location":{"type":"Point","coordinates":[-105.816989,40.251428]},"isApproved":true,"items":[],"keys":["Asian Fusion","Japanese","Sushi Bars"],"lastUpdated":1547527612840,"name":"Kobe Sushi","phone":"(970) 622-8383","price":"$$","reviewCount":81,"reviewScore":4,"meta":{"revision":0,"created":1547531153356,"version":0},"$loki":67},{"_id":"5c3d65bd3525a329e0c0632b","address":"225 Ken Pratt Blvd","location":{"type":"Point","coordinates":[-105.8171505,40.2509446]},"isApproved":true,"items":[],"keys":["Sushi Bars"],"lastUpdated":1547527612369,"name":"Sumo","phone":"(303) 684-8866","price":"$$","reviewCount":64,"reviewScore":4.5,"meta":{"revision":0,"created":1547531153356,"version":0},"$loki":68},{"_id":"5c3d65bd3525a329e0c1599c","address":"2675 13th St","location":{"type":"Point","coordinates":[-105.816823281348,40.2497668211642]},"isApproved":true,"items":[],"keys":["Pizza"],"lastUpdated":1547527612747,"name":"Audrey Jane’s Pizza Garage","phone":"(303) 442-2032","price":"$","reviewCount":184,"reviewScore":4.5,"meta":{"revision":0,"created":1547531153356,"version":0},"$loki":69},{"_id":"5c3d65bd3525a329e0c0f546","address":"540 Main St","location":{"type":"Point","coordinates":[-105.820319946934,40.2517004737903]},"isApproved":true,"items":[],"keys":["Breweries","American (Traditional)","Burgers"],"lastUpdated":1547527612592,"name":"Pumphouse Brewery","phone":"(303) 702-0881","price":"$$","reviewCount":393,"reviewScore":4,"meta":{"revision":0,"created":1547531153356,"version":0},"$loki":70},{"_id":"5c3d65bd3525a329e0c0d80a","address":"1650 28th St","location":{"type":"Point","coordinates":[-105.819819601223,40.2514626830936]},"isApproved":true,"items":[],"keys":["Pizza"],"lastUpdated":1547527612554,"name":"PizzaRev","phone":"(303) 444-1122","price":"$","reviewCount":117,"reviewScore":4,"meta":{"revision":0,"created":1547531153356,"version":0},"$loki":71},{"_id":"5c3d65bd3525a329e0c05b17","address":"228 Main St","location":{"type":"Point","coordinates":[-105.819546,40.2513903]},"isApproved":true,"items":[],"keys":["Barbeque","Bars"],"lastUpdated":1547527612356,"name":"Smokin Dave’s BBQ- Lyons","phone":"(303) 823-7427","price":"$$","reviewCount":145,"reviewScore":4,"meta":{"revision":0,"created":1547531153356,"version":0},"$loki":72},{"_id":"5c3d65bd3525a329e0c0290c","address":"441 Business Hwy 7","location":{"type":"Point","coordinates":[-105.8177009,40.251488]},"isApproved":true,"items":[],"keys":["Breakfast & Brunch","Cafes","Burgers"],"lastUpdated":1547527612285,"name":"Meadow Mountain Cafe","phone":"(303) 747-2541","price":"$$","reviewCount":52,"reviewScore":4.5,"meta":{"revision":0,"created":1547531153356,"version":0},"$loki":73},{"_id":"5c3d65bd3525a329e0c06392","address":"6827 County Rd 51","location":{"type":"Point","coordinates":[-105.8184118,40.2508268]},"isApproved":true,"items":[],"keys":["American (Traditional)","Breakfast & Brunch"],"lastUpdated":1547527612369,"name":"Bistro 28","phone":"(970) 887-9797","price":"","reviewCount":6,"reviewScore":4.5,"meta":{"revision":0,"created":1547531153356,"version":0},"$loki":74},{"_id":"5c3d65bd3525a329e0c15b8c","address":"2055 Ken Pratt Blvd","location":{"type":"Point","coordinates":[-105.8206238,40.2519741]},"isApproved":true,"items":[],"keys":["Thai","Conveyor Belt Sushi","Noodles"],"lastUpdated":1547527612754,"name":"Jai Thai","phone":"(303) 776-8089","price":"$$","reviewCount":55,"reviewScore":4,"meta":{"revision":0,"created":1547531153356,"version":0},"$loki":75},{"_id":"5c3d65bd3525a329e0c0b338","address":"1617 Miner St","location":{"type":"Point","coordinates":[-105.8237209,40.252544]},"isApproved":true,"items":[],"keys":["Bars","American (Traditional)","Sandwiches"],"lastUpdated":1547527612498,"name":"Buffalo Restaurant & Bar","phone":"(720) 502-3121","price":"$$","reviewCount":131,"reviewScore":4,"meta":{"revision":0,"created":1547531153356,"version":0},"$loki":76},{"_id":"5c3d65bd3525a329e0c00880","address":"1222 Pearl St","location":{"type":"Point","coordinates":[-105.8267823,40.249209]},"isApproved":true,"items":[],"keys":["Cosmetics & Beauty Supply","Live/Raw Food"],"lastUpdated":1547527612228,"name":"savannah bee company","phone":"(303) 862-8073","price":"","reviewCount":7,"reviewScore":4.5,"meta":{"revision":0,"created":1547531153356,"version":0},"$loki":77},{"_id":"5c3d65bd3525a329e0c03c71","address":"17286 Hwy 119","location":{"type":"Point","coordinates":[-105.876813232899,40.1963374961403]},"isApproved":true,"items":[],"keys":["American (Traditional)","Sandwiches","Steakhouses"],"lastUpdated":1547527612312,"name":"Roy’s Last Shot","phone":"(303) 642-7870","price":"$$","reviewCount":47,"reviewScore":4,"meta":{"revision":0,"created":1547531153356,"version":0},"$loki":78},{"_id":"5c3d65bd3525a329e0c1076d","address":"625 Snapdragon Way","location":{"type":"Point","coordinates":[-106.1012431,40.0732085]},"isApproved":true,"items":[],"keys":["Fast Food","Chicken Wings","Chicken Shop"],"lastUpdated":1547527612619,"name":"KFC","phone":"(970) 879-7618","price":"$","reviewCount":3,"reviewScore":1.5,"meta":{"revision":0,"created":1547531153356,"version":0},"$loki":79},{"_id":"5c3d65bd3525a329e0c1969e","address":"1148 Pearl St","location":{"type":"Point","coordinates":[-106.1012431,40.0732085]},"isApproved":true,"items":[],"keys":["Ice Cream & Frozen Yogurt","Sandwiches"],"lastUpdated":1547527612841,"name":"Häagen-Dazs","phone":"(303) 443-9032","price":"$$","reviewCount":157,"reviewScore":4,"meta":{"revision":0,"created":1547531153356,"version":0},"$loki":80},{"_id":"5c3d65bd3525a329e0c193ec","address":"205 Park Ln","location":{"type":"Point","coordinates":[-105.898905918002,40.1664331864988]},"isApproved":true,"items":[],"keys":["American (New)"],"lastUpdated":1547527612840,"name":"Seasoned - An American Bistro","phone":"(970) 586-9000","price":"$$$","reviewCount":98,"reviewScore":5,"meta":{"revision":0,"created":1547531153356,"version":0},"$loki":81},{"_id":"5c3d65bd3525a329e0c1ad3f","address":"911 Moraine Ave","location":{"type":"Point","coordinates":[-105.898905918002,40.1664331864988]},"isApproved":true,"items":[],"keys":["Delis"],"lastUpdated":1547527612875,"name":"Scratch Deli and Bakery","phone":"(970) 586-8383","price":"$$","reviewCount":221,"reviewScore":4.5,"meta":{"revision":0,"created":1547531153356,"version":0},"$loki":82},{"_id":"5c3d65bd3525a329e0c0aa9e","address":"6732 US Hwy 34","location":{"type":"Point","coordinates":[-105.8950851,40.1608977]},"isApproved":true,"items":[],"keys":["Hotels","Italian"],"lastUpdated":1547527612489,"name":"Mustachio’s On The Lake","phone":"(970) 531-4002","price":"$$","reviewCount":53,"reviewScore":3.5,"meta":{"revision":0,"created":1547531153356,"version":0},"$loki":83},{"_id":"5c3d65bd3525a329e0bff45f","address":"1000 Village Rd","location":{"type":"Point","coordinates":[-105.9060255,40.0452241]},"isApproved":true,"items":[],"keys":["American (Traditional)"],"lastUpdated":1547527612216,"name":"Granby Ranch Grill","phone":"(970) 887-5200","price":"$$","reviewCount":27,"reviewScore":3.5,"meta":{"revision":0,"created":1547531153356,"version":0},"$loki":84},{"_id":"5c3d65bd3525a329e0c113df","address":"1739 Pearl St","location":{"type":"Point","coordinates":[-105.9232654,40.0622332]},"isApproved":true,"items":[],"keys":["French","Asian Fusion","Seafood"],"lastUpdated":1547527612642,"name":"L’Atelier","phone":"(303) 442-7233","price":"$$$","reviewCount":135,"reviewScore":4,"meta":{"revision":0,"created":1547531153356,"version":0},"$loki":85},{"_id":"5c3d65bd3525a329e0c08610","address":"645 Ken Pratt Blvd","location":{"type":"Point","coordinates":[-105.930145437703,40.0632855149233]},"isApproved":true,"items":[],"keys":["Sandwiches","Salad","Soup"],"lastUpdated":1547527612427,"name":"Snarf’s Sandwiches","phone":"(303) 774-1441","price":"$","reviewCount":71,"reviewScore":3.5,"meta":{"revision":0,"created":1547531153356,"version":0},"$loki":86},{"_id":"5c3d65bd3525a329e0c01362","address":"62801 US Hwy 40","location":{"type":"Point","coordinates":[-105.9242204,40.0679998]},"isApproved":true,"items":[],"keys":["Venues & Event Spaces","Golf","American (New)"],"lastUpdated":1547527612248,"name":"Grand Elk Ranch & Club","phone":"(970) 887-9122","price":"$$","reviewCount":14,"reviewScore":4.5,"meta":{"revision":0,"created":1547531153356,"version":0},"$loki":87},{"_id":"5c3d65bd3525a329e0c10bd9","address":"2426 Arapahoe Ave","location":{"type":"Point","coordinates":[-105.937067,40.0847927]},"isApproved":true,"items":[],"keys":["Greek"],"lastUpdated":1547527612632,"name":"Kalita Grill Greek Cafe","phone":"(303) 443-0596","price":"$$","reviewCount":110,"reviewScore":4.5,"meta":{"revision":0,"created":1547531153356,"version":0},"$loki":88},{"_id":"5c3d65bd3525a329e0bff767","address":"4580 Broadway St","location":{"type":"Point","coordinates":[-105.9355186,40.0848391]},"isApproved":true,"items":[],"keys":["American (New)","Bars"],"lastUpdated":1547527612218,"name":"The North End At 4580","phone":"(303) 448-1500","price":"$$","reviewCount":151,"reviewScore":3.5,"meta":{"revision":0,"created":1547531153356,"version":0},"$loki":89},{"_id":"5c3d65bd3525a329e0c19cd1","address":"39 County Rd 48","location":{"type":"Point","coordinates":[-105.936188958585,40.0847291499388]},"isApproved":true,"items":[],"keys":["American (Traditional)"],"lastUpdated":1547527612850,"name":"Sloopy’s Grill","phone":"(970) 627-8182","price":"$","reviewCount":56,"reviewScore":4,"meta":{"revision":0,"created":1547531153356,"version":0},"$loki":90},{"_id":"5c3d65bd3525a329e0c09610","address":"395 Agate Ave E","location":{"type":"Point","coordinates":[-105.9358972,40.085221]},"isApproved":true,"items":[],"keys":["Mexican"],"lastUpdated":1547527612454,"name":"Azteca Family Mexican Restaurant","phone":"(970) 557-3014","price":"$$","reviewCount":91,"reviewScore":4,"meta":{"revision":0,"created":1547531153356,"version":0},"$loki":91},{"_id":"5c3d65bd3525a329e0c0754d","address":"1690 Big Thompson Ave","location":{"type":"Point","coordinates":[-105.9406271,40.085440011096]},"isApproved":true,"items":[],"keys":["Steakhouses","Bars","Seafood"],"lastUpdated":1547527612400,"name":"Hunters Chophouse","phone":"(970) 586-6962","price":"$$","reviewCount":114,"reviewScore":3,"meta":{"revision":0,"created":1547531153356,"version":0},"$loki":92},{"_id":"5c3d65bd3525a329e0c181a4","address":"44365 Hwy 72","location":{"type":"Point","coordinates":[-105.9419438,40.0861214]},"isApproved":true,"items":[],"keys":["American (Traditional)"],"lastUpdated":1547527612809,"name":"Millsite Inn","phone":"(303) 459-3308","price":"$$","reviewCount":39,"reviewScore":3,"meta":{"revision":0,"created":1547531153356,"version":0},"$loki":93},{"_id":"5c3d65bd3525a329e0c0abaa","address":"715 Washington Ave","location":{"type":"Point","coordinates":[-105.9441926,40.0855316]},"isApproved":true,"items":[],"keys":["Mexican"],"lastUpdated":1547527612489,"name":"Xicamiti La Taquería Bistro","phone":"(303) 215-3436","price":"$","reviewCount":218,"reviewScore":5,"meta":{"revision":0,"created":1547531153356,"version":0},"$loki":94},{"_id":"5c3d65bd3525a329e0c11b3b","address":"663 W Agate Ave","location":{"type":"Point","coordinates":[-105.9516967,40.087696]},"isApproved":true,"items":[],"keys":["Chinese"],"lastUpdated":1547527612652,"name":"Pearl Dragon Restaurant","phone":"(970) 887-1777","price":"$$","reviewCount":127,"reviewScore":4.5,"meta":{"revision":0,"created":1547531153356,"version":0},"$loki":95},{"_id":"5c3d65bd3525a329e0c043cc","address":"1777 6th St","location":{"type":"Point","coordinates":[-105.928500435777,39.9881396001335]},"isApproved":true,"items":[],"keys":["Sandwiches"],"lastUpdated":1547527612321,"name":"Canyon Cafe","phone":"(303) 441-3131","price":"","reviewCount":1,"reviewScore":4,"meta":{"revision":0,"created":1547531153356,"version":0},"$loki":96},{"_id":"5c3d65bd3525a329e0c021a5","address":"2910 Colorado Blvd","location":{"type":"Point","coordinates":[-105.902789,39.984448]},"isApproved":true,"items":[],"keys":["American (Traditional)","Mexican","Seafood"],"lastUpdated":1547527612275,"name":"Wildfire Restaurant & Bar","phone":"(303) 567-2775","price":"$","reviewCount":111,"reviewScore":4,"meta":{"revision":0,"created":1547531153356,"version":0},"$loki":97},{"_id":"5c3d65bd3525a329e0c11da0","address":"6862 US Hwy 34","location":{"type":"Point","coordinates":[-105.844693,39.993217]},"isApproved":true,"items":[],"keys":["American (Traditional)"],"lastUpdated":1547527612661,"name":"Mackinaw Bar & Grill","phone":"(970) 887-9399","price":"$$","reviewCount":11,"reviewScore":3,"meta":{"revision":0,"created":1547531153356,"version":0},"$loki":98},{"_id":"5c3d65bd3525a329e0c07fce","address":"1600 Miner St","location":{"type":"Point","coordinates":[-105.843815,39.992781]},"isApproved":true,"items":[],"keys":["Steakhouses","American (Traditional)","Salad"],"lastUpdated":1547527612418,"name":"MTN Prime","phone":"(720) 428-8515","price":"$$","reviewCount":200,"reviewScore":4.5,"meta":{"revision":0,"created":1547531153356,"version":0},"$loki":99},{"_id":"5c3d65bd3525a329e0c103b9","address":"1121 Broadway","location":{"type":"Point","coordinates":[-105.783298686147,39.9680015692243]},"isApproved":true,"items":[],"keys":["Thai","Tapas/Small Plates"],"lastUpdated":1547527612617,"name":"Terra Thai","phone":"(303) 440-3559","price":"$","reviewCount":146,"reviewScore":4.5,"meta":{"revision":0,"created":1547531153356,"version":0},"$loki":100},{"_id":"5c3d65bd3525a329e0c05e60","address":"3530 County Rd 83","location":{"type":"Point","coordinates":[-105.783674,39.967175]},"isApproved":true,"items":[],"keys":["American (Traditional)","Steakhouses"],"lastUpdated":1547527612362,"name":"Ranch House Restaurant","phone":"(970) 726-5633","price":"$$$","reviewCount":19,"reviewScore":3.5,"meta":{"revision":0,"created":1547531153356,"version":0},"$loki":101},{"_id":"5c3d65bd3525a329e0c1006b","address":"406 Us-40","location":{"type":"Point","coordinates":[-105.8160705,39.9479888]},"isApproved":true,"items":[],"keys":["American (Traditional)","Burgers","Caribbean"],"lastUpdated":1547527612610,"name":"One Love Beach Bar & Grill","phone":"","price":"$","reviewCount":25,"reviewScore":4.5,"meta":{"revision":0,"created":1547531153356,"version":0},"$loki":102},{"_id":"5c3d65bd3525a329e0bff652","address":"420 E Park Ave","location":{"type":"Point","coordinates":[-105.816501,39.947834]},"isApproved":true,"items":[],"keys":["Breakfast & Brunch","Coffee & Tea"],"lastUpdated":1547527612217,"name":"Mountain Xpress Coffee Company","phone":"(303) 569-5004","price":"","reviewCount":10,"reviewScore":5,"meta":{"revision":0,"created":1547531153356,"version":0},"$loki":103},{"_id":"5c3d65bd3525a329e0c18c8a","address":"78415 US Hwy 40","location":{"type":"Point","coordinates":[-105.811054754055,39.9421285375688]},"isApproved":true,"items":[],"keys":["Food Trucks","Sandwiches","Burgers"],"lastUpdated":1547527612825,"name":"The Spot Grill Ullrs Tavern","phone":"(719) 238-6500","price":"$","reviewCount":9,"reviewScore":5,"meta":{"revision":0,"created":1547531153356,"version":0},"$loki":104},{"_id":"5c3d65bd3525a329e0c11c69","address":"1844 Hover St","location":{"type":"Point","coordinates":[-105.812009576721,39.9427413648691]},"isApproved":true,"items":[],"keys":["Sushi Bars"],"lastUpdated":1547527612660,"name":"Sushi Box","phone":"(303) 772-2995","price":"","reviewCount":1,"reviewScore":5,"meta":{"revision":0,"created":1547531153356,"version":0},"$loki":105},{"_id":"5c3d65bd3525a329e0c0fb83","address":"111 N Rubey Dr","location":{"type":"Point","coordinates":[-105.813166,39.944395]},"isApproved":true,"items":[],"keys":["American (New)","Beer Bar","Comfort Food"],"lastUpdated":1547527612601,"name":"Cast Iron Tavern","phone":"(303) 271-9315","price":"$$","reviewCount":118,"reviewScore":4,"meta":{"revision":0,"created":1547531153356,"version":0},"$loki":106},{"_id":"5c3d65bd3525a329e0c069a2","address":"2700 Colorado Blvd","location":{"type":"Point","coordinates":[-105.8155682,39.9460599]},"isApproved":true,"items":[],"keys":["Bars","Asian Fusion"],"lastUpdated":1547527612379,"name":"Eric’s Asian Cafe","phone":"(303) 567-1166","price":"$$","reviewCount":36,"reviewScore":4.5,"meta":{"revision":0,"created":1547531153356,"version":0},"$loki":107},{"_id":"5c3d65bd3525a329e0c15da1","address":"120 Main St","location":{"type":"Point","coordinates":[-105.810873,39.945333]},"isApproved":true,"items":[],"keys":["American (New)"],"lastUpdated":1547527612755,"name":"Gold Coin Saloon & Millie’s","phone":"(303) 582-5914","price":"$","reviewCount":20,"reviewScore":4,"meta":{"revision":0,"created":1547531153356,"version":0},"$loki":108},{"_id":"5c3d65bd3525a329e0c19ce5","address":"1221 Spruce St","location":{"type":"Point","coordinates":[-105.4100797,40.0631802]},"isApproved":true,"items":[],"keys":["Japanese"],"lastUpdated":1547527612850,"name":"Amu","phone":"(303) 440-0807","price":"$$$","reviewCount":201,"reviewScore":4.5,"meta":{"revision":0,"created":1547531153356,"version":0},"$loki":109},{"_id":"5c3d65bd3525a329e0c1576b","address":"78737 US Hwy 40","location":{"type":"Point","coordinates":[-105.4091417,40.0631706]},"isApproved":true,"items":[],"keys":["Distilleries","Tapas Bars"],"lastUpdated":1547527612746,"name":"Idlewild Spirits Distillery","phone":"(970) 281-5773","price":"$$","reviewCount":113,"reviewScore":5,"meta":{"revision":0,"created":1547531153356,"version":0},"$loki":110},{"_id":"5c3d65bd3525a329e0c086b7","address":"1 W 1st St","location":{"type":"Point","coordinates":[-105.5043255,40.0689214]},"isApproved":true,"items":[],"keys":["Bakeries","Sandwiches","Cafes"],"lastUpdated":1547527612427,"name":"New Moon Bakery and Cafe","phone":"(303) 258-3569","price":"$","reviewCount":106,"reviewScore":4.5,"meta":{"revision":0,"created":1547531153356,"version":0},"$loki":111},{"_id":"5c3d65bd3525a329e0c06a9a","address":"166 1/2 Eagle St","location":{"type":"Point","coordinates":[-105.522487126732,40.1939010509717]},"isApproved":true,"items":[],"keys":["Music Venues","Bars","American (Traditional)"],"lastUpdated":1547527612380,"name":"Mango’s Mountain Grill","phone":"(970) 827-9109","price":"$$","reviewCount":50,"reviewScore":4.5,"meta":{"revision":0,"created":1547531153356,"version":0},"$loki":112},{"_id":"5c3d65bd3525a329e0c1a14d","address":"121 N Jefferson St","location":{"type":"Point","coordinates":[-105.5256252,40.1946113]},"isApproved":true,"items":[],"keys":["American (Traditional)"],"lastUpdated":1547527612857,"name":"Ned’s","phone":"(303) 258-0614","price":"$$","reviewCount":33,"reviewScore":3.5,"meta":{"revision":0,"created":1547531153356,"version":0},"$loki":113},{"_id":"5c3d65bd3525a329e0c18db6","address":"15 E 1st St","location":{"type":"Point","coordinates":[-105.5026772,40.0787268]},"isApproved":true,"items":[],"keys":["American (Traditional)","Bars","Salad"],"lastUpdated":1547527612831,"name":"Pioneer Inn","phone":"(303) 258-7733","price":"$$","reviewCount":64,"reviewScore":4,"meta":{"revision":0,"created":1547531153356,"version":0},"$loki":114},{"_id":"5c3d65bd3525a329e0c19515","address":"184 E Elkhorn Ave","location":{"type":"Point","coordinates":[-105.5026772,40.0787268]},"isApproved":true,"items":[],"keys":["Indian","Himalayan/Nepalese"],"lastUpdated":1547527612840,"name":"Nepal’s Cafe","phone":"(970) 577-7035","price":"$$","reviewCount":532,"reviewScore":4,"meta":{"revision":0,"created":1547531153356,"version":0},"$loki":115},{"_id":"5c3d65bd3525a329e0c0c7ce","address":"9921 US Hwy 34","location":{"type":"Point","coordinates":[-105.3877112,40.1159191]},"isApproved":true,"items":[],"keys":["American (Traditional)","Bars","Pizza"],"lastUpdated":1547527612526,"name":"Stillwater Grill","phone":"(970) 627-4929","price":"$$","reviewCount":54,"reviewScore":4,"meta":{"revision":0,"created":1547531153356,"version":0},"$loki":116},{"_id":"5c3d65bd3525a329e0c0df92","address":"183 W Riverside Dr","location":{"type":"Point","coordinates":[-105.3877112,40.1159191]},"isApproved":true,"items":[],"keys":["Asian Fusion","Korean"],"lastUpdated":1547527612564,"name":"Oppa Asian Bistro","phone":"(970) 577-8888","price":"$","reviewCount":108,"reviewScore":4.5,"meta":{"revision":0,"created":1547531153356,"version":0},"$loki":117}],"idIndex":[1,2,3,4,5,6,7,8,9,10,11,12,13,14,15,16,17,18,19,20,21,22,23,24,25,26,27,28,29,30,31,32,33,34,35,36,37,38,39,40,41,42,43,44,45,46,47,48,49,50,51,52,53,54,55,56,57,58,59,60,61,62,63,64,65,66,67,68,69,70,71,72,73,74,75,76,77,78,79,80,81,82,83,84,85,86,87,88,89,90,91,92,93,94,95,96,97,98,99,100,101,102,103,104,105,106,107,108,109,110,111,112,113,114,115,116,117],"binaryIndices":{},"constraints":null,"uniqueNames":[],"transforms":{},"objType":"restaurants","dirty":true,"cachedIndex":null,"cachedBinaryIndex":null,"cachedData":null,"adaptiveBinaryIndices":true,"transactional":false,"cloneObjects":false,"cloneMethod":"parse-stringify","asyncListeners":false,"disableMeta":false,"disableChangesApi":true,"disableDeltaChangesApi":true,"autoupdate":false,"serializableIndices":true,"ttl":null,"maxId":117,"DynamicViews":[],"events":{"insert":[],"update":[],"pre-insert":[],"pre-update":[],"close":[],"flushbuffer":[],"error":[],"delete":[null],"warning":[null]},"changes":[]}],"databaseVersion":1.5,"engineVersion":1.5,"autosave":false,"autosaveInterval":5000,"autosaveHandle":null,"throttledSaves":true,"options":{"serializationMethod":"normal","destructureDelimiter":"$<\n"},"persistenceMethod":"fs","persistenceAdapter":null,"verbose":false,"events":{"init":[null],"loaded":[],"flushChanges":[],"close":[],"changes":[],"warning":[]},"ENV":"NODEJS"}