{"filename":"-106.25-32","collections":[{"name":"restaurants","data":[{"_id":"5c3d65bd3525a329e0c146b7","address":"207 E Mills Ave","location":{"type":"Point","coordinates":[-106.5431463,31.8052211]},"isApproved":true,"items":[],"keys":["American (New)"],"lastUpdated":1547527612716,"name":"Pike Street Market","phone":"(915) 545-1010","price":"$","reviewCount":27,"reviewScore":3.5,"meta":{"revision":0,"created":1547531155760,"version":0},"$loki":1},{"_id":"5c3d65bd3525a329e0c16022","address":"630 Sunland Park Dr","location":{"type":"Point","coordinates":[-106.5395659,31.819939]},"isApproved":true,"items":[],"keys":["Breakfast & Brunch"],"lastUpdated":1547527612756,"name":"D’Lox","phone":"(915) 760-4889","price":"$$","reviewCount":170,"reviewScore":4,"meta":{"revision":0,"created":1547531155760,"version":0},"$loki":2},{"_id":"5c3d65bd3525a329e0c13eff","address":"Paseo T de la Republica 5817","location":{"type":"Point","coordinates":[-106.552934,31.814382]},"isApproved":true,"items":[],"keys":["Restaurants"],"lastUpdated":1547527612706,"name":"Cantina Tabasco’s","phone":"656 616 2046","price":"$","reviewCount":1,"reviewScore":5,"meta":{"revision":0,"created":1547531155760,"version":0},"$loki":3},{"_id":"5c3d65bd3525a329e0c1605d","address":"Av. Paseo Triunfo de la República 4020","location":{"type":"Point","coordinates":[-106.5558412,31.8133105]},"isApproved":true,"items":[],"keys":["Cafeteria"],"lastUpdated":1547527612756,"name":"Café Único","phone":"","price":"$$","reviewCount":2,"reviewScore":4.5,"meta":{"revision":0,"created":1547531155760,"version":0},"$loki":4},{"_id":"5c3d65bd3525a329e0c03757","address":"667 N Carolina Dr","location":{"type":"Point","coordinates":[-106.5606399,31.8162986]},"isApproved":true,"items":[],"keys":["Mexican","Fast Food"],"lastUpdated":1547527612304,"name":"Lunch Box","phone":"(915) 593-8490","price":"$","reviewCount":55,"reviewScore":4,"meta":{"revision":0,"created":1547531155760,"version":0},"$loki":5},{"_id":"5c3d65bd3525a329e0c1007c","address":"255 Shadow Mountain","location":{"type":"Point","coordinates":[-106.565692321714,31.8338584420418]},"isApproved":true,"items":[],"keys":["Cafes","Bars","Vegan"],"lastUpdated":1547527612610,"name":"Eloise","phone":"(915) 581-2441","price":"$$","reviewCount":165,"reviewScore":4,"meta":{"revision":0,"created":1547531155760,"version":0},"$loki":6},{"_id":"5c3d65bd3525a329e0c14208","address":"2706 N Piedras St","location":{"type":"Point","coordinates":[-106.575717,31.836462]},"isApproved":true,"items":[],"keys":["Bars","American (Traditional)"],"lastUpdated":1547527612713,"name":"Lucky Boy Bar and Grill","phone":"(915) 301-1954","price":"$$","reviewCount":3,"reviewScore":3,"meta":{"revision":0,"created":1547531155760,"version":0},"$loki":7},{"_id":"5c3d65bd3525a329e0c0bd93","address":"145 W Sunset Rd","location":{"type":"Point","coordinates":[-106.575336049957,31.8361684261403]},"isApproved":true,"items":[],"keys":["American (New)","Breakfast & Brunch","Specialty Food"],"lastUpdated":1547527612515,"name":"Eat","phone":"(915) 249-5515","price":"","reviewCount":27,"reviewScore":4.5,"meta":{"revision":0,"created":1547531155760,"version":0},"$loki":8},{"_id":"5c3d65bd3525a329e0c14726","address":"204 Boston Ave","location":{"type":"Point","coordinates":[-106.574733937834,31.8359243317396]},"isApproved":true,"items":[],"keys":["Food Trucks","Ramen"],"lastUpdated":1547527612720,"name":"Kaedama","phone":"","price":"$","reviewCount":109,"reviewScore":4,"meta":{"revision":0,"created":1547531155760,"version":0},"$loki":9},{"_id":"5c3d65bd3525a329e0c00999","address":"Simona Barba 6415","location":{"type":"Point","coordinates":[-106.579396491263,31.8430341666496]},"isApproved":true,"items":[],"keys":["Argentine"],"lastUpdated":1547527612229,"name":"Cuartito Azul","phone":"656 623 6097","price":"$$","reviewCount":3,"reviewScore":3.5,"meta":{"revision":0,"created":1547531155760,"version":0},"$loki":10},{"_id":"5c3d65bd3525a329e0c10b41","address":"Av. Antonio J Bermudez 8770","location":{"type":"Point","coordinates":[-106.57406,31.8417274]},"isApproved":true,"items":[],"keys":["Vegetarian","Juice Bars & Smoothies"],"lastUpdated":1547527612632,"name":"El Mercadito","phone":"656 625 0515","price":"","reviewCount":6,"reviewScore":4,"meta":{"revision":0,"created":1547531155760,"version":0},"$loki":11},{"_id":"5c3d65bd3525a329e0c057ac","address":"5004 North Desert Blvd","location":{"type":"Point","coordinates":[-106.5759769,31.8390829]},"isApproved":true,"items":[],"keys":["Barbeque","Hawaiian","Asian Fusion"],"lastUpdated":1547527612349,"name":"Aloha Hawaiian Barbecue","phone":"(915) 585-8868","price":"$","reviewCount":58,"reviewScore":3.5,"meta":{"revision":0,"created":1547531155760,"version":0},"$loki":12},{"_id":"5c3d65bd3525a329e0c0b924","address":"2919 Pershing Dr","location":{"type":"Point","coordinates":[-106.5683972,31.8400184]},"isApproved":true,"items":[],"keys":["Mexican"],"lastUpdated":1547527612507,"name":"Dona Lupe Cafe","phone":"(915) 566-9833","price":"$","reviewCount":20,"reviewScore":4.5,"meta":{"revision":0,"created":1547531155760,"version":0},"$loki":13},{"_id":"5c3d65bd3525a329e0c06d93","address":"12370 Edgemere Blvd","location":{"type":"Point","coordinates":[-106.5684893,31.8404384]},"isApproved":true,"items":[],"keys":["Mexican"],"lastUpdated":1547527612387,"name":"Tony’s Barbacoa","phone":"(915) 307-4137","price":"","reviewCount":3,"reviewScore":5,"meta":{"revision":0,"created":1547531155760,"version":0},"$loki":14},{"_id":"5c3d65bd3525a329e0c0802e","address":"2900 N Mesa St","location":{"type":"Point","coordinates":[-106.56865606737,31.8409636046041]},"isApproved":true,"items":[],"keys":["Pizza","Desserts","Salad"],"lastUpdated":1547527612419,"name":"The Pizza Joint","phone":"(915) 533-4066","price":"$","reviewCount":107,"reviewScore":4,"meta":{"revision":0,"created":1547531155760,"version":0},"$loki":15},{"_id":"5c3d65bd3525a329e0c001c8","address":"7792 Franklin Dr","location":{"type":"Point","coordinates":[-106.5690417,31.8414023]},"isApproved":true,"items":[],"keys":["Bars","Mexican"],"lastUpdated":1547527612224,"name":"Paulinas Bad Lands","phone":"(915) 771-0997","price":"","reviewCount":2,"reviewScore":5,"meta":{"revision":0,"created":1547531155760,"version":0},"$loki":16},{"_id":"5c3d65bd3525a329e0c0ffe4","address":"9477 Dyer St","location":{"type":"Point","coordinates":[-106.567675,31.838657]},"isApproved":true,"items":[],"keys":["Korean"],"lastUpdated":1547527612609,"name":"Han Il Gwan Restaurant","phone":"(915) 759-7911","price":"$$","reviewCount":46,"reviewScore":4,"meta":{"revision":0,"created":1547531155760,"version":0},"$loki":17},{"_id":"5c3d65bd3525a329e0c138bb","address":"6999 Montana Ave","location":{"type":"Point","coordinates":[-106.5674764,31.835299]},"isApproved":true,"items":[],"keys":["American (Traditional)","Sports Bars"],"lastUpdated":1547527612698,"name":"Rockys Bordertown Cantina & Grill","phone":"(915) 304-1486","price":"","reviewCount":1,"reviewScore":5,"meta":{"revision":0,"created":1547531155760,"version":0},"$loki":18},{"_id":"5c3d65bd3525a329e0c08299","address":"1373 George Dieter Dr","location":{"type":"Point","coordinates":[-106.5643458,31.8377051]},"isApproved":true,"items":[],"keys":["Sandwiches","Fast Food","Salad"],"lastUpdated":1547527612420,"name":"Potbelly Sandwich Shop","phone":"(915) 590-2600","price":"$","reviewCount":33,"reviewScore":4,"meta":{"revision":0,"created":1547531155760,"version":0},"$loki":19},{"_id":"5c3d65bd3525a329e0c1371a","address":"5411 N Mesa St","location":{"type":"Point","coordinates":[-106.565226304107,31.8391662694034]},"isApproved":true,"items":[],"keys":["Juice Bars & Smoothies","American (Traditional)"],"lastUpdated":1547527612697,"name":"Phit Phuel","phone":"(915) 270-7912","price":"","reviewCount":3,"reviewScore":5,"meta":{"revision":0,"created":1547531155760,"version":0},"$loki":20},{"_id":"5c3d65bd3525a329e0c0bef8","address":"3023 Gateway Blvd W","location":{"type":"Point","coordinates":[-106.565198994196,31.8391629693862]},"isApproved":true,"items":[],"keys":["Italian"],"lastUpdated":1547527612515,"name":"Monteleone’s","phone":"(915) 566-4320","price":"$$","reviewCount":30,"reviewScore":4,"meta":{"revision":0,"created":1547531155760,"version":0},"$loki":21},{"_id":"5c3d65bd3525a329e0c16c34","address":"4172 N Mesa St","location":{"type":"Point","coordinates":[-106.563148498535,31.8387031555176]},"isApproved":true,"items":[],"keys":["Mexican"],"lastUpdated":1547527612774,"name":"Old Town Mexican Kitchen","phone":"(915) 304-2021","price":"$","reviewCount":11,"reviewScore":4.5,"meta":{"revision":0,"created":1547531155760,"version":0},"$loki":22},{"_id":"5c3d65bd3525a329e0c0b150","address":"5500 El Paso Dr","location":{"type":"Point","coordinates":[-106.561251193716,31.8361170227526]},"isApproved":true,"items":[],"keys":["Mexican","Breakfast & Brunch"],"lastUpdated":1547527612497,"name":"Santa Cecilia Restaurant","phone":"(915) 772-3435","price":"$","reviewCount":28,"reviewScore":3.5,"meta":{"revision":0,"created":1547531155760,"version":0},"$loki":23},{"_id":"5c3d65bd3525a329e0c07f04","address":"6215 Upper Valley Rd","location":{"type":"Point","coordinates":[-106.5485095,31.8364425]},"isApproved":true,"items":[],"keys":["Juice Bars & Smoothies","Desserts","Breakfast & Brunch"],"lastUpdated":1547527612417,"name":"B-Juice","phone":"(915) 239-6751","price":"$","reviewCount":20,"reviewScore":4.5,"meta":{"revision":0,"created":1547531155760,"version":0},"$loki":24},{"_id":"5c3d65bd3525a329e0c0e8ed","address":"9308 Dyer St","location":{"type":"Point","coordinates":[-106.552408815093,31.8368477090686]},"isApproved":true,"items":[],"keys":["Mexican"],"lastUpdated":1547527612575,"name":"Miriana’s","phone":"(915) 307-2758","price":"","reviewCount":1,"reviewScore":5,"meta":{"revision":0,"created":1547531155760,"version":0},"$loki":25},{"_id":"5c3d65bd3525a329e0c05eb4","address":"Av. Adolfo López Mateos 1145","location":{"type":"Point","coordinates":[-106.5523224,31.8365125]},"isApproved":true,"items":[],"keys":["Mexican"],"lastUpdated":1547527612367,"name":"Parador Tomochi","phone":"","price":"$$","reviewCount":5,"reviewScore":4.5,"meta":{"revision":0,"created":1547531155760,"version":0},"$loki":26},{"_id":"5c3d65bd3525a329e0c06c50","address":"Paseo Triunfo de la Republica 2220","location":{"type":"Point","coordinates":[-106.553850062191,31.8369118381412]},"isApproved":true,"items":[],"keys":["Seafood","Mexican","Soup"],"lastUpdated":1547527612386,"name":"Los Arcos","phone":"656 616 8608","price":"$$","reviewCount":11,"reviewScore":5,"meta":{"revision":0,"created":1547531155760,"version":0},"$loki":27},{"_id":"5c3d65bd3525a329e0c06c91","address":"8541 Alameda Ave","location":{"type":"Point","coordinates":[-106.5543265,31.8369084]},"isApproved":true,"items":[],"keys":["Mexican"],"lastUpdated":1547527612386,"name":"Super Elotes Richy’s","phone":"(915) 858-6977","price":"$","reviewCount":9,"reviewScore":5,"meta":{"revision":0,"created":1547531155760,"version":0},"$loki":28},{"_id":"5c3d65bd3525a329e0c13d23","address":"1501 N Zaragoza Rd","location":{"type":"Point","coordinates":[-106.554863931513,31.8371247744865]},"isApproved":true,"items":[],"keys":["Mexican","Steakhouses"],"lastUpdated":1547527612706,"name":"Corralito Steak House - Eastside","phone":"(915) 345-1133","price":"","reviewCount":16,"reviewScore":4,"meta":{"revision":0,"created":1547531155760,"version":0},"$loki":29},{"_id":"5c3d65bd3525a329e0c0b495","address":"9787 McCombs St","location":{"type":"Point","coordinates":[-106.552976,31.8354636]},"isApproved":true,"items":[],"keys":["Mexican"],"lastUpdated":1547527612499,"name":"Lo Rico del Pueblo","phone":"(915) 757-4712","price":"","reviewCount":3,"reviewScore":4.5,"meta":{"revision":0,"created":1547531155760,"version":0},"$loki":30},{"_id":"5c3d65bd3525a329e0c183a5","address":"2130 Myrtle Ave","location":{"type":"Point","coordinates":[-106.5487814,31.8349417]},"isApproved":true,"items":[],"keys":["Mexican","Breakfast & Brunch"],"lastUpdated":1547527612814,"name":"El Jacalito Restaurante","phone":"(915) 532-4643","price":"$","reviewCount":38,"reviewScore":4.5,"meta":{"revision":0,"created":1547531155760,"version":0},"$loki":31},{"_id":"5c3d65bd3525a329e0c10bf4","address":"6801 N Mesa St","location":{"type":"Point","coordinates":[-106.547316408132,31.8344092375509]},"isApproved":true,"items":[],"keys":["French"],"lastUpdated":1547527612632,"name":"La Madeleine French Country Cafe","phone":"(915) 845-9808","price":"$$","reviewCount":38,"reviewScore":3.5,"meta":{"revision":0,"created":1547531155760,"version":0},"$loki":32},{"_id":"5c3d65bd3525a329e0c10cb6","address":"8889 Gateway Blvd W","location":{"type":"Point","coordinates":[-106.5410061,31.8346309]},"isApproved":true,"items":[],"keys":["Sushi Bars","American (New)"],"lastUpdated":1547527612633,"name":"Kona Grill","phone":"(915) 249-3803","price":"$$","reviewCount":262,"reviewScore":3.5,"meta":{"revision":0,"created":1547531155760,"version":0},"$loki":33},{"_id":"5c3d65bd3525a329e0c00bca","address":"Av. de las Americas 133","location":{"type":"Point","coordinates":[-106.5431466,31.8337623]},"isApproved":true,"items":[],"keys":["Restaurants"],"lastUpdated":1547527612230,"name":"Shangri-la","phone":"656 613 3978","price":"$$$","reviewCount":3,"reviewScore":4,"meta":{"revision":0,"created":1547531155760,"version":0},"$loki":34},{"_id":"5c3d65bd3525a329e0c12ec8","address":"2000 N Lee Trevino Dr","location":{"type":"Point","coordinates":[-106.540685169046,31.8345210833513]},"isApproved":true,"items":[],"keys":["Japanese"],"lastUpdated":1547527612687,"name":"Riyoma","phone":"(915) 590-8220","price":"$$","reviewCount":59,"reviewScore":4,"meta":{"revision":0,"created":1547531155760,"version":0},"$loki":35},{"_id":"5c3d65bd3525a329e0c12d2b","address":"11531-11543 La Poblana Dr","location":{"type":"Point","coordinates":[-106.5466221,31.8586994]},"isApproved":true,"items":[],"keys":[],"lastUpdated":1547527612681,"name":"Cacique","phone":"","price":"","reviewCount":1,"reviewScore":3,"meta":{"revision":0,"created":1547531155760,"version":0},"$loki":36},{"_id":"5c3d65bd3525a329e0c19656","address":"4650 Woodrow Bean","location":{"type":"Point","coordinates":[-106.5466221,31.8586994]},"isApproved":true,"items":[],"keys":["Chicken Wings"],"lastUpdated":1547527612841,"name":"Wing It Wings And Things","phone":"(915) 757-0500","price":"$$","reviewCount":18,"reviewScore":3.5,"meta":{"revision":0,"created":1547531155760,"version":0},"$loki":37},{"_id":"5c3d65bd3525a329e0c1b19b","address":"910 E Redd Rd","location":{"type":"Point","coordinates":[-106.5466221,31.8586994]},"isApproved":true,"items":[],"keys":["Sushi Bars"],"lastUpdated":1547527612877,"name":"Sunny’s Sushi","phone":"(915) 842-9508","price":"$$","reviewCount":63,"reviewScore":4,"meta":{"revision":0,"created":1547531155760,"version":0},"$loki":38},{"_id":"5c3d65bd3525a329e0c00fb9","address":"631 N Resler Dr","location":{"type":"Point","coordinates":[-106.555026881397,31.8503681641384]},"isApproved":true,"items":[],"keys":["American (New)"],"lastUpdated":1547527612238,"name":"Crave Kitchen & Bar West","phone":"(915) 581-2213","price":"$$","reviewCount":131,"reviewScore":3,"meta":{"revision":0,"created":1547531155760,"version":0},"$loki":39},{"_id":"5c3d65bd3525a329e0c19020","address":"865 N Resler Dr","location":{"type":"Point","coordinates":[-106.5478893,31.8622124]},"isApproved":true,"items":[],"keys":["Cocktail Bars","Mexican","Seafood"],"lastUpdated":1547527612832,"name":"Little Shack","phone":"(915) 307-3205","price":"$","reviewCount":25,"reviewScore":4,"meta":{"revision":0,"created":1547531155760,"version":0},"$loki":40},{"_id":"5c3d65bd3525a329e0c0b3c6","address":"5850 North Mesa St","location":{"type":"Point","coordinates":[-106.547998300525,31.862460230872]},"isApproved":true,"items":[],"keys":["Pizza","Italian","Wine Bars"],"lastUpdated":1547527612498,"name":"MidiCi The Neapolitan Pizza Company","phone":"(915) 303-5055","price":"$$","reviewCount":141,"reviewScore":3.5,"meta":{"revision":0,"created":1547531155760,"version":0},"$loki":41},{"_id":"5c3d65bd3525a329e0bff45c","address":"910 E Redd Rd","location":{"type":"Point","coordinates":[-106.548313694443,31.8625310283593]},"isApproved":true,"items":[],"keys":["American (New)","Breakfast & Brunch","Vegetarian"],"lastUpdated":1547527612216,"name":"Ripe","phone":"(915) 584-7473","price":"$$","reviewCount":340,"reviewScore":4,"meta":{"revision":0,"created":1547531155760,"version":0},"$loki":42},{"_id":"5c3d65bd3525a329e0c133a5","address":"1506 N Lee Trevino Dr","location":{"type":"Point","coordinates":[-106.5562441,31.859481]},"isApproved":true,"items":[],"keys":["American (New)"],"lastUpdated":1547527612689,"name":"Geske’s Fire Grill","phone":"(915) 593-3473","price":"$$","reviewCount":114,"reviewScore":3,"meta":{"revision":0,"created":1547531155760,"version":0},"$loki":43},{"_id":"5c3d65bd3525a329e0c15906","address":"5320 Doniphan Dr","location":{"type":"Point","coordinates":[-106.578875742853,31.8870564798717]},"isApproved":true,"items":[],"keys":["Mexican"],"lastUpdated":1547527612747,"name":"Cafe Del Sol & Tortilleria Del SoL","phone":"(915) 346-1888","price":"","reviewCount":3,"reviewScore":4.5,"meta":{"revision":0,"created":1547531155760,"version":0},"$loki":44},{"_id":"5c3d65bd3525a329e0c09fad","address":"5198 Doniphan Dr","location":{"type":"Point","coordinates":[-106.579706,31.886809]},"isApproved":true,"items":[],"keys":["Mexican"],"lastUpdated":1547527612472,"name":"Flautas Tepalca","phone":"(915) 313-5056","price":"$$","reviewCount":28,"reviewScore":4.5,"meta":{"revision":0,"created":1547531155760,"version":0},"$loki":45},{"_id":"5c3d65bd3525a329e0c09499","address":"5034 Doniphan Dr","location":{"type":"Point","coordinates":[-106.581536,31.886248]},"isApproved":true,"items":[],"keys":["Sandwiches","American (New)","Venues & Event Spaces"],"lastUpdated":1547527612453,"name":"Magic Bistro","phone":"(915) 833-2121","price":"$$","reviewCount":47,"reviewScore":4.5,"meta":{"revision":0,"created":1547531155760,"version":0},"$loki":46},{"_id":"5c3d65bd3525a329e0c0d341","address":"4430 Montana Ave","location":{"type":"Point","coordinates":[-106.5584531,31.8629586]},"isApproved":true,"items":[],"keys":["Puerto Rican"],"lastUpdated":1547527612546,"name":"Sabor Boricua","phone":"(915) 313-4387","price":"$$","reviewCount":49,"reviewScore":4,"meta":{"revision":0,"created":1547531155760,"version":0},"$loki":47},{"_id":"5c3d65bd3525a329e0c10fe3","address":"4126 N Mesa St","location":{"type":"Point","coordinates":[-106.5586447,31.8618461]},"isApproved":true,"items":[],"keys":["Mediterranean"],"lastUpdated":1547527612640,"name":"Salma Farah’s Mediterranean","phone":"(915) 544-4404","price":"$$","reviewCount":71,"reviewScore":4,"meta":{"revision":0,"created":1547531155760,"version":0},"$loki":48},{"_id":"5c3d65bd3525a329e0c02b5a","address":"3314 Fort Blvd","location":{"type":"Point","coordinates":[-106.5588214,31.858414]},"isApproved":true,"items":[],"keys":["Mexican"],"lastUpdated":1547527612286,"name":"Delicious Mexican Eatery","phone":"(915) 566-1396","price":"$","reviewCount":62,"reviewScore":4,"meta":{"revision":0,"created":1547531155760,"version":0},"$loki":49},{"_id":"5c3d65bd3525a329e0c0b354","address":"4919 Hondo Pass Dr","location":{"type":"Point","coordinates":[-106.5811041,31.8461012]},"isApproved":true,"items":[],"keys":["Mexican","Sandwiches"],"lastUpdated":1547527612498,"name":"Tortas Y Mas","phone":"(915) 757-1445","price":"$","reviewCount":15,"reviewScore":4.5,"meta":{"revision":0,"created":1547531155760,"version":0},"$loki":50},{"_id":"5c3d65bd3525a329e0c03dbb","address":"1200 Country Club Rd","location":{"type":"Point","coordinates":[-106.5822322,31.8488721]},"isApproved":true,"items":[],"keys":["Salad","Wine Bars","Seafood"],"lastUpdated":1547527612313,"name":"Billy Crews","phone":"(575) 589-2071","price":"$$$","reviewCount":42,"reviewScore":3.5,"meta":{"revision":0,"created":1547531155760,"version":0},"$loki":51},{"_id":"5c3d65bd3525a329e0c0b60c","address":"6232 Montana Ave","location":{"type":"Point","coordinates":[-106.5833267,31.8522883]},"isApproved":true,"items":[],"keys":["Mexican"],"lastUpdated":1547527612499,"name":"Rainbow Fountain","phone":"(915) 779-7928","price":"$","reviewCount":28,"reviewScore":4.5,"meta":{"revision":0,"created":1547531155760,"version":0},"$loki":52},{"_id":"5c3d65bd3525a329e0c0fd00","address":"912 Texas Ave","location":{"type":"Point","coordinates":[-106.5833267,31.8522883]},"isApproved":true,"items":[],"keys":["American (Traditional)"],"lastUpdated":1547527612608,"name":"Texas St Cantina Grill","phone":"(915) 533-4849","price":"$","reviewCount":10,"reviewScore":3.5,"meta":{"revision":0,"created":1547531155760,"version":0},"$loki":53},{"_id":"5c3d65bd3525a329e0c0cfd2","address":"910 Texas Ave","location":{"type":"Point","coordinates":[-106.583395600319,31.8834702966408]},"isApproved":true,"items":[],"keys":["Mexican","Salad","Buffets"],"lastUpdated":1547527612539,"name":"El Encanto de Villa","phone":"(915) 259-0249","price":"$","reviewCount":7,"reviewScore":4,"meta":{"revision":0,"created":1547531155760,"version":0},"$loki":54},{"_id":"5c3d65bd3525a329e0c07665","address":"600 Valley Chili Rd","location":{"type":"Point","coordinates":[-106.583569,31.975097]},"isApproved":true,"items":[],"keys":["Steakhouses","Barbeque","Seafood"],"lastUpdated":1547527612402,"name":"Great American Steakhouse","phone":"(915) 886-4690","price":"$$","reviewCount":63,"reviewScore":3.5,"meta":{"revision":0,"created":1547531155760,"version":0},"$loki":55},{"_id":"5c3d65bd3525a329e0c071ba","address":"2725 N Mesa","location":{"type":"Point","coordinates":[-106.602950751623,31.9509949401955]},"isApproved":true,"items":[],"keys":["Steakhouses"],"lastUpdated":1547527612397,"name":"Corralito Steakhouse","phone":"(915) 533-8335","price":"$$$","reviewCount":64,"reviewScore":3.5,"meta":{"revision":0,"created":1547531155760,"version":0},"$loki":56},{"_id":"5c3d65bd3525a329e0c08d8b","address":"6874 Mexican Grill","location":{"type":"Point","coordinates":[-106.599250237017,31.900952625622]},"isApproved":true,"items":[],"keys":["Mexican","Steakhouses","Seafood"],"lastUpdated":1547527612437,"name":"Victorias Mexican Grill","phone":"(915) 243-7183","price":"$$","reviewCount":23,"reviewScore":4.5,"meta":{"revision":0,"created":1547531155760,"version":0},"$loki":57},{"_id":"5c3d65bd3525a329e0c0ecc1","address":"6590 Montana Ave","location":{"type":"Point","coordinates":[-106.589843854938,31.9081295432237]},"isApproved":true,"items":[],"keys":["Gastropubs","Burgers"],"lastUpdated":1547527612582,"name":"Toro Burger Bar","phone":"(915) 774-0990","price":"$$","reviewCount":249,"reviewScore":4,"meta":{"revision":0,"created":1547531155760,"version":0},"$loki":58},{"_id":"5c3d65bd3525a329e0c04394","address":"5929 Dyer St","location":{"type":"Point","coordinates":[-106.5926838,31.9182157]},"isApproved":true,"items":[],"keys":["Restaurants"],"lastUpdated":1547527612321,"name":"Habaneros Restaurant","phone":"(915) 564-3757","price":"","reviewCount":2,"reviewScore":4.5,"meta":{"revision":0,"created":1547531155760,"version":0},"$loki":59},{"_id":"5c3d65bd3525a329e0c0c385","address":"109 N Oregon St","location":{"type":"Point","coordinates":[-106.5995214,31.9076892]},"isApproved":true,"items":[],"keys":["American (New)","Specialty Food","Wine Bars"],"lastUpdated":1547527612523,"name":"Cafe Central","phone":"(915) 545-2233","price":"$$$","reviewCount":132,"reviewScore":3.5,"meta":{"revision":0,"created":1547531155760,"version":0},"$loki":60},{"_id":"5c3d65bd3525a329e0c0b9de","address":"835 N Zaragoza Rd","location":{"type":"Point","coordinates":[-106.5997712,31.9093989]},"isApproved":true,"items":[],"keys":["Sushi Bars","American (New)"],"lastUpdated":1547527612507,"name":"Sahori Sushi & Wings Express","phone":"(915) 307-2692","price":"$","reviewCount":10,"reviewScore":4,"meta":{"revision":0,"created":1547531155760,"version":0},"$loki":61},{"_id":"5c3d65bd3525a329e0c042a4","address":"Estebanico 160","location":{"type":"Point","coordinates":[-106.6002289,31.9124014]},"isApproved":true,"items":[],"keys":["Bakeries","Cafeteria"],"lastUpdated":1547527612321,"name":"Juaritoz Café & Horneria","phone":"656 617 1135","price":"","reviewCount":1,"reviewScore":5,"meta":{"revision":0,"created":1547531155760,"version":0},"$loki":62},{"_id":"5c3d65bd3525a329e0c0c591","address":"Tomas Fernandez 7837","location":{"type":"Point","coordinates":[-106.600422500423,31.915275263116]},"isApproved":true,"items":[],"keys":["Bars","Burgers"],"lastUpdated":1547527612524,"name":"El Cuchillo","phone":"656 251 7696","price":"","reviewCount":5,"reviewScore":3.5,"meta":{"revision":0,"created":1547531155760,"version":0},"$loki":63},{"_id":"5c3d65bd3525a329e0c153ba","address":"1346 N Lee Trevino Dr","location":{"type":"Point","coordinates":[-106.5795801,31.9577698]},"isApproved":true,"items":[],"keys":["Vietnamese"],"lastUpdated":1547527612738,"name":"Pho 24","phone":"(915) 598-0024","price":"","reviewCount":3,"reviewScore":3.5,"meta":{"revision":0,"created":1547531155760,"version":0},"$loki":64},{"_id":"5c3d65bd3525a329e0c15d3b","address":"Av. Francisco Villarreal 11201","location":{"type":"Point","coordinates":[-106.1915606,31.6823874]},"isApproved":true,"items":[],"keys":["Mexican"],"lastUpdated":1547527612755,"name":"Chilaquilazzo","phone":"656 627 8643","price":"","reviewCount":1,"reviewScore":5,"meta":{"revision":0,"created":1547531155760,"version":0},"$loki":65},{"_id":"5c3d65bd3525a329e0c1a062","address":"3021 McRae Blvd","location":{"type":"Point","coordinates":[-106.1915606,31.6823874]},"isApproved":true,"items":[],"keys":["Chicken Wings","American (Traditional)"],"lastUpdated":1547527612857,"name":"The Shack Wings & Brews","phone":"(915) 626-5323","price":"$$","reviewCount":54,"reviewScore":3,"meta":{"revision":0,"created":1547531155760,"version":0},"$loki":66},{"_id":"5c3d65bd3525a329e0c0cbb0","address":"9819 Socorro Rd","location":{"type":"Point","coordinates":[-106.20270505019,31.6822812596635]},"isApproved":true,"items":[],"keys":["Mexican","Breakfast & Brunch","Burgers"],"lastUpdated":1547527612533,"name":"Cocina 2 Go","phone":"(915) 790-1980","price":"","reviewCount":2,"reviewScore":2.5,"meta":{"revision":0,"created":1547531155760,"version":0},"$loki":67},{"_id":"5c3d65bd3525a329e0c0f0e9","address":"1274 Horizon Blvd","location":{"type":"Point","coordinates":[-106.201295748369,31.6822036887453]},"isApproved":true,"items":[],"keys":["Coffee & Tea","Burgers","Fast Food"],"lastUpdated":1547527612590,"name":"McDonald’s","phone":"(915) 858-6048","price":"$$","reviewCount":6,"reviewScore":1,"meta":{"revision":0,"created":1547531155760,"version":0},"$loki":68},{"_id":"5c3d65bd3525a329e0c08b69","address":"13855 Horizon Blvd","location":{"type":"Point","coordinates":[-106.200784,31.682231]},"isApproved":true,"items":[],"keys":["Chicken Wings"],"lastUpdated":1547527612436,"name":"Wingstop","phone":"(915) 852-2000","price":"","reviewCount":2,"reviewScore":2.5,"meta":{"revision":0,"created":1547531155760,"version":0},"$loki":69},{"_id":"5c3d65bd3525a329e0c1638d","address":"131 Americas Ave S","location":{"type":"Point","coordinates":[-106.200525,31.682174]},"isApproved":true,"items":[],"keys":["Fast Food","Burgers"],"lastUpdated":1547527612764,"name":"Whataburger","phone":"(915) 859-4145","price":"$","reviewCount":4,"reviewScore":3.5,"meta":{"revision":0,"created":1547531155760,"version":0},"$loki":70},{"_id":"5c3d65bd3525a329e0c09fd5","address":"14476 Horizon Blvd","location":{"type":"Point","coordinates":[-106.199385747313,31.6822970425792]},"isApproved":true,"items":[],"keys":["Pizza"],"lastUpdated":1547527612472,"name":"Little Caesars Pizza","phone":"(915) 852-7711","price":"","reviewCount":1,"reviewScore":2,"meta":{"revision":0,"created":1547531155760,"version":0},"$loki":71},{"_id":"5c3d65bd3525a329e0c1284c","address":"1251 N Fabens","location":{"type":"Point","coordinates":[-106.1974737,31.6820696]},"isApproved":true,"items":[],"keys":["Burgers","Fast Food","Coffee & Tea"],"lastUpdated":1547527612678,"name":"McDonald’s","phone":"(915) 764-3255","price":"$","reviewCount":2,"reviewScore":3,"meta":{"revision":0,"created":1547531155760,"version":0},"$loki":72},{"_id":"5c3d65bd3525a329e0c0336c","address":"9071 Alameda Ave","location":{"type":"Point","coordinates":[-106.1975247,31.6821176]},"isApproved":true,"items":[],"keys":["Fast Food"],"lastUpdated":1547527612302,"name":"Carl’s Jr","phone":"(915) 790-9964","price":"$","reviewCount":3,"reviewScore":3.5,"meta":{"revision":0,"created":1547531155760,"version":0},"$loki":73},{"_id":"5c3d65bd3525a329e0c08c1b","address":"14021 Horizon Blvd","location":{"type":"Point","coordinates":[-106.1975431,31.6834925]},"isApproved":true,"items":[],"keys":["Mexican"],"lastUpdated":1547527612436,"name":"Tacos El Charly","phone":"(915) 852-9998","price":"$","reviewCount":28,"reviewScore":4.5,"meta":{"revision":0,"created":1547531155760,"version":0},"$loki":74},{"_id":"5c3d65bd3525a329e0c14d1c","address":"10780 Pebble Hills","location":{"type":"Point","coordinates":[-106.1975431,31.6834925]},"isApproved":true,"items":[],"keys":["Burgers"],"lastUpdated":1547527612729,"name":"Panda Burgers","phone":"(915) 594-2820","price":"$","reviewCount":88,"reviewScore":4,"meta":{"revision":0,"created":1547531155760,"version":0},"$loki":75},{"_id":"5c3d65bd3525a329e0c1856e","address":"10600 N Loop Dr","location":{"type":"Point","coordinates":[-106.2021,31.68243]},"isApproved":true,"items":[],"keys":["Buffets","Chinese"],"lastUpdated":1547527612815,"name":"New China Wok Express","phone":"(915) 872-8085","price":"","reviewCount":1,"reviewScore":2,"meta":{"revision":0,"created":1547531155760,"version":0},"$loki":76},{"_id":"5c3d65bd3525a329e0c073d4","address":"10089 N Loop Dr","location":{"type":"Point","coordinates":[-106.2028276,31.6836501]},"isApproved":true,"items":[],"keys":["Tex-Mex","Tacos"],"lastUpdated":1547527612399,"name":"No Que No Taqueria y Más","phone":"(915) 929-2437","price":"","reviewCount":1,"reviewScore":3,"meta":{"revision":0,"created":1547531155760,"version":0},"$loki":77},{"_id":"5c3d65bd3525a329e0c0892e","address":"1360 N Lee Trevino Dr","location":{"type":"Point","coordinates":[-106.2028276,31.6836501]},"isApproved":true,"items":[],"keys":["Mexican"],"lastUpdated":1547527612429,"name":"Yvonne’s Mexican Grill","phone":"(915) 595-0015","price":"$","reviewCount":12,"reviewScore":4,"meta":{"revision":0,"created":1547531155760,"version":0},"$loki":78},{"_id":"5c3d65bd3525a329e0c09bf0","address":"13910 Horizon Blvd","location":{"type":"Point","coordinates":[-106.20298,31.683498]},"isApproved":true,"items":[],"keys":["Burgers","Fast Food","American (Traditional)"],"lastUpdated":1547527612465,"name":"Whataburger","phone":"(915) 859-3826","price":"$","reviewCount":2,"reviewScore":2.5,"meta":{"revision":0,"created":1547531155760,"version":0},"$loki":79},{"_id":"5c3d65bd3525a329e0c014e0","address":"13855 Horizon Blvd","location":{"type":"Point","coordinates":[-106.203053829596,31.6835462933408]},"isApproved":true,"items":[],"keys":["Steakhouses","Sushi Bars","Seafood"],"lastUpdated":1547527612249,"name":"Sunny’s Sushi","phone":"(915) 260-5878","price":"","reviewCount":18,"reviewScore":4.5,"meta":{"revision":0,"created":1547531155760,"version":0},"$loki":80},{"_id":"5c3d65bd3525a329e0c02195","address":"400 S Oregon St","location":{"type":"Point","coordinates":[-106.203053829596,31.6835462933408]},"isApproved":true,"items":[],"keys":["Seafood","Beer Bar","Cocktail Bars"],"lastUpdated":1547527612275,"name":"Coco Loko Clamatos Y Mariscos","phone":"(915) 351-3711","price":"$","reviewCount":21,"reviewScore":4,"meta":{"revision":0,"created":1547531155760,"version":0},"$loki":81},{"_id":"5c3d65bd3525a329e0c1622b","address":"7032 Alameda Ave","location":{"type":"Point","coordinates":[-106.204684115946,31.6838956267654]},"isApproved":true,"items":[],"keys":["Mexican"],"lastUpdated":1547527612763,"name":"Gorditas Juan Carlos","phone":"(915) 774-0300","price":"","reviewCount":6,"reviewScore":4.5,"meta":{"revision":0,"created":1547531155760,"version":0},"$loki":82},{"_id":"5c3d65bd3525a329e0c0f307","address":"150 S Americas","location":{"type":"Point","coordinates":[-106.203273,31.683636]},"isApproved":true,"items":[],"keys":["Mexican"],"lastUpdated":1547527612591,"name":"El sarape del Valle #3","phone":"(915) 790-0206","price":"","reviewCount":5,"reviewScore":3,"meta":{"revision":0,"created":1547531155760,"version":0},"$loki":83},{"_id":"5c3d65bd3525a329e0c00c63","address":"13004 Eastlake Blvd","location":{"type":"Point","coordinates":[-106.1891559,31.6842329]},"isApproved":true,"items":[],"keys":["Burgers","Fast Food","Ice Cream & Frozen Yogurt"],"lastUpdated":1547527612231,"name":"Sonic Drive-In","phone":"(915) 859-3373","price":"","reviewCount":3,"reviewScore":2.5,"meta":{"revision":0,"created":1547531155760,"version":0},"$loki":84},{"_id":"5c3d65bd3525a329e0bffbb7","address":"9901 Alameda Ave","location":{"type":"Point","coordinates":[-106.187732,31.6843832]},"isApproved":true,"items":[],"keys":["Mexican"],"lastUpdated":1547527612220,"name":"Banderas Restaurant","phone":"(951) 858-1199","price":"","reviewCount":2,"reviewScore":3,"meta":{"revision":0,"created":1547531155760,"version":0},"$loki":85},{"_id":"5c3d65bd3525a329e0c03d70","address":"14476 Horizon Blvd","location":{"type":"Point","coordinates":[-106.1871799,31.6846193]},"isApproved":true,"items":[],"keys":["Mexican","American (New)"],"lastUpdated":1547527612313,"name":"Los Compas","phone":"(915) 852-5360","price":"$$","reviewCount":1,"reviewScore":1,"meta":{"revision":0,"created":1547531155760,"version":0},"$loki":86},{"_id":"5c3d65bd3525a329e0c13632","address":"2909 Pershing Dr","location":{"type":"Point","coordinates":[-106.2411363,31.7000564]},"isApproved":true,"items":[],"keys":["Wine Bars","Steakhouses","Burgers"],"lastUpdated":1547527612696,"name":"Ray’s at The Pershing Inn","phone":"(915) 219-8196","price":"$$","reviewCount":9,"reviewScore":3.5,"meta":{"revision":0,"created":1547531155760,"version":0},"$loki":87},{"_id":"5c3d65bd3525a329e0c121f2","address":"13650 Eastlake Blvd","location":{"type":"Point","coordinates":[-106.240313,31.698974]},"isApproved":true,"items":[],"keys":["Fast Food"],"lastUpdated":1547527612669,"name":"Lemon","phone":"(915) 999-3199","price":"","reviewCount":1,"reviewScore":1,"meta":{"revision":0,"created":1547531155760,"version":0},"$loki":88},{"_id":"5c3d65bd3525a329e0c17327","address":"13020 Eastlake Blvd","location":{"type":"Point","coordinates":[-106.213951665939,31.6986571644078]},"isApproved":true,"items":[],"keys":["Fast Food","Burgers"],"lastUpdated":1547527612783,"name":"Wendys","phone":"(915) 247-3770","price":"","reviewCount":3,"reviewScore":3.5,"meta":{"revision":0,"created":1547531155760,"version":0},"$loki":89},{"_id":"5c3d65bd3525a329e0c14e07","address":"13910 Horizon Blvd","location":{"type":"Point","coordinates":[-106.2135666,31.6982106]},"isApproved":true,"items":[],"keys":["Fast Food","Chinese","Bubble Tea"],"lastUpdated":1547527612730,"name":"Panda Express","phone":"(915) 852-9898","price":"$","reviewCount":10,"reviewScore":2.5,"meta":{"revision":0,"created":1547531155760,"version":0},"$loki":90},{"_id":"5c3d65bd3525a329e0c1968d","address":"9417 Alameda Ave","location":{"type":"Point","coordinates":[-106.21357,31.69821]},"isApproved":true,"items":[],"keys":["Fast Food","Sandwiches"],"lastUpdated":1547527612841,"name":"Subway","phone":"(915) 858-4131","price":"","reviewCount":1,"reviewScore":3,"meta":{"revision":0,"created":1547531155760,"version":0},"$loki":91},{"_id":"5c3d65bd3525a329e0c1619a","address":"1301 N Horizon Blvd","location":{"type":"Point","coordinates":[-106.2125477,31.6977956]},"isApproved":true,"items":[],"keys":["American (Traditional)","Diners","Breakfast & Brunch"],"lastUpdated":1547527612763,"name":"Denny’s","phone":"(915) 852-3226","price":"$","reviewCount":28,"reviewScore":2.5,"meta":{"revision":0,"created":1547531155760,"version":0},"$loki":92},{"_id":"5c3d65bd3525a329e0c1a75c","address":"8764 Alameda Ave","location":{"type":"Point","coordinates":[-106.2123778,31.6991117]},"isApproved":true,"items":[],"keys":["Mexican"],"lastUpdated":1547527612866,"name":"El Hut","phone":"","price":"$$","reviewCount":9,"reviewScore":3,"meta":{"revision":0,"created":1547531155760,"version":0},"$loki":93},{"_id":"5c3d65bd3525a329e0c0fe7b","address":"10600 North Lp","location":{"type":"Point","coordinates":[-106.210564626706,31.6985640003644]},"isApproved":true,"items":[],"keys":["Pizza","Italian","Chicken Wings"],"lastUpdated":1547527612609,"name":"Pizza Hut","phone":"(915) 235-0123","price":"","reviewCount":2,"reviewScore":2.5,"meta":{"revision":0,"created":1547531155760,"version":0},"$loki":94},{"_id":"5c3d65bd3525a329e0c168bb","address":"10100 N Lp","location":{"type":"Point","coordinates":[-106.2142941,31.6894205]},"isApproved":true,"items":[],"keys":["Burgers"],"lastUpdated":1547527612772,"name":"Papa Burgers","phone":"(915) 860-7344","price":"$","reviewCount":4,"reviewScore":5,"meta":{"revision":0,"created":1547531155760,"version":0},"$loki":95},{"_id":"5c3d65bd3525a329e0c19de0","address":"9100 Alameda Ave","location":{"type":"Point","coordinates":[-106.3375621,31.6958035]},"isApproved":true,"items":[],"keys":["Mexican"],"lastUpdated":1547527612851,"name":"Gabriel’s Cafe","phone":"(915) 858-7080","price":"$","reviewCount":5,"reviewScore":3,"meta":{"revision":0,"created":1547531155760,"version":0},"$loki":96},{"_id":"5c3d65bd3525a329e0c0c56b","address":"Calle Sierra de las Misiones 8681","location":{"type":"Point","coordinates":[-106.3350889,31.6941657]},"isApproved":true,"items":[],"keys":["Steakhouses"],"lastUpdated":1547527612524,"name":"Comic X","phone":"614 648 5200","price":"","reviewCount":4,"reviewScore":3,"meta":{"revision":0,"created":1547531155760,"version":0},"$loki":97},{"_id":"5c3d65bd3525a329e0c037e6","address":"Blvd. Teofilo Borunda 8681","location":{"type":"Point","coordinates":[-106.3374113,31.6955382]},"isApproved":true,"items":[],"keys":["Mexican"],"lastUpdated":1547527612304,"name":"T Taco Inn","phone":"","price":"","reviewCount":3,"reviewScore":3.5,"meta":{"revision":0,"created":1547531155760,"version":0},"$loki":98},{"_id":"5c3d65bd3525a329e0c15be5","address":"8941 Old County Dr","location":{"type":"Point","coordinates":[-106.3306972,31.6935585]},"isApproved":true,"items":[],"keys":["Mexican"],"lastUpdated":1547527612754,"name":"La Tapatia","phone":"(915) 859-9616","price":"$","reviewCount":30,"reviewScore":4.5,"meta":{"revision":0,"created":1547531155760,"version":0},"$loki":99},{"_id":"5c3d65bd3525a329e0c13a08","address":"9505 Socorro Ave","location":{"type":"Point","coordinates":[-106.3329046,31.6943091]},"isApproved":true,"items":[],"keys":["Fast Food","Burgers","Ice Cream & Frozen Yogurt"],"lastUpdated":1547527612698,"name":"Sonic Drive-In","phone":"(915) 858-0890","price":"$","reviewCount":2,"reviewScore":4.5,"meta":{"revision":0,"created":1547531155760,"version":0},"$loki":100},{"_id":"5c3d65bd3525a329e0c02ed5","address":"19021 Darrington Rd","location":{"type":"Point","coordinates":[-106.3275893,31.6920655]},"isApproved":true,"items":[],"keys":["Sandwiches","Fast Food","Breakfast & Brunch"],"lastUpdated":1547527612294,"name":"Subway","phone":"(915) 852-6720","price":"","reviewCount":5,"reviewScore":2,"meta":{"revision":0,"created":1547531155760,"version":0},"$loki":101},{"_id":"5c3d65bd3525a329e0c18e8d","address":"13650 Eastlake Blvd","location":{"type":"Point","coordinates":[-106.3262137,31.6909613]},"isApproved":true,"items":[],"keys":["Mexican","Breakfast & Brunch"],"lastUpdated":1547527612831,"name":"Tacos Santa Cecilia Restaurant","phone":"(915) 307-2350","price":"$","reviewCount":14,"reviewScore":2.5,"meta":{"revision":0,"created":1547531155760,"version":0},"$loki":102},{"_id":"5c3d65bd3525a329e0c151d5","address":"8731 Alameda Ave","location":{"type":"Point","coordinates":[-106.3142253,31.6831358]},"isApproved":true,"items":[],"keys":["Tex-Mex"],"lastUpdated":1547527612737,"name":"Pollo Express","phone":"(915) 872-8737","price":"","reviewCount":1,"reviewScore":1,"meta":{"revision":0,"created":1547531155760,"version":0},"$loki":103},{"_id":"5c3d65bd3525a329e0c0e005","address":"6982 Industrial Ave","location":{"type":"Point","coordinates":[-106.3036593,31.7232631]},"isApproved":true,"items":[],"keys":["Mexican"],"lastUpdated":1547527612564,"name":"Ernie’s Restaurant","phone":"(915) 778-7285","price":"$","reviewCount":8,"reviewScore":4.5,"meta":{"revision":0,"created":1547531155760,"version":0},"$loki":104},{"_id":"5c3d65bd3525a329e0c150a9","address":"3140 N Lee Trevino Dr","location":{"type":"Point","coordinates":[-106.3074297,31.7218168]},"isApproved":true,"items":[],"keys":["African"],"lastUpdated":1547527612736,"name":"Anointed Cuisine","phone":"(915) 307-4834","price":"$$","reviewCount":15,"reviewScore":3,"meta":{"revision":0,"created":1547531155760,"version":0},"$loki":105},{"_id":"5c3d65bd3525a329e0c1125e","address":"9099 Gateway Blvd W","location":{"type":"Point","coordinates":[-106.3082918,31.717205]},"isApproved":true,"items":[],"keys":["Seafood"],"lastUpdated":1547527612642,"name":"Los Colegas","phone":"(915) 591-4498","price":"$$","reviewCount":42,"reviewScore":3.5,"meta":{"revision":0,"created":1547531155760,"version":0},"$loki":106},{"_id":"5c3d65bd3525a329e0c02ed7","address":"208 N Stanton St","location":{"type":"Point","coordinates":[-106.317550881799,31.7065645270357]},"isApproved":true,"items":[],"keys":["Pizza"],"lastUpdated":1547527612294,"name":"House of Pizza Downtown","phone":"(915) 533-3424","price":"$","reviewCount":20,"reviewScore":4.5,"meta":{"revision":0,"created":1547531155760,"version":0},"$loki":107},{"_id":"5c3d65bd3525a329e0c0e82f","address":"102 Palomas Pl","location":{"type":"Point","coordinates":[-106.315549305561,31.70701140409]},"isApproved":true,"items":[],"keys":["Mexican","Grocery"],"lastUpdated":1547527612575,"name":"La Primera Tortilla Factory","phone":"(575) 589-3437","price":"","reviewCount":2,"reviewScore":5,"meta":{"revision":0,"created":1547531155760,"version":0},"$loki":108},{"_id":"5c3d65bd3525a329e0c0589f","address":"310 S Florence St","location":{"type":"Point","coordinates":[-106.3177947,31.704051]},"isApproved":true,"items":[],"keys":["Salad","Italian","Sandwiches"],"lastUpdated":1547527612354,"name":"Desert Moon Cafe","phone":"(915) 269-0301","price":"$","reviewCount":18,"reviewScore":5,"meta":{"revision":0,"created":1547531155760,"version":0},"$loki":109},{"_id":"5c3d65bd3525a329e0c14893","address":"5901 Brook Hollow Dr","location":{"type":"Point","coordinates":[-106.324159,31.699986]},"isApproved":true,"items":[],"keys":["Mexican"],"lastUpdated":1547527612727,"name":"La Malinche","phone":"(915) 772-7057","price":"$","reviewCount":8,"reviewScore":4,"meta":{"revision":0,"created":1547531155760,"version":0},"$loki":110},{"_id":"5c3d65bd3525a329e0c17193","address":"1212 N Yarbrough Dr","location":{"type":"Point","coordinates":[-106.338557861745,31.6978868422005]},"isApproved":true,"items":[],"keys":["Pizza","Italian"],"lastUpdated":1547527612782,"name":"Xtreme Pizza And Wings","phone":"(915) 590-7272","price":"$","reviewCount":15,"reviewScore":2.5,"meta":{"revision":0,"created":1547531155760,"version":0},"$loki":111},{"_id":"5c3d65bd3525a329e0c0e9f5","address":"8300 Gateway Blvd E","location":{"type":"Point","coordinates":[-106.339359,31.6982062]},"isApproved":true,"items":[],"keys":["Buffets","Teppanyaki"],"lastUpdated":1547527612581,"name":"Teppanyaki Grill and Buffet","phone":"(915) 595-6980","price":"$$","reviewCount":116,"reviewScore":3.5,"meta":{"revision":0,"created":1547531155760,"version":0},"$loki":112},{"_id":"5c3d65bd3525a329e0c153d6","address":"201 S Americas Ave","location":{"type":"Point","coordinates":[-106.339359,31.6982062]},"isApproved":true,"items":[],"keys":["Mexican","Sandwiches","Juice Bars & Smoothies"],"lastUpdated":1547527612738,"name":"Rainbow Fountain II","phone":"(915) 860-1903","price":"$","reviewCount":17,"reviewScore":4,"meta":{"revision":0,"created":1547531155760,"version":0},"$loki":113},{"_id":"5c3d65bd3525a329e0c154de","address":"3125 N Lee Trevino Dr","location":{"type":"Point","coordinates":[-106.342033,31.702666]},"isApproved":true,"items":[],"keys":["Chinese"],"lastUpdated":1547527612745,"name":"Shan Dong Chinese Restaurant","phone":"(915) 590-2999","price":"$$","reviewCount":53,"reviewScore":4,"meta":{"revision":0,"created":1547531155760,"version":0},"$loki":114},{"_id":"5c3d65bd3525a329e0c09e64","address":"3501 Sun Bowl Dr","location":{"type":"Point","coordinates":[-106.3419017,31.7036727]},"isApproved":true,"items":[],"keys":["Mediterranean","Turkish","Modern European"],"lastUpdated":1547527612471,"name":"Cafe Istanbul Mediterranean","phone":"(915) 261-7550","price":"$$","reviewCount":39,"reviewScore":4,"meta":{"revision":0,"created":1547531155760,"version":0},"$loki":115},{"_id":"5c3d65bd3525a329e0c002e1","address":"Amado Nervo 278","location":{"type":"Point","coordinates":[-106.34422753871,31.7356099165778]},"isApproved":true,"items":[],"keys":["Tacos"],"lastUpdated":1547527612225,"name":"Taqueria Nino","phone":"","price":"","reviewCount":1,"reviewScore":5,"meta":{"revision":0,"created":1547531155760,"version":0},"$loki":116},{"_id":"5c3d65bd3525a329e0c15542","address":"1201 Airway Blvd","location":{"type":"Point","coordinates":[-106.328115188885,31.7407374567316]},"isApproved":true,"items":[],"keys":["Vietnamese"],"lastUpdated":1547527612745,"name":"Pho Bistro","phone":"(915) 778-1365","price":"$","reviewCount":36,"reviewScore":3.5,"meta":{"revision":0,"created":1547531155760,"version":0},"$loki":117},{"_id":"5c3d65bd3525a329e0c0e4b8","address":"13001 Eastlake Blvd","location":{"type":"Point","coordinates":[-106.3232476,31.7427873]},"isApproved":true,"items":[],"keys":["American (Traditional)","Chicken Shop","Hot Dogs"],"lastUpdated":1547527612573,"name":"Boss Chicken and Custard","phone":"(915) 974-2821","price":"$","reviewCount":7,"reviewScore":4,"meta":{"revision":0,"created":1547531155760,"version":0},"$loki":118},{"_id":"5c3d65bd3525a329e0c17392","address":"1770 N Lee Trevino Dr","location":{"type":"Point","coordinates":[-106.3205346,31.7434459]},"isApproved":true,"items":[],"keys":["American (Traditional)","Burgers","Bars"],"lastUpdated":1547527612783,"name":"Hudson’s Bar & Grill","phone":"(915) 595-2769","price":"$$","reviewCount":42,"reviewScore":3,"meta":{"revision":0,"created":1547531155760,"version":0},"$loki":119},{"_id":"5c3d65bd3525a329e0c0ffe0","address":"Calle Chinemecas 6738","location":{"type":"Point","coordinates":[-106.3215922,31.7423113]},"isApproved":true,"items":[],"keys":["Breweries","Gastropubs"],"lastUpdated":1547527612609,"name":"The Beer Box Juarez","phone":"656 617 2087","price":"","reviewCount":1,"reviewScore":5,"meta":{"revision":0,"created":1547531155760,"version":0},"$loki":120},{"_id":"5c3d65bd3525a329e0c19733","address":"7520 Remcon Cir","location":{"type":"Point","coordinates":[-106.309015,31.726166]},"isApproved":true,"items":[],"keys":["Mexican"],"lastUpdated":1547527612841,"name":"Leo’s Mexican Food Restaurants","phone":"(915) 833-1189","price":"$$","reviewCount":135,"reviewScore":3.5,"meta":{"revision":0,"created":1547531155760,"version":0},"$loki":121},{"_id":"5c3d65bd3525a329e0c1a157","address":"1355 George Dieter Dr","location":{"type":"Point","coordinates":[-106.3079814,31.7248634]},"isApproved":true,"items":[],"keys":["Vietnamese","Bubble Tea"],"lastUpdated":1547527612857,"name":"Photastix","phone":"(915) 313-5330","price":"$","reviewCount":113,"reviewScore":3,"meta":{"revision":0,"created":1547531155760,"version":0},"$loki":122},{"_id":"5c3d65bd3525a329e0c1b128","address":"101-699 Crystal Marie","location":{"type":"Point","coordinates":[-106.307046827647,31.7251364284256]},"isApproved":true,"items":[],"keys":["Mexican"],"lastUpdated":1547527612877,"name":"Chevo’s","phone":"","price":"","reviewCount":3,"reviewScore":5,"meta":{"revision":0,"created":1547531155760,"version":0},"$loki":123},{"_id":"5c3d65bd3525a329e0c0a9e5","address":"1613 N Zaragoza Rd","location":{"type":"Point","coordinates":[-106.303935572505,31.7290910922443]},"isApproved":true,"items":[],"keys":["Seafood","Mexican"],"lastUpdated":1547527612482,"name":"Las Colegas Seafood","phone":"(915) 855-3744","price":"$$","reviewCount":8,"reviewScore":4.5,"meta":{"revision":0,"created":1547531155760,"version":0},"$loki":124},{"_id":"5c3d65bd3525a329e0c1a6f8","address":"Calle de Los Portales 802","location":{"type":"Point","coordinates":[-106.302777,31.729881]},"isApproved":true,"items":[],"keys":["Sports Bars","Mexican"],"lastUpdated":1547527612866,"name":"Felisa","phone":"656 625 5000","price":"","reviewCount":1,"reviewScore":5,"meta":{"revision":0,"created":1547531155760,"version":0},"$loki":125},{"_id":"5c3d65bd3525a329e0c15b84","address":"5860 N Mesa St","location":{"type":"Point","coordinates":[-106.303643019858,31.7288770755137]},"isApproved":true,"items":[],"keys":["Wine Bars","Latin American","Modern European"],"lastUpdated":1547527612754,"name":"Gusto Restaurant","phone":"(915) 307-3346","price":"$$","reviewCount":32,"reviewScore":4.5,"meta":{"revision":0,"created":1547531155760,"version":0},"$loki":126},{"_id":"5c3d65bd3525a329e0c052ee","address":"Calle 16 de Septiembre 2355","location":{"type":"Point","coordinates":[-106.30246,31.728263]},"isApproved":true,"items":[],"keys":["Dinner Theater"],"lastUpdated":1547527612346,"name":"La Custodia de San Pablo","phone":"656 301 9829","price":"","reviewCount":1,"reviewScore":4,"meta":{"revision":0,"created":1547531155760,"version":0},"$loki":127},{"_id":"5c3d65bd3525a329e0c01475","address":"6350 Escondido Dr","location":{"type":"Point","coordinates":[-106.303901709616,31.7255270044806]},"isApproved":true,"items":[],"keys":["Italian","Bars","Steakhouses"],"lastUpdated":1547527612249,"name":"The Grape Italian Steakhouse","phone":"(915) 626-9381","price":"$$$","reviewCount":50,"reviewScore":4,"meta":{"revision":0,"created":1547531155760,"version":0},"$loki":128},{"_id":"5c3d65bd3525a329e0c0deeb","address":"4025 N Mesa St","location":{"type":"Point","coordinates":[-106.303383372724,31.7273706627683]},"isApproved":true,"items":[],"keys":["Tacos","Local Flavor","Street Vendors"],"lastUpdated":1547527612564,"name":"Rebel Meal Co. Kitchen","phone":"","price":"","reviewCount":1,"reviewScore":4,"meta":{"revision":0,"created":1547531155760,"version":0},"$loki":129},{"_id":"5c3d65bd3525a329e0c19318","address":"Calle Pablo López Sidar 305","location":{"type":"Point","coordinates":[-106.3010676,31.7273064]},"isApproved":true,"items":[],"keys":["Tacos"],"lastUpdated":1547527612834,"name":"Taqueria La Pila 2","phone":"","price":"","reviewCount":1,"reviewScore":2,"meta":{"revision":0,"created":1547531155760,"version":0},"$loki":130},{"_id":"5c3d65bd3525a329e0c03eb0","address":"11985 Pelicano Dr","location":{"type":"Point","coordinates":[-106.2995211,31.7260568]},"isApproved":true,"items":[],"keys":["Burgers","Mexican","Sandwiches"],"lastUpdated":1547527612313,"name":"Not Just Burgers","phone":"(915) 319-3819","price":"$","reviewCount":30,"reviewScore":4.5,"meta":{"revision":0,"created":1547531155760,"version":0},"$loki":131},{"_id":"5c3d65bd3525a329e0c01a5e","address":"6450 N Desert Blvd","location":{"type":"Point","coordinates":[-106.302513331175,31.7456367246]},"isApproved":true,"items":[],"keys":["Sushi Bars"],"lastUpdated":1547527612257,"name":"Sushi Freak","phone":"(915) 209-0313","price":"","reviewCount":27,"reviewScore":4,"meta":{"revision":0,"created":1547531155760,"version":0},"$loki":132},{"_id":"5c3d65bd3525a329e0c09689","address":"1700 N Zaragoza","location":{"type":"Point","coordinates":[-106.291959,31.738611]},"isApproved":true,"items":[],"keys":["American (Traditional)","Desserts","Soup"],"lastUpdated":1547527612454,"name":"AngryOwl Zaragoza","phone":"(915) 300-1004","price":"","reviewCount":14,"reviewScore":3,"meta":{"revision":0,"created":1547531155760,"version":0},"$loki":133},{"_id":"5c3d65bd3525a329e0c135f4","address":"1160 Airway","location":{"type":"Point","coordinates":[-106.287034232709,31.745558024224]},"isApproved":true,"items":[],"keys":["Seafood"],"lastUpdated":1547527612696,"name":"Craw Oyster Bar","phone":"(915) 881-1711","price":"$$","reviewCount":11,"reviewScore":3,"meta":{"revision":0,"created":1547531155760,"version":0},"$loki":134},{"_id":"5c3d65bd3525a329e0c0cc41","address":"4950 Hondo Pass Dr","location":{"type":"Point","coordinates":[-106.2862566,31.7448351]},"isApproved":true,"items":[],"keys":["Seafood","Chicken Wings","Sandwiches"],"lastUpdated":1547527612533,"name":"Catfish Basket","phone":"(915) 757-0545","price":"$","reviewCount":66,"reviewScore":4.5,"meta":{"revision":0,"created":1547531155760,"version":0},"$loki":135},{"_id":"5c3d65bd3525a329e0c17e75","address":"5100 Doniphan Dr","location":{"type":"Point","coordinates":[-106.285983,31.745395]},"isApproved":true,"items":[],"keys":["Mexican","Latin American","Fast Food"],"lastUpdated":1547527612802,"name":"Ke’Flauta","phone":"(915) 581-4028","price":"$","reviewCount":47,"reviewScore":4.5,"meta":{"revision":0,"created":1547531155760,"version":0},"$loki":136},{"_id":"5c3d65bd3525a329e0c0d545","address":"4886 Hercules Ave","location":{"type":"Point","coordinates":[-106.283776834224,31.7479879752673]},"isApproved":true,"items":[],"keys":["Japanese","Sushi Bars"],"lastUpdated":1547527612548,"name":"Matsuharu Japanese Restaurant","phone":"(915) 751-9355","price":"$$","reviewCount":101,"reviewScore":4,"meta":{"revision":0,"created":1547531155760,"version":0},"$loki":137},{"_id":"5c3d65bd3525a329e0c0ae1a","address":"11688 Pebble Hills Blvd","location":{"type":"Point","coordinates":[-106.279178,31.749652]},"isApproved":true,"items":[],"keys":["Mexican","Sandwiches"],"lastUpdated":1547527612491,"name":"El Rincon Mexicano Restarante","phone":"","price":"","reviewCount":2,"reviewScore":3,"meta":{"revision":0,"created":1547531155760,"version":0},"$loki":138},{"_id":"5c3d65bd3525a329e0c184a7","address":"2030 E Yandell Dr","location":{"type":"Point","coordinates":[-106.2873079,31.7360748]},"isApproved":true,"items":[],"keys":["Mexican"],"lastUpdated":1547527612814,"name":"Su-Casa Restaurant","phone":"(915) 544-5136","price":"$$","reviewCount":23,"reviewScore":4.5,"meta":{"revision":0,"created":1547531155760,"version":0},"$loki":139},{"_id":"5c3d65bd3525a329e0c00838","address":"1342 N Zaragoza","location":{"type":"Point","coordinates":[-106.2980498,31.7286749]},"isApproved":true,"items":[],"keys":["Mexican"],"lastUpdated":1547527612228,"name":"Rivas Taco Shop","phone":"(915) 307-2922","price":"$","reviewCount":219,"reviewScore":4.5,"meta":{"revision":0,"created":1547531155760,"version":0},"$loki":140},{"_id":"5c3d65bd3525a329e0c09178","address":"1550 Hawkins Blvd","location":{"type":"Point","coordinates":[-106.2979119,31.7268304]},"isApproved":true,"items":[],"keys":["Sushi Bars","Karaoke","Bars"],"lastUpdated":1547527612446,"name":"Kangnam Style","phone":"(915) 307-3012","price":"$$","reviewCount":58,"reviewScore":4,"meta":{"revision":0,"created":1547531155760,"version":0},"$loki":141},{"_id":"5c3d65bd3525a329e0c0f41a","address":"1320 N Zaragoza","location":{"type":"Point","coordinates":[-106.299249392623,31.7263972914561]},"isApproved":true,"items":[],"keys":["Barbeque"],"lastUpdated":1547527612592,"name":"Desert Oak Barbecue","phone":"(915) 309-4322","price":"$$","reviewCount":100,"reviewScore":4.5,"meta":{"revision":0,"created":1547531155760,"version":0},"$loki":142},{"_id":"5c3d65bd3525a329e0c18ae4","address":"6110 Gateway E Blvd","location":{"type":"Point","coordinates":[-106.266659722742,31.7558377104015]},"isApproved":true,"items":[],"keys":["Mexican"],"lastUpdated":1547527612823,"name":"Tacos Chinampa","phone":"(915) 843-2900","price":"$","reviewCount":171,"reviewScore":4,"meta":{"revision":0,"created":1547531155760,"version":0},"$loki":143},{"_id":"5c3d65bd3525a329e0c1b308","address":"9844 Dyer St","location":{"type":"Point","coordinates":[-106.272648019034,31.7583345024491]},"isApproved":true,"items":[],"keys":["Mexican"],"lastUpdated":1547527612883,"name":"Burrito House","phone":"(915) 757-2536","price":"$","reviewCount":45,"reviewScore":4,"meta":{"revision":0,"created":1547531155760,"version":0},"$loki":144},{"_id":"5c3d65bd3525a329e0c0988b","address":"1188 Hawkins Blvd","location":{"type":"Point","coordinates":[-106.2733073,31.7578084]},"isApproved":true,"items":[],"keys":["American (Traditional)","Buffets"],"lastUpdated":1547527612462,"name":"Luby’s","phone":"(915) 592-5964","price":"$$","reviewCount":20,"reviewScore":4,"meta":{"revision":0,"created":1547531155760,"version":0},"$loki":145},{"_id":"5c3d65bd3525a329e0c18920","address":"7040 N Mesa St","location":{"type":"Point","coordinates":[-106.2733073,31.7578084]},"isApproved":true,"items":[],"keys":["Burgers"],"lastUpdated":1547527612822,"name":"Panda Burgers","phone":"(915) 702-0021","price":"","reviewCount":19,"reviewScore":3,"meta":{"revision":0,"created":1547531155760,"version":0},"$loki":146},{"_id":"5c3d65bd3525a329e0c16864","address":"10110 Montwood Dr","location":{"type":"Point","coordinates":[-106.272991232744,31.7581257056027]},"isApproved":true,"items":[],"keys":["Sandwiches","Salad","Wraps"],"lastUpdated":1547527612772,"name":"The Sandwich Shop","phone":"(915) 307-2491","price":"$$","reviewCount":43,"reviewScore":4.5,"meta":{"revision":0,"created":1547531155760,"version":0},"$loki":147},{"_id":"5c3d65bd3525a329e0c0cfa3","address":"310 N Mesa St","location":{"type":"Point","coordinates":[-106.2726705,31.7615808]},"isApproved":true,"items":[],"keys":["Mexican"],"lastUpdated":1547527612539,"name":"La Malinche","phone":"(915) 544-8785","price":"$","reviewCount":14,"reviewScore":4,"meta":{"revision":0,"created":1547531155760,"version":0},"$loki":148},{"_id":"5c3d65bd3525a329e0c0a4e6","address":"212 N Copia St","location":{"type":"Point","coordinates":[-106.27213,31.76136]},"isApproved":true,"items":[],"keys":["Mexican"],"lastUpdated":1547527612480,"name":"La Colonial Tortilla Factory","phone":"(915) 533-9691","price":"$","reviewCount":9,"reviewScore":4.5,"meta":{"revision":0,"created":1547531155760,"version":0},"$loki":149},{"_id":"5c3d65bd3525a329e0c04f6b","address":"Bartolomé de las Casas S/N","location":{"type":"Point","coordinates":[-106.2707403,31.7614361]},"isApproved":true,"items":[],"keys":["Mexican","Steakhouses"],"lastUpdated":1547527612339,"name":"El Tragadero","phone":"","price":"$$$","reviewCount":9,"reviewScore":4,"meta":{"revision":0,"created":1547531155760,"version":0},"$loki":150},{"_id":"5c3d65bd3525a329e0c1093a","address":"2204 Joe Battle Blvd","location":{"type":"Point","coordinates":[-106.2671085,31.7725202]},"isApproved":true,"items":[],"keys":["Sushi Bars","Teppanyaki"],"lastUpdated":1547527612625,"name":"Koze Teppan Grill East","phone":"(915) 856-1288","price":"$$","reviewCount":141,"reviewScore":4,"meta":{"revision":0,"created":1547531155760,"version":0},"$loki":151},{"_id":"5c3d65bd3525a329e0c02718","address":"6994 Doniphan Dr","location":{"type":"Point","coordinates":[-106.26684397459,31.772060947016]},"isApproved":true,"items":[],"keys":["Mexican","Ice Cream & Frozen Yogurt"],"lastUpdated":1547527612284,"name":"Flautas Tepalca","phone":"(915) 877-3358","price":"$","reviewCount":23,"reviewScore":4.5,"meta":{"revision":0,"created":1547531155760,"version":0},"$loki":152},{"_id":"5c3d65bd3525a329e0c04049","address":"9530 Viscount Blvd","location":{"type":"Point","coordinates":[-106.25840196523,31.770119887422]},"isApproved":true,"items":[],"keys":["Mexican","Seafood"],"lastUpdated":1547527612320,"name":"Senor Fish","phone":"(915) 598-3630","price":"$","reviewCount":12,"reviewScore":4,"meta":{"revision":0,"created":1547531155760,"version":0},"$loki":153},{"_id":"5c3d65bd3525a329e0c13eb8","address":"2114 N Zaragoza Rd","location":{"type":"Point","coordinates":[-106.2584373,31.7700568]},"isApproved":true,"items":[],"keys":["Tacos","Fast Food"],"lastUpdated":1547527612706,"name":"Taco Avocat","phone":"(915) 304-0352","price":"","reviewCount":6,"reviewScore":4.5,"meta":{"revision":0,"created":1547531155760,"version":0},"$loki":154},{"_id":"5c3d65bd3525a329e0c005d6","address":"","location":{"type":"Point","coordinates":[-106.26196827817,31.7671062829316]},"isApproved":true,"items":[],"keys":["Vietnamese","Food Trucks","Sandwiches"],"lastUpdated":1547527612227,"name":"The Curb","phone":"(915) 490-3709","price":"$$","reviewCount":6,"reviewScore":5,"meta":{"revision":0,"created":1547531155760,"version":0},"$loki":155},{"_id":"5c3d65bd3525a329e0c09256","address":"4230 Alameda Ave","location":{"type":"Point","coordinates":[-106.2591556,31.7681456]},"isApproved":true,"items":[],"keys":["Mexican"],"lastUpdated":1547527612452,"name":"Chicos Tacos","phone":"(915) 533-0575","price":"$","reviewCount":41,"reviewScore":3,"meta":{"revision":0,"created":1547531155760,"version":0},"$loki":156},{"_id":"5c3d65bd3525a329e0c0e98b","address":"10610 N Loop Dr","location":{"type":"Point","coordinates":[-106.2554551,31.7726778]},"isApproved":true,"items":[],"keys":["Mexican"],"lastUpdated":1547527612581,"name":"Guadalupana Tortilleria & Restaurant","phone":"(915) 872-0348","price":"","reviewCount":1,"reviewScore":3,"meta":{"revision":0,"created":1547531155760,"version":0},"$loki":157},{"_id":"5c3d65bd3525a329e0c0a24c","address":"3610 Montana Ave","location":{"type":"Point","coordinates":[-106.2523982,31.7768659]},"isApproved":true,"items":[],"keys":["Mexican"],"lastUpdated":1547527612473,"name":"Tortilleria Guadalajara","phone":"(915) 562-5959","price":"$","reviewCount":4,"reviewScore":5,"meta":{"revision":0,"created":1547531155760,"version":0},"$loki":158},{"_id":"5c3d65bd3525a329e0c18e71","address":"1730 Montana Ave","location":{"type":"Point","coordinates":[-106.252735219896,31.7764398337508]},"isApproved":true,"items":[],"keys":["Mexican","Breakfast & Brunch"],"lastUpdated":1547527612831,"name":"Good Coffee","phone":"(915) 533-1370","price":"$","reviewCount":22,"reviewScore":3.5,"meta":{"revision":0,"created":1547531155760,"version":0},"$loki":159},{"_id":"5c3d65bd3525a329e0c0ce47","address":"","location":{"type":"Point","coordinates":[-106.2574714,31.7918998]},"isApproved":true,"items":[],"keys":["Food Trucks","Soup"],"lastUpdated":1547527612534,"name":"The Soup Truck","phone":"(915) 224-2290","price":"$","reviewCount":19,"reviewScore":5,"meta":{"revision":0,"created":1547531155760,"version":0},"$loki":160},{"_id":"5c3d65bd3525a329e0c14018","address":"12420 Edgemere Blvd","location":{"type":"Point","coordinates":[-106.258006095886,31.7918898357617]},"isApproved":true,"items":[],"keys":["Mexican","Burgers","Hot Dogs"],"lastUpdated":1547527612707,"name":"Kahlo Kitchen","phone":"(915) 487-4300","price":"$$","reviewCount":87,"reviewScore":4.5,"meta":{"revision":0,"created":1547531155760,"version":0},"$loki":161},{"_id":"5c3d65bd3525a329e0c01bf0","address":"2301 N Zaragoza Rd","location":{"type":"Point","coordinates":[-106.2617299,31.7917985]},"isApproved":true,"items":[],"keys":["American (Traditional)","Burgers"],"lastUpdated":1547527612258,"name":"Papaburgers","phone":"(915) 231-6634","price":"$","reviewCount":28,"reviewScore":3.5,"meta":{"revision":0,"created":1547531155760,"version":0},"$loki":162},{"_id":"5c3d65bd3525a329e0c00222","address":"602 Westway Blvd","location":{"type":"Point","coordinates":[-106.2611161,31.7917914]},"isApproved":true,"items":[],"keys":["Tacos"],"lastUpdated":1547527612225,"name":"Tacos El Trokero","phone":"(915) 886-3573","price":"$","reviewCount":16,"reviewScore":4.5,"meta":{"revision":0,"created":1547531155760,"version":0},"$loki":163},{"_id":"5c3d65bd3525a329e0c180cb","address":"7410 Remcon Cir","location":{"type":"Point","coordinates":[-106.2666948,31.7837027]},"isApproved":true,"items":[],"keys":["Delis","Salad","Sandwiches"],"lastUpdated":1547527612808,"name":"Jason’s Deli","phone":"(915) 584-1800","price":"$","reviewCount":13,"reviewScore":3.5,"meta":{"revision":0,"created":1547531155760,"version":0},"$loki":164},{"_id":"5c3d65bd3525a329e0c10f72","address":"11251 Rojas Dr","location":{"type":"Point","coordinates":[-106.285520866513,31.7817741396107]},"isApproved":true,"items":[],"keys":["Mexican"],"lastUpdated":1547527612640,"name":"Cafe East","phone":"(915) 590-7788","price":"$","reviewCount":11,"reviewScore":4,"meta":{"revision":0,"created":1547531155760,"version":0},"$loki":165},{"_id":"5c3d65bd3525a329e0c0a4ce","address":"5810 Dyer St","location":{"type":"Point","coordinates":[-106.2858097,31.7849957]},"isApproved":true,"items":[],"keys":["Puerto Rican","Spanish"],"lastUpdated":1547527612480,"name":"El Koqui de la dyer","phone":"(915) 331-2655","price":"$$$","reviewCount":8,"reviewScore":4.5,"meta":{"revision":0,"created":1547531155760,"version":0},"$loki":166},{"_id":"5c3d65bd3525a329e0c188d3","address":"5001 N Mesa","location":{"type":"Point","coordinates":[-106.298034,31.7659191]},"isApproved":true,"items":[],"keys":["Mexican","Bars"],"lastUpdated":1547527612822,"name":"Cantina Malolam","phone":"(915) 875-8670","price":"$$","reviewCount":111,"reviewScore":3,"meta":{"revision":0,"created":1547531155760,"version":0},"$loki":167},{"_id":"5c3d65bd3525a329e0c18456","address":"4020 Monroe Ave","location":{"type":"Point","coordinates":[-106.2862207,31.766792]},"isApproved":true,"items":[],"keys":["Chicken Wings","Pizza"],"lastUpdated":1547527612814,"name":"Speedy’s Pizza","phone":"(915) 307-4477","price":"","reviewCount":2,"reviewScore":3,"meta":{"revision":0,"created":1547531155760,"version":0},"$loki":168},{"_id":"5c3d65bd3525a329e0c1745d","address":"1881 Saul Kleinfeld","location":{"type":"Point","coordinates":[-106.285544,31.7662569]},"isApproved":true,"items":[],"keys":["Gastropubs","Sports Bars"],"lastUpdated":1547527612790,"name":"Undisputed Craft House","phone":"(915) 300-0000","price":"","reviewCount":3,"reviewScore":3,"meta":{"revision":0,"created":1547531155760,"version":0},"$loki":169},{"_id":"5c3d65bd3525a329e0c146f4","address":"365 Vin Rambla Dr","location":{"type":"Point","coordinates":[-106.2769697,31.7542343]},"isApproved":true,"items":[],"keys":["Golf","Bars","American (New)"],"lastUpdated":1547527612716,"name":"Topgolf","phone":"(915) 845-9028","price":"$$","reviewCount":62,"reviewScore":4,"meta":{"revision":0,"created":1547531155760,"version":0},"$loki":170},{"_id":"5c3d65bd3525a329e0c14ba8","address":"4028 Dyer St","location":{"type":"Point","coordinates":[-106.2776363,31.7536059]},"isApproved":true,"items":[],"keys":["Vietnamese"],"lastUpdated":1547527612729,"name":"Pho Que Huong","phone":"(915) 303-5299","price":"$$","reviewCount":40,"reviewScore":4,"meta":{"revision":0,"created":1547531155760,"version":0},"$loki":171},{"_id":"5c3d65bd3525a329e0c106d7","address":"4799 N Mesa St","location":{"type":"Point","coordinates":[-106.2765329,31.752779]},"isApproved":true,"items":[],"keys":["Sports Bars","American (Traditional)","Seafood"],"lastUpdated":1547527612619,"name":"Angry Owl Southwest Grill & Cantina","phone":"(915) 532-2450","price":"$$","reviewCount":205,"reviewScore":3.5,"meta":{"revision":0,"created":1547531155760,"version":0},"$loki":172},{"_id":"5c3d65bd3525a329e0c123a6","address":"1731 Montana Ave","location":{"type":"Point","coordinates":[-106.277472466409,31.7513683410754]},"isApproved":true,"items":[],"keys":["Mexican","American (New)","Sandwiches"],"lastUpdated":1547527612670,"name":"inni HEART- La Tierra Cafe","phone":"(915) 533-8890","price":"$$","reviewCount":19,"reviewScore":4,"meta":{"revision":0,"created":1547531155760,"version":0},"$loki":173},{"_id":"5c3d65bd3525a329e0c0c1cd","address":"3019 Montana Ave","location":{"type":"Point","coordinates":[-106.278853900731,31.7510534895153]},"isApproved":true,"items":[],"keys":["Burgers","American (New)","Sandwiches"],"lastUpdated":1547527612517,"name":"5 Points Bistro","phone":"(915) 562-3191","price":"$$","reviewCount":42,"reviewScore":3,"meta":{"revision":0,"created":1547531155760,"version":0},"$loki":174},{"_id":"5c3d65bd3525a329e0c164f2","address":"13800 Horizon Blvd","location":{"type":"Point","coordinates":[-106.2837969,31.7495093]},"isApproved":true,"items":[],"keys":["Pizza","Chicken Wings","Buffets"],"lastUpdated":1547527612764,"name":"Peter Piper Pizza","phone":"(915) 852-1595","price":"$$","reviewCount":4,"reviewScore":5,"meta":{"revision":0,"created":1547531155760,"version":0},"$loki":175},{"_id":"5c3d65bd3525a329e0c0c334","address":"110 Horizon Blvd","location":{"type":"Point","coordinates":[-106.287521,31.7599791]},"isApproved":true,"items":[],"keys":["Pizza"],"lastUpdated":1547527612518,"name":"Little Caesars Pizza","phone":"(915) 860-2137","price":"","reviewCount":2,"reviewScore":2,"meta":{"revision":0,"created":1547531155760,"version":0},"$loki":176},{"_id":"5c3d65bd3525a329e0c0a317","address":"2301 N Zaragoza","location":{"type":"Point","coordinates":[-106.3027397,31.752575]},"isApproved":true,"items":[],"keys":["Desserts","Mexican"],"lastUpdated":1547527612474,"name":"Snack Attack","phone":"(915) 261-7951","price":"","reviewCount":3,"reviewScore":3.5,"meta":{"revision":0,"created":1547531155760,"version":0},"$loki":177},{"_id":"5c3d65bd3525a329e0c19008","address":"1305 N Mesa St","location":{"type":"Point","coordinates":[-106.302450927917,31.763136781881]},"isApproved":true,"items":[],"keys":["Breakfast & Brunch","Mexican"],"lastUpdated":1547527612832,"name":"Lucy’s Coffee Shop","phone":"","price":"$","reviewCount":49,"reviewScore":4.5,"meta":{"revision":0,"created":1547531155760,"version":0},"$loki":178},{"_id":"5c3d65bd3525a329e0c081eb","address":"11895 Gateway West","location":{"type":"Point","coordinates":[-106.3006246,31.7641974]},"isApproved":true,"items":[],"keys":["American (Traditional)","Comfort Food"],"lastUpdated":1547527612419,"name":"Cheddar’s Scratch Kitchen","phone":"(915) 593-6979","price":"$$","reviewCount":88,"reviewScore":3,"meta":{"revision":0,"created":1547531155760,"version":0},"$loki":179},{"_id":"5c3d65bd3525a329e0c191c7","address":"7101 N Mesa","location":{"type":"Point","coordinates":[-106.3183734,31.7638648]},"isApproved":true,"items":[],"keys":["Mexican"],"lastUpdated":1547527612833,"name":"Tacotote - Resler","phone":"(915) 584-3244","price":"$","reviewCount":76,"reviewScore":4,"meta":{"revision":0,"created":1547531155760,"version":0},"$loki":180},{"_id":"5c3d65bd3525a329e0c1af7e","address":"Av. Tecnológico 3005","location":{"type":"Point","coordinates":[-106.319294,31.752706]},"isApproved":true,"items":[],"keys":["Fast Food"],"lastUpdated":1547527612876,"name":"Tortas Nico","phone":"656 617 0994","price":"","reviewCount":1,"reviewScore":5,"meta":{"revision":0,"created":1547531155760,"version":0},"$loki":181},{"_id":"5c3d65bd3525a329e0c17b2c","address":"9529 Viscount Blvd","location":{"type":"Point","coordinates":[-106.319493526285,31.7505255927725]},"isApproved":true,"items":[],"keys":["Mexican"],"lastUpdated":1547527612799,"name":"El Cometa","phone":"(915) 594-7686","price":"$","reviewCount":132,"reviewScore":4,"meta":{"revision":0,"created":1547531155760,"version":0},"$loki":182},{"_id":"5c3d65bd3525a329e0c1418f","address":"1757 George Dieter Dr","location":{"type":"Point","coordinates":[-106.317366507383,31.7531656070878]},"isApproved":true,"items":[],"keys":["Mexican"],"lastUpdated":1547527612713,"name":"Don Taco","phone":"(915) 591-0222","price":"$","reviewCount":9,"reviewScore":4,"meta":{"revision":0,"created":1547531155760,"version":0},"$loki":183},{"_id":"5c3d65bd3525a329e0c16614","address":"4012 N Mesa St","location":{"type":"Point","coordinates":[-106.3172894,31.752752]},"isApproved":true,"items":[],"keys":["American (New)"],"lastUpdated":1547527612765,"name":"Sabertooth Food","phone":"(915) 533-8024","price":"$$","reviewCount":104,"reviewScore":4,"meta":{"revision":0,"created":1547531155760,"version":0},"$loki":184},{"_id":"5c3d65bd3525a329e0c0c46e","address":"900 Talbot Ave","location":{"type":"Point","coordinates":[-106.319615472491,31.7538056920424]},"isApproved":true,"items":[],"keys":["Tacos"],"lastUpdated":1547527612524,"name":"Paco Taco","phone":"(915) 642-4280","price":"$","reviewCount":11,"reviewScore":5,"meta":{"revision":0,"created":1547531155760,"version":0},"$loki":185},{"_id":"5c3d65bd3525a329e0c195c6","address":"910 Redd Rd","location":{"type":"Point","coordinates":[-106.3196149,31.7492827]},"isApproved":true,"items":[],"keys":["Cafes","Coffee Roasteries"],"lastUpdated":1547527612841,"name":"Ripe Sunrise Cafe","phone":"(915) 584-5854","price":"$","reviewCount":34,"reviewScore":4,"meta":{"revision":0,"created":1547531155760,"version":0},"$loki":186},{"_id":"5c3d65bd3525a329e0c142b6","address":"1155 N Zaragoza Rd","location":{"type":"Point","coordinates":[-106.318946838379,31.7483081817627]},"isApproved":true,"items":[],"keys":["Mexican"],"lastUpdated":1547527612713,"name":"La Choza Menudazo & Tamalotes","phone":"(915) 872-1486","price":"$","reviewCount":42,"reviewScore":3.5,"meta":{"revision":0,"created":1547531155760,"version":0},"$loki":187},{"_id":"5c3d65bd3525a329e0c1550d","address":"5501 Dyer St","location":{"type":"Point","coordinates":[-106.3379632,31.7470043]},"isApproved":true,"items":[],"keys":["Fish & Chips","Sushi Bars"],"lastUpdated":1547527612745,"name":"TugBoat Fish & Chips","phone":"(915) 566-2878","price":"$","reviewCount":43,"reviewScore":4,"meta":{"revision":0,"created":1547531155760,"version":0},"$loki":188},{"_id":"5c3d65bd3525a329e0c19b31","address":"1491 Lee Trevino Dr","location":{"type":"Point","coordinates":[-106.341873407364,31.7470528861114]},"isApproved":true,"items":[],"keys":["Bars","American (New)","Gastropubs"],"lastUpdated":1547527612849,"name":"Steve O’s","phone":"","price":"$$","reviewCount":192,"reviewScore":3.5,"meta":{"revision":0,"created":1547531155760,"version":0},"$loki":189},{"_id":"5c3d65bd3525a329e0c07232","address":"6066 E Yandell Dr","location":{"type":"Point","coordinates":[-106.345682144165,31.7494178589111]},"isApproved":true,"items":[],"keys":["Mexican"],"lastUpdated":1547527612398,"name":"Burritos Lore’s","phone":"(915) 881-8088","price":"","reviewCount":3,"reviewScore":5,"meta":{"revision":0,"created":1547531155760,"version":0},"$loki":190},{"_id":"5c3d65bd3525a329e0c19e68","address":"6801 Gateway Blvd W","location":{"type":"Point","coordinates":[-106.344169,31.750593]},"isApproved":true,"items":[],"keys":["Seafood"],"lastUpdated":1547527612851,"name":"Landry’s Seafood House","phone":"(915) 779-2900","price":"$$","reviewCount":135,"reviewScore":3.5,"meta":{"revision":0,"created":1547531155760,"version":0},"$loki":191},{"_id":"5c3d65bd3525a329e0c08d68","address":"10729 Gateway West Blvd","location":{"type":"Point","coordinates":[-106.34144982102,31.751438577006]},"isApproved":true,"items":[],"keys":["Steakhouses","Barbeque","American (Traditional)"],"lastUpdated":1547527612437,"name":"Texas Roadhouse","phone":"(915) 591-7427","price":"$$","reviewCount":93,"reviewScore":4,"meta":{"revision":0,"created":1547531155760,"version":0},"$loki":192},{"_id":"5c3d65bd3525a329e0c01d8f","address":"6600 N Mesa St","location":{"type":"Point","coordinates":[-106.3392508,31.7477911]},"isApproved":true,"items":[],"keys":["Mexican"],"lastUpdated":1547527612259,"name":"Lucy’s Cafe West","phone":"(915) 842-8329","price":"$","reviewCount":57,"reviewScore":3.5,"meta":{"revision":0,"created":1547531155760,"version":0},"$loki":193},{"_id":"5c3d65bd3525a329e0c014ef","address":"2000 Texas Ave","location":{"type":"Point","coordinates":[-106.3305823,31.7659663]},"isApproved":true,"items":[],"keys":["Mexican","Cafes"],"lastUpdated":1547527612249,"name":"Café Mayapan","phone":"(915) 217-1126","price":"$","reviewCount":23,"reviewScore":4.5,"meta":{"revision":0,"created":1547531155760,"version":0},"$loki":194},{"_id":"5c3d65bd3525a329e0c1901b","address":"7400 Viscount","location":{"type":"Point","coordinates":[-106.3382391,31.7660226]},"isApproved":true,"items":[],"keys":["American (Traditional)","Mexican"],"lastUpdated":1547527612832,"name":"House Kitchen","phone":"(915) 779-2087","price":"","reviewCount":1,"reviewScore":5,"meta":{"revision":0,"created":1547531155760,"version":0},"$loki":195},{"_id":"5c3d65bd3525a329e0c08b82","address":"7446 Alameda Ave","location":{"type":"Point","coordinates":[-106.339360650926,31.7738901325504]},"isApproved":true,"items":[],"keys":["Mexican","Seafood"],"lastUpdated":1547527612436,"name":"La Playa Seafood Restaurant","phone":"(915) 771-8610","price":"$$","reviewCount":5,"reviewScore":5,"meta":{"revision":0,"created":1547531155760,"version":0},"$loki":196},{"_id":"5c3d65bd3525a329e0c0e2b1","address":"7046 Alameda Ave","location":{"type":"Point","coordinates":[-106.338752913864,31.7718837015331]},"isApproved":true,"items":[],"keys":["Mexican"],"lastUpdated":1547527612566,"name":"Doggo’s","phone":"(915) 778-1552","price":"$","reviewCount":8,"reviewScore":4,"meta":{"revision":0,"created":1547531155760,"version":0},"$loki":197},{"_id":"5c3d65bd3525a329e0c01adf","address":"5435 N Mesa St","location":{"type":"Point","coordinates":[-106.323660357394,31.782738179119]},"isApproved":true,"items":[],"keys":["Sushi Bars","Salad"],"lastUpdated":1547527612258,"name":"Sushi Garden","phone":"(915) 307-2122","price":"$$","reviewCount":216,"reviewScore":4.5,"meta":{"revision":0,"created":1547531155760,"version":0},"$loki":198},{"_id":"5c3d65bd3525a329e0c0866a","address":"830 N Piedras St","location":{"type":"Point","coordinates":[-106.3235528,31.7850422]},"isApproved":true,"items":[],"keys":["Pizza","Pubs"],"lastUpdated":1547527612427,"name":"1/8 Pizza Pub","phone":"(915) 345-1814","price":"$$","reviewCount":78,"reviewScore":4,"meta":{"revision":0,"created":1547531155760,"version":0},"$loki":199},{"_id":"5c3d65bd3525a329e0c0587f","address":"600 N El Paso St","location":{"type":"Point","coordinates":[-106.3226039,31.7853905]},"isApproved":true,"items":[],"keys":["American (Traditional)","Bars"],"lastUpdated":1547527612354,"name":"The Fire Restaurant","phone":"(915) 532-8733","price":"$$","reviewCount":26,"reviewScore":3,"meta":{"revision":0,"created":1547531155760,"version":0},"$loki":200},{"_id":"5c3d65bd3525a329e0c0f82d","address":"904 Texas Ave","location":{"type":"Point","coordinates":[-106.3188061,31.770871]},"isApproved":true,"items":[],"keys":["Mexican"],"lastUpdated":1547527612600,"name":"Mexican Cottage","phone":"(915) 546-9816","price":"$","reviewCount":5,"reviewScore":4.5,"meta":{"revision":0,"created":1547531155760,"version":0},"$loki":201},{"_id":"5c3d65bd3525a329e0c19723","address":"1029 E 7th Ave","location":{"type":"Point","coordinates":[-106.301235254707,31.769467304153]},"isApproved":true,"items":[],"keys":["Latin American","Tex-Mex","Mexican"],"lastUpdated":1547527612841,"name":"Jalisco Cafe","phone":"(915) 532-7174","price":"$","reviewCount":12,"reviewScore":5,"meta":{"revision":0,"created":1547531155760,"version":0},"$loki":202},{"_id":"5c3d65bd3525a329e0c0b59e","address":"6920 Delta Dr","location":{"type":"Point","coordinates":[-106.3010957,31.7699372]},"isApproved":true,"items":[],"keys":["Mexican"],"lastUpdated":1547527612499,"name":"Rainbow Fountain","phone":"(915) 779-5581","price":"$","reviewCount":3,"reviewScore":5,"meta":{"revision":0,"created":1547531155760,"version":0},"$loki":203},{"_id":"5c3d65bd3525a329e0c1738c","address":"2931 George Dieter Dr","location":{"type":"Point","coordinates":[-106.3029236,31.781562]},"isApproved":true,"items":[],"keys":["Donuts","Breakfast & Brunch","Coffee & Tea"],"lastUpdated":1547527612783,"name":"Burri-Dough","phone":"(915) 590-9999","price":"$","reviewCount":55,"reviewScore":4.5,"meta":{"revision":0,"created":1547531155760,"version":0},"$loki":204},{"_id":"5c3d65bd3525a329e0c0b7d3","address":"201 S El Paso St","location":{"type":"Point","coordinates":[-106.331675604899,31.7966450350367]},"isApproved":true,"items":[],"keys":["Pubs","American (New)","Music Venues"],"lastUpdated":1547527612505,"name":"B-17 Bombers Oyster Pub","phone":"(915) 259-8040","price":"","reviewCount":12,"reviewScore":4,"meta":{"revision":0,"created":1547531155760,"version":0},"$loki":205},{"_id":"5c3d65bd3525a329e0c029a0","address":"3630 Joe Battle Blvd","location":{"type":"Point","coordinates":[-106.267163984131,31.8000230610191]},"isApproved":true,"items":[],"keys":["Mexican"],"lastUpdated":1547527612286,"name":"Julio’s Cafe Corona","phone":"(915) 855-1537","price":"$$","reviewCount":62,"reviewScore":4,"meta":{"revision":0,"created":1547531155760,"version":0},"$loki":206},{"_id":"5c3d65bd3525a329e0c1af2b","address":"1515 Lee Trevino Dr","location":{"type":"Point","coordinates":[-106.259147040546,31.8060371289442]},"isApproved":true,"items":[],"keys":["Sushi Bars","Korean","Barbeque"],"lastUpdated":1547527612876,"name":"Koreana Bullgalbee","phone":"(915) 759-4020","price":"$$","reviewCount":154,"reviewScore":3.5,"meta":{"revision":0,"created":1547531155760,"version":0},"$loki":207},{"_id":"5c3d65bd3525a329e0c026ec","address":"4200 N Mesa St","location":{"type":"Point","coordinates":[-106.259147,31.806038]},"isApproved":true,"items":[],"keys":["Hot Dogs","Food Stands"],"lastUpdated":1547527612284,"name":"Dog & Dog’s Cravings","phone":"(915) 407-5045","price":"$","reviewCount":4,"reviewScore":4.5,"meta":{"revision":0,"created":1547531155760,"version":0},"$loki":208},{"_id":"5c3d65bd3525a329e0c06b4e","address":"1320 N Zaragoza Rd","location":{"type":"Point","coordinates":[-106.252943,31.808044]},"isApproved":true,"items":[],"keys":["American (Traditional)"],"lastUpdated":1547527612385,"name":"On the Grill","phone":"(915) 260-8313","price":"","reviewCount":4,"reviewScore":4,"meta":{"revision":0,"created":1547531155760,"version":0},"$loki":209},{"_id":"5c3d65bd3525a329e0c16071","address":"Ramón Rivera Lara 9012","location":{"type":"Point","coordinates":[-106.252943,31.808044]},"isApproved":true,"items":[],"keys":["Mexican"],"lastUpdated":1547527612756,"name":"La Nueva Central","phone":"656 215 9354","price":"","reviewCount":6,"reviewScore":2.5,"meta":{"revision":0,"created":1547531155760,"version":0},"$loki":210},{"_id":"5c3d65bd3525a329e0c041ca","address":"1350 George Dieter Dr","location":{"type":"Point","coordinates":[-106.2453192,31.8073193]},"isApproved":true,"items":[],"keys":["Bakeries","Cafes","American (Traditional)"],"lastUpdated":1547527612320,"name":"Corner Bakery Cafe","phone":"(915) 855-1873","price":"$","reviewCount":47,"reviewScore":4,"meta":{"revision":0,"created":1547531155760,"version":0},"$loki":211},{"_id":"5c3d65bd3525a329e0c19a07","address":"1355 George Dieter Dr","location":{"type":"Point","coordinates":[-106.248592607802,31.7951023437703]},"isApproved":true,"items":[],"keys":["Sandwiches","Delis","Salad"],"lastUpdated":1547527612848,"name":"Jason’s Deli","phone":"(915) 591-7600","price":"$","reviewCount":35,"reviewScore":3.5,"meta":{"revision":0,"created":1547531155760,"version":0},"$loki":212},{"_id":"5c3d65bd3525a329e0c0540d","address":"101 S El Paso St","location":{"type":"Point","coordinates":[-106.24392570328,31.7949944521385]},"isApproved":true,"items":[],"keys":["Soup","American (Traditional)"],"lastUpdated":1547527612347,"name":"Dome Restaurant","phone":"(915) 534-3010","price":"$$$$","reviewCount":9,"reviewScore":1.5,"meta":{"revision":0,"created":1547531155760,"version":0},"$loki":213},{"_id":"5c3d65bd3525a329e0c0dd1d","address":"2231 N Mesa St","location":{"type":"Point","coordinates":[-106.2361484,31.782626]},"isApproved":true,"items":[],"keys":["Coffee & Tea","Ice Cream & Frozen Yogurt","Creperies"],"lastUpdated":1547527612563,"name":"Kinley’s House Coffee & Tea","phone":"(915) 838-7177","price":"$","reviewCount":136,"reviewScore":4,"meta":{"revision":0,"created":1547531155760,"version":0},"$loki":214},{"_id":"5c3d65bd3525a329e0c002b6","address":"921 Texas Ave","location":{"type":"Point","coordinates":[-106.247598249372,31.7816270457039]},"isApproved":true,"items":[],"keys":["Bike Repair/Maintenance","Cafes","Sports Wear"],"lastUpdated":1547527612225,"name":"Podium Finish Sport Boutique & Cafe","phone":"(915) 313-4413","price":"","reviewCount":2,"reviewScore":5,"meta":{"revision":0,"created":1547531155760,"version":0},"$loki":215},{"_id":"5c3d65bd3525a329e0c0eb24","address":"Blvd. Manuel Gomez Morin 7424","location":{"type":"Point","coordinates":[-106.2514329,31.775736]},"isApproved":true,"items":[],"keys":["Pizza"],"lastUpdated":1547527612581,"name":"La Toscana","phone":"656 617 1362","price":"","reviewCount":7,"reviewScore":5,"meta":{"revision":0,"created":1547531155760,"version":0},"$loki":216},{"_id":"5c3d65bd3525a329e0c0318f","address":"3401 Dyer St","location":{"type":"Point","coordinates":[-106.224158138828,31.796718244879]},"isApproved":true,"items":[],"keys":["Mexican"],"lastUpdated":1547527612296,"name":"Chico’s Tacos","phone":"(915) 565-5555","price":"$","reviewCount":329,"reviewScore":3,"meta":{"revision":0,"created":1547531155760,"version":0},"$loki":217},{"_id":"5c3d65bd3525a329e0c0c7f1","address":"5325 McNutt Rd","location":{"type":"Point","coordinates":[-106.1835475,31.8177487]},"isApproved":true,"items":[],"keys":["Burgers"],"lastUpdated":1547527612526,"name":"Lucky Burger Express","phone":"(575) 589-4711","price":"","reviewCount":9,"reviewScore":3.5,"meta":{"revision":0,"created":1547531155760,"version":0},"$loki":218},{"_id":"5c3d65bd3525a329e0c08a8f","address":"12798 Edgemere Blvd","location":{"type":"Point","coordinates":[-106.4395922,31.8262147]},"isApproved":true,"items":[],"keys":["Pubs","Sandwiches"],"lastUpdated":1547527612430,"name":"B-2 Bombers Oyster Pub","phone":"(915) 704-4343","price":"","reviewCount":1,"reviewScore":5,"meta":{"revision":0,"created":1547531155760,"version":0},"$loki":219},{"_id":"5c3d65bd3525a329e0c011a7","address":"9008 Dyer St","location":{"type":"Point","coordinates":[-106.4390479,31.8488886]},"isApproved":true,"items":[],"keys":["Tacos","Burgers"],"lastUpdated":1547527612239,"name":"Fat Bear Burgers & Tacos","phone":"(915) 307-5027","price":"$","reviewCount":23,"reviewScore":3.5,"meta":{"revision":0,"created":1547531155760,"version":0},"$loki":220},{"_id":"5c3d65bd3525a329e0c1b105","address":"8100 Dyer St","location":{"type":"Point","coordinates":[-106.4385397,31.8536959]},"isApproved":true,"items":[],"keys":["Mexican"],"lastUpdated":1547527612877,"name":"El Sarape","phone":"(915) 751-9223","price":"$","reviewCount":38,"reviewScore":4,"meta":{"revision":0,"created":1547531155760,"version":0},"$loki":221},{"_id":"5c3d65bd3525a329e0c11764","address":"9100 Dyer St","location":{"type":"Point","coordinates":[-106.4356735,31.8572583]},"isApproved":true,"items":[],"keys":["Chicken Shop","American (Traditional)","Sandwiches"],"lastUpdated":1547527612650,"name":"Boss Chicken Dogs and Custard","phone":"(915) 206-2674","price":"","reviewCount":10,"reviewScore":2.5,"meta":{"revision":0,"created":1547531155760,"version":0},"$loki":222},{"_id":"5c3d65bd3525a329e0c1ab9b","address":"1769 Victory Ln","location":{"type":"Point","coordinates":[-106.4369524,31.857392]},"isApproved":true,"items":[],"keys":["Burgers","Pubs","Mexican"],"lastUpdated":1547527612869,"name":"Knife & Barrel Public House","phone":"(575) 404-6286","price":"","reviewCount":4,"reviewScore":4.5,"meta":{"revision":0,"created":1547531155760,"version":0},"$loki":223},{"_id":"5c3d65bd3525a329e0c1859b","address":"3501 Alameda","location":{"type":"Point","coordinates":[-106.4270145,31.8548953]},"isApproved":true,"items":[],"keys":["Mexican"],"lastUpdated":1547527612815,"name":"La Valentina Mexican Kitchen","phone":"(915) 283-4036","price":"","reviewCount":2,"reviewScore":5,"meta":{"revision":0,"created":1547531155760,"version":0},"$loki":224},{"_id":"5c3d65bd3525a329e0c0f84b","address":"Av de la Raza 6227","location":{"type":"Point","coordinates":[-106.41572,31.8703346]},"isApproved":true,"items":[],"keys":["Steakhouses","Sports Bars"],"lastUpdated":1547527612600,"name":"El Canano","phone":"656 643 1086","price":"","reviewCount":1,"reviewScore":4,"meta":{"revision":0,"created":1547531155760,"version":0},"$loki":225},{"_id":"5c3d65bd3525a329e0c136f4","address":"3623 Buckner","location":{"type":"Point","coordinates":[-106.4271563,31.8729055]},"isApproved":true,"items":[],"keys":["Mexican","Salad","Breakfast & Brunch"],"lastUpdated":1547527612697,"name":"The Lunch Box","phone":"(915) 599-1120","price":"$","reviewCount":47,"reviewScore":3.5,"meta":{"revision":0,"created":1547531155760,"version":0},"$loki":226},{"_id":"5c3d65bd3525a329e0c1630e","address":"3737 N Mesa St","location":{"type":"Point","coordinates":[-106.4271775,31.8702045]},"isApproved":true,"items":[],"keys":["Vietnamese"],"lastUpdated":1547527612763,"name":"Pho Tre Bien Bistro","phone":"(915) 307-2334","price":"$$","reviewCount":70,"reviewScore":3.5,"meta":{"revision":0,"created":1547531155760,"version":0},"$loki":227},{"_id":"5c3d65bd3525a329e0c10677","address":"204 Edgemere Blvd","location":{"type":"Point","coordinates":[-106.4273826,31.870242]},"isApproved":true,"items":[],"keys":["Mexican"],"lastUpdated":1547527612619,"name":"Tacos Don Cuco","phone":"","price":"$","reviewCount":30,"reviewScore":4,"meta":{"revision":0,"created":1547531155760,"version":0},"$loki":228},{"_id":"5c3d65bd3525a329e0c0ed30","address":"8949 Dyer St","location":{"type":"Point","coordinates":[-106.430903,31.866812]},"isApproved":true,"items":[],"keys":["Mexican"],"lastUpdated":1547527612582,"name":"Tacos El Toro Bronco 2","phone":"(915) 759-0599","price":"$","reviewCount":32,"reviewScore":4,"meta":{"revision":0,"created":1547531155760,"version":0},"$loki":229},{"_id":"5c3d65bd3525a329e0c127cd","address":"1515 N Lee Trevino Dr","location":{"type":"Point","coordinates":[-106.434053,31.870306]},"isApproved":true,"items":[],"keys":["American (Traditional)","Pizza","Sandwiches"],"lastUpdated":1547527612672,"name":"Coco.Miel","phone":"(915) 595-7170","price":"$$","reviewCount":107,"reviewScore":4,"meta":{"revision":0,"created":1547531155760,"version":0},"$loki":230},{"_id":"5c3d65bd3525a329e0c1416e","address":"4727 Hondo Pass Ave","location":{"type":"Point","coordinates":[-106.4317524,31.8701907]},"isApproved":true,"items":[],"keys":["Italian"],"lastUpdated":1547527612707,"name":"Buon Giorno Caffe","phone":"(915) 751-8820","price":"$","reviewCount":60,"reviewScore":5,"meta":{"revision":0,"created":1547531155760,"version":0},"$loki":231},{"_id":"5c3d65bd3525a329e0c12f51","address":"5860 N Mesa St","location":{"type":"Point","coordinates":[-106.42419743399,31.8749824919172]},"isApproved":true,"items":[],"keys":["Sushi Bars","Ramen","Korean"],"lastUpdated":1547527612687,"name":"Dragonfly Wine & Sushi Bistro","phone":"(915) 304-0775","price":"$$","reviewCount":138,"reviewScore":4,"meta":{"revision":0,"created":1547531155760,"version":0},"$loki":232},{"_id":"5c3d65bd3525a329e0c03b92","address":"9477 Dyer St","location":{"type":"Point","coordinates":[-106.4219538,31.8804726]},"isApproved":true,"items":[],"keys":["American (Traditional)","Bars"],"lastUpdated":1547527612312,"name":"Aviators Pub & Grub - Northeast","phone":"(915) 759-9966","price":"$","reviewCount":14,"reviewScore":4,"meta":{"revision":0,"created":1547531155760,"version":0},"$loki":233},{"_id":"5c3d65bd3525a329e0c060ef","address":"7945 N Mesa St","location":{"type":"Point","coordinates":[-106.4219538,31.8804726]},"isApproved":true,"items":[],"keys":["American (Traditional)"],"lastUpdated":1547527612368,"name":"Burro Time","phone":"(915) 845-7004","price":"$","reviewCount":9,"reviewScore":4.5,"meta":{"revision":0,"created":1547531155760,"version":0},"$loki":234},{"_id":"5c3d65bd3525a329e0c100d0","address":"8889 Gateway West Blvd","location":{"type":"Point","coordinates":[-106.418380066752,31.8854799087781]},"isApproved":true,"items":[],"keys":["Sandwiches","Fast Food","Delis"],"lastUpdated":1547527612610,"name":"Firehouse Subs","phone":"(915) 219-7123","price":"$","reviewCount":59,"reviewScore":4.5,"meta":{"revision":0,"created":1547531155760,"version":0},"$loki":235},{"_id":"5c3d65bd3525a329e0c0382b","address":"1201 Airway Blvd.","location":{"type":"Point","coordinates":[-106.4355352,31.8972562]},"isApproved":true,"items":[],"keys":["Pool Halls","Sports Bars","American (Traditional)"],"lastUpdated":1547527612304,"name":"Clicks Billiards","phone":"(915) 779-2153","price":"$$","reviewCount":19,"reviewScore":4,"meta":{"revision":0,"created":1547531155760,"version":0},"$loki":236},{"_id":"5c3d65bd3525a329e0c0ce16","address":"3901 Broaddus Ave","location":{"type":"Point","coordinates":[-106.422059074695,31.9039492749135]},"isApproved":true,"items":[],"keys":["Korean"],"lastUpdated":1547527612534,"name":"Chun Ju Restaurant","phone":"(915) 562-7543","price":"$$","reviewCount":38,"reviewScore":3.5,"meta":{"revision":0,"created":1547531155760,"version":0},"$loki":237},{"_id":"5c3d65bd3525a329e0c106f4","address":"","location":{"type":"Point","coordinates":[-106.406363412883,31.9055372383327]},"isApproved":true,"items":[],"keys":["Food Trucks","Pizza"],"lastUpdated":1547527612619,"name":"Red, White & Chew","phone":"(915) 701-4558","price":"$","reviewCount":4,"reviewScore":5,"meta":{"revision":0,"created":1547531155760,"version":0},"$loki":238},{"_id":"5c3d65bd3525a329e0c1884d","address":"10420 Montwood Dr","location":{"type":"Point","coordinates":[-106.4081685,31.9010912]},"isApproved":true,"items":[],"keys":["Steakhouses","American (Traditional)","Cocktail Bars"],"lastUpdated":1547527612822,"name":"Thirty 5ive Tavern & Grill","phone":"(915) 262-0730","price":"","reviewCount":22,"reviewScore":4.5,"meta":{"revision":0,"created":1547531155760,"version":0},"$loki":239},{"_id":"5c3d65bd3525a329e0c0509c","address":"10059 Dyer St","location":{"type":"Point","coordinates":[-106.4073242,31.9019485]},"isApproved":true,"items":[],"keys":["Mexican","Seafood"],"lastUpdated":1547527612340,"name":"Carnitas Tio Juan","phone":"(915) 751-4444","price":"$","reviewCount":30,"reviewScore":3.5,"meta":{"revision":0,"created":1547531155760,"version":0},"$loki":240},{"_id":"5c3d65bd3525a329e0c18fde","address":"8920 Gateway Blvd E","location":{"type":"Point","coordinates":[-106.406103260815,31.9016400484578]},"isApproved":true,"items":[],"keys":["Cafes"],"lastUpdated":1547527612832,"name":"Bonny’s Cafe","phone":"(915) 859-4605","price":"$","reviewCount":8,"reviewScore":4.5,"meta":{"revision":0,"created":1547531155760,"version":0},"$loki":241},{"_id":"5c3d65bd3525a329e0c0b67f","address":"Av. Vicente Guerrero S/N","location":{"type":"Point","coordinates":[-106.4124771,31.8954744]},"isApproved":true,"items":[],"keys":["Mexican"],"lastUpdated":1547527612500,"name":"La Pila","phone":"","price":"$","reviewCount":4,"reviewScore":5,"meta":{"revision":0,"created":1547531155760,"version":0},"$loki":242},{"_id":"5c3d65bd3525a329e0c0d6c5","address":"7100 Airport Rd","location":{"type":"Point","coordinates":[-106.407075561583,31.8910763578009]},"isApproved":true,"items":[],"keys":["Cafes"],"lastUpdated":1547527612554,"name":"Viva Cafe","phone":"(915) 771-8482","price":"$","reviewCount":14,"reviewScore":3.5,"meta":{"revision":0,"created":1547531155760,"version":0},"$loki":243},{"_id":"5c3d65bd3525a329e0c03b7d","address":"5010 N. Desert Boulevard","location":{"type":"Point","coordinates":[-106.374492354492,31.9037924401235]},"isApproved":true,"items":[],"keys":["Steakhouses","Barbeque","American (Traditional)"],"lastUpdated":1547527612312,"name":"Texas Roadhouse","phone":"(915) 832-0333","price":"$$","reviewCount":69,"reviewScore":4,"meta":{"revision":0,"created":1547531155760,"version":0},"$loki":244},{"_id":"5c3d65bd3525a329e0c03342","address":"9201 Gateway Blvd W","location":{"type":"Point","coordinates":[-106.4064732,31.9106856]},"isApproved":true,"items":[],"keys":["Mexican","Pubs"],"lastUpdated":1547527612302,"name":"Andale Mexican Restaurant & Cantina","phone":"(915) 590-5999","price":"$$","reviewCount":127,"reviewScore":4,"meta":{"revision":0,"created":1547531155760,"version":0},"$loki":245},{"_id":"5c3d65bd3525a329e0c1263e","address":"10771 Gateway Blvd S","location":{"type":"Point","coordinates":[-106.440157409224,31.9249073523]},"isApproved":true,"items":[],"keys":["American (New)"],"lastUpdated":1547527612671,"name":"Chase the Taste","phone":"(915) 270-9199","price":"$","reviewCount":85,"reviewScore":4.5,"meta":{"revision":0,"created":1547531155760,"version":0},"$loki":246},{"_id":"5c3d65bd3525a329e0c1a179","address":"218 E Mills Ave","location":{"type":"Point","coordinates":[-106.43812,31.92298]},"isApproved":true,"items":[],"keys":["Mexican","Gluten-Free","Vegetarian"],"lastUpdated":1547527612857,"name":"Zona Centro Mexican Eatery","phone":"(915) 444-8439","price":"","reviewCount":9,"reviewScore":4.5,"meta":{"revision":0,"created":1547531155760,"version":0},"$loki":247},{"_id":"5c3d65bd3525a329e0c169e4","address":"1700 Myrtle Ave","location":{"type":"Point","coordinates":[-106.4454413,31.8310712]},"isApproved":true,"items":[],"keys":["Barbeque","American (Traditional)"],"lastUpdated":1547527612773,"name":"Tony’s the Pit Bar-B-Q","phone":"(915) 546-9140","price":"$","reviewCount":28,"reviewScore":4,"meta":{"revision":0,"created":1547531155760,"version":0},"$loki":248},{"_id":"5c3d65bd3525a329e0c17be9","address":"Bulevar Tomás Fernández 8450","location":{"type":"Point","coordinates":[-106.4454216,31.8307315]},"isApproved":true,"items":[],"keys":["Mexican"],"lastUpdated":1547527612800,"name":"Restaurante Terraza Jardín Cibeles","phone":"656 688 0580","price":"","reviewCount":1,"reviewScore":5,"meta":{"revision":0,"created":1547531155760,"version":0},"$loki":249},{"_id":"5c3d65bd3525a329e0c07725","address":"1617 Pleasonton Rd","location":{"type":"Point","coordinates":[-106.4453953,31.8314234]},"isApproved":true,"items":[],"keys":["Beer Bar","Burgers","Sandwiches"],"lastUpdated":1547527612402,"name":"World of Beer","phone":"(915) 219-8264","price":"$$","reviewCount":22,"reviewScore":3.5,"meta":{"revision":0,"created":1547531155760,"version":0},"$loki":250},{"_id":"5c3d65bd3525a329e0c17ced","address":"7158 Doniphan Dr","location":{"type":"Point","coordinates":[-106.4454002,31.8315454]},"isApproved":true,"items":[],"keys":["Tacos"],"lastUpdated":1547527612800,"name":"Mr. Papas De Sonora","phone":"(915) 834-9105","price":"","reviewCount":1,"reviewScore":4,"meta":{"revision":0,"created":1547531155760,"version":0},"$loki":251},{"_id":"5c3d65bd3525a329e0c17969","address":"7500 N Mesa St","location":{"type":"Point","coordinates":[-106.4448841,31.830663]},"isApproved":true,"items":[],"keys":["Mexican"],"lastUpdated":1547527612792,"name":"Tacos Chinampa","phone":"(915) 581-6157","price":"$","reviewCount":78,"reviewScore":4,"meta":{"revision":0,"created":1547531155760,"version":0},"$loki":252},{"_id":"5c3d65bd3525a329e0c10007","address":"4172 N Mesa St","location":{"type":"Point","coordinates":[-106.4446821,31.8300687]},"isApproved":true,"items":[],"keys":["Modern European"],"lastUpdated":1547527612609,"name":"Buena Vista Cafe","phone":"","price":"","reviewCount":1,"reviewScore":5,"meta":{"revision":0,"created":1547531155760,"version":0},"$loki":253},{"_id":"5c3d65bd3525a329e0c19e34","address":"6200 Montana Ave","location":{"type":"Point","coordinates":[-106.445437,31.82798]},"isApproved":true,"items":[],"keys":["Mexican"],"lastUpdated":1547527612851,"name":"El Chihuahuita’s Tacos Al Pastor","phone":"(915) 772-0006","price":"$","reviewCount":84,"reviewScore":4,"meta":{"revision":0,"created":1547531155760,"version":0},"$loki":254},{"_id":"5c3d65bd3525a329e0c1aba9","address":"1831 N Zaragoza Rd","location":{"type":"Point","coordinates":[-106.465842,31.822359]},"isApproved":true,"items":[],"keys":["Hawaiian","Barbeque","Asian Fusion"],"lastUpdated":1547527612869,"name":"Aloha Hawaiian BBQ","phone":"(915) 857-7900","price":"$","reviewCount":67,"reviewScore":3.5,"meta":{"revision":0,"created":1547531155760,"version":0},"$loki":255},{"_id":"5c3d65bd3525a329e0c000cd","address":"9910 Montana Ave","location":{"type":"Point","coordinates":[-106.526521223822,31.8320359648266]},