{"filename":"-106.75-40.5","collections":[{"name":"restaurants","data":[{"_id":"5c3d65bd3525a329e0c036bd","address":"40 Moffat Ave","location":{"type":"Point","coordinates":[-106.959021,40.276211]},"isApproved":true,"items":[],"keys":["American (New)","Bars"],"lastUpdated":1547527612303,"name":"Antlers Cafe & Bar","phone":"(970) 638-4555","price":"$$","reviewCount":11,"reviewScore":4,"meta":{"revision":0,"created":1547531151493,"version":0},"$loki":1},{"_id":"5c3d65bd3525a329e0c18a2e","address":"112 W Main St","location":{"type":"Point","coordinates":[-106.9585308,40.275106]},"isApproved":true,"items":[],"keys":["Barbeque","Breakfast & Brunch"],"lastUpdated":1547527612823,"name":"Rachel’s Smokin BBQ Sauce","phone":"(970) 736-1196","price":"$","reviewCount":22,"reviewScore":4.5,"meta":{"revision":0,"created":1547531151493,"version":0},"$loki":2},{"_id":"5c3d65bd3525a329e0c144c7","address":"202 Sharp St","location":{"type":"Point","coordinates":[-106.9556,40.275621]},"isApproved":true,"items":[],"keys":["Gastropubs","Music Venues","Tapas/Small Plates"],"lastUpdated":1547527612714,"name":"Circle R Gastropub","phone":"(970) 736-1018","price":"$$","reviewCount":6,"reviewScore":4,"meta":{"revision":0,"created":1547531151493,"version":0},"$loki":3},{"_id":"5c3d65bd3525a329e0c03e28","address":"207 9th St","location":{"type":"Point","coordinates":[-106.971727092188,40.2735506852377]},"isApproved":true,"items":[],"keys":["Southern","Chicken Wings","Cocktail Bars"],"lastUpdated":1547527612313,"name":"Low Country Kitchen","phone":"(970) 761-2693","price":"$$","reviewCount":153,"reviewScore":4,"meta":{"revision":0,"created":1547531151493,"version":0},"$loki":4},{"_id":"5c3d65bd3525a329e0c11d46","address":"1755 Lincoln Blvd","location":{"type":"Point","coordinates":[-106.97868347168,40.4317916323236]},"isApproved":true,"items":[],"keys":["Tacos"],"lastUpdated":1547527612661,"name":"Taco Cabo","phone":"(970) 846-2307","price":"$","reviewCount":157,"reviewScore":4.5,"meta":{"revision":0,"created":1547531151493,"version":0},"$loki":5},{"_id":"5c3d65bd3525a329e0c045df","address":"61070 County Rd 129","location":{"type":"Point","coordinates":[-106.868233339255,40.5038413680189]},"isApproved":true,"items":[],"keys":["Cafes"],"lastUpdated":1547527612328,"name":"Hahns Peak Cafe","phone":"(970) 871-1495","price":"","reviewCount":13,"reviewScore":3.5,"meta":{"revision":0,"created":1547531151493,"version":0},"$loki":6},{"_id":"5c3d65bd3525a329e0c14713","address":"635 Lincoln Ave","location":{"type":"Point","coordinates":[-106.868233339255,40.5038413680189]},"isApproved":true,"items":[],"keys":["Sandwiches","Salad","Delis"],"lastUpdated":1547527612716,"name":"Backcountry Delicatessen/Provisions","phone":"(970) 879-3617","price":"$$","reviewCount":77,"reviewScore":4,"meta":{"revision":0,"created":1547531151493,"version":0},"$loki":7},{"_id":"5c3d65bd3525a329e0c02f0a","address":"11005 County Rd 51A","location":{"type":"Point","coordinates":[-106.8582628,40.5098127]},"isApproved":true,"items":[],"keys":["American (Traditional)"],"lastUpdated":1547527612294,"name":"3 Wire Bar and Grill","phone":"(970) 276-5070","price":"$$","reviewCount":2,"reviewScore":2.5,"meta":{"revision":0,"created":1547531151493,"version":0},"$loki":8},{"_id":"5c3d65bd3525a329e0c0ea62","address":"413 Park Ave","location":{"type":"Point","coordinates":[-106.8540218,40.4970732]},"isApproved":true,"items":[],"keys":["Chinese","Asian Fusion"],"lastUpdated":1547527612581,"name":"Mt. Dragon","phone":"(970) 724-1228","price":"$$","reviewCount":33,"reviewScore":4,"meta":{"revision":0,"created":1547531151493,"version":0},"$loki":9},{"_id":"5c3d65bd3525a329e0c02d4e","address":"Riverside Plz","location":{"type":"Point","coordinates":[-106.8549437,40.5018833]},"isApproved":true,"items":[],"keys":["American (Traditional)","Breakfast & Brunch","Vegetarian"],"lastUpdated":1547527612294,"name":"Sharons","phone":"(970) 761-2467","price":"$$","reviewCount":21,"reviewScore":4,"meta":{"revision":0,"created":1547531151493,"version":0},"$loki":10},{"_id":"5c3d65bd3525a329e0c010f6","address":"1898 Kamar Plz","location":{"type":"Point","coordinates":[-106.8576175,40.5014832]},"isApproved":true,"items":[],"keys":["Barbeque"],"lastUpdated":1547527612239,"name":"Moe’s Original Bar B Que","phone":"(970) 879-1615","price":"$$","reviewCount":44,"reviewScore":4,"meta":{"revision":0,"created":1547531151493,"version":0},"$loki":11},{"_id":"5c3d65bd3525a329e0c15efb","address":"2835 Downhill Plz","location":{"type":"Point","coordinates":[-106.8576175,40.5014832]},"isApproved":true,"items":[],"keys":["Cafes","Coffee Roasteries","Coffee & Tea"],"lastUpdated":1547527612756,"name":"Big Iron Coffee","phone":"(970) 390-0942","price":"","reviewCount":2,"reviewScore":3,"meta":{"revision":0,"created":1547531151493,"version":0},"$loki":12},{"_id":"5c3d65bd3525a329e0c06506","address":"1755 Central Park Dr","location":{"type":"Point","coordinates":[-106.8574331,40.5020601]},"isApproved":true,"items":[],"keys":["Sandwiches","Fast Food","Delis"],"lastUpdated":1547527612377,"name":"Jimmy John’s","phone":"(970) 761-2580","price":"$","reviewCount":28,"reviewScore":2,"meta":{"revision":0,"created":1547531151493,"version":0},"$loki":13},{"_id":"5c3d65bd3525a329e0c0d0f3","address":"2754 Downhill Dr","location":{"type":"Point","coordinates":[-106.8551988,40.5025899]},"isApproved":true,"items":[],"keys":["Live/Raw Food","Nutritionists","Juice Bars & Smoothies"],"lastUpdated":1547527612545,"name":"Joose","phone":"(970) 846-5818","price":"","reviewCount":3,"reviewScore":5,"meta":{"revision":0,"created":1547531151493,"version":0},"$loki":14},{"_id":"5c3d65bd3525a329e0c0ebe5","address":"685 Marketplace Plz","location":{"type":"Point","coordinates":[-106.838811,40.48762]},"isApproved":true,"items":[],"keys":["Pizza","Salad","Chicken Wings"],"lastUpdated":1547527612582,"name":"Blue Sage Pizza","phone":"(970) 870-8600","price":"$$","reviewCount":92,"reviewScore":4,"meta":{"revision":0,"created":1547531151493,"version":0},"$loki":15},{"_id":"5c3d65bd3525a329e0c05f8d","address":"2300 Mount Werner Cir","location":{"type":"Point","coordinates":[-106.839034,40.487747]},"isApproved":true,"items":[],"keys":["Bars","American (Traditional)"],"lastUpdated":1547527612368,"name":"Bear River","phone":"(970) 871-5165","price":"$$","reviewCount":35,"reviewScore":3,"meta":{"revision":0,"created":1547531151493,"version":0},"$loki":16},{"_id":"5c3d65bd3525a329e0c0923c","address":"1117 Lincoln Ave","location":{"type":"Point","coordinates":[-106.8386025,40.4880316]},"isApproved":true,"items":[],"keys":["Breakfast & Brunch","Cafes","Juice Bars & Smoothies"],"lastUpdated":1547527612452,"name":"Seedz Cafe","phone":"(970) 761-2276","price":"$$","reviewCount":23,"reviewScore":4,"meta":{"revision":0,"created":1547531151493,"version":0},"$loki":17},{"_id":"5c3d65bd3525a329e0c02b86","address":"216 E Main St","location":{"type":"Point","coordinates":[-106.8375884,40.4887631]},"isApproved":true,"items":[],"keys":["Cafes"],"lastUpdated":1547527612287,"name":"Kate’s Cafe","phone":"(970) 736-8491","price":"$","reviewCount":14,"reviewScore":4.5,"meta":{"revision":0,"created":1547531151493,"version":0},"$loki":18},{"_id":"5c3d65bd3525a329e0c14b65","address":"825 Oak St","location":{"type":"Point","coordinates":[-106.8374578,40.4886893]},"isApproved":true,"items":[],"keys":["American (Traditional)","Burgers","Bars"],"lastUpdated":1547527612729,"name":"Back Door Grill","phone":"(970) 871-7888","price":"$$","reviewCount":300,"reviewScore":4.5,"meta":{"revision":0,"created":1547531151493,"version":0},"$loki":19},{"_id":"5c3d65bd3525a329e0c0e760","address":"37350 Co Rd 179","location":{"type":"Point","coordinates":[-106.8380181,40.4884285]},"isApproved":true,"items":[],"keys":["Tubing","Horseback Riding","American (Traditional)"],"lastUpdated":1547527612574,"name":"Saddleback Ranch","phone":"(970) 879-3711","price":"$$$$","reviewCount":62,"reviewScore":4.5,"meta":{"revision":0,"created":1547531151493,"version":0},"$loki":20},{"_id":"5c3d65bd3525a329e0c0077b","address":"11TH And Lincoln","location":{"type":"Point","coordinates":[-106.8377522,40.487848]},"isApproved":true,"items":[],"keys":["Indonesian","Thai","Malaysian"],"lastUpdated":1547527612228,"name":"Sumatera","phone":"(970) 879-2929","price":"$$","reviewCount":123,"reviewScore":4,"meta":{"revision":0,"created":1547531151493,"version":0},"$loki":21},{"_id":"5c3d65bd3525a329e0c095da","address":"1855 Ski Time Square Dr","location":{"type":"Point","coordinates":[-106.8379975,40.487191]},"isApproved":true,"items":[],"keys":["Desserts","Salad","Sandwiches"],"lastUpdated":1547527612453,"name":"Rye","phone":"(970) 871-5192","price":"","reviewCount":2,"reviewScore":4,"meta":{"revision":0,"created":1547531151493,"version":0},"$loki":22},{"_id":"5c3d65bd3525a329e0c0ce88","address":"690 Marketplace Plz","location":{"type":"Point","coordinates":[-106.8348689,40.4879322]},"isApproved":true,"items":[],"keys":["American (Traditional)","Comfort Food"],"lastUpdated":1547527612534,"name":"The Rusted Porch","phone":"(970) 879-1455","price":"$$","reviewCount":146,"reviewScore":3.5,"meta":{"revision":0,"created":1547531151493,"version":0},"$loki":23},{"_id":"5c3d65bd3525a329e0c0e1c4","address":"98 Moffat Ave","location":{"type":"Point","coordinates":[-106.830289922655,40.4831498746471]},"isApproved":true,"items":[],"keys":["Diners","American (Traditional)","Breakfast & Brunch"],"lastUpdated":1547527612565,"name":"Penny’s Diner - Oak Tree Inn","phone":"(970) 638-1000","price":"$","reviewCount":13,"reviewScore":2.5,"meta":{"revision":0,"created":1547531151493,"version":0},"$loki":24},{"_id":"5c3d65bd3525a329e0c1211a","address":"54175 County Rd 129","location":{"type":"Point","coordinates":[-106.830289922655,40.4831498746471]},"isApproved":true,"items":[],"keys":["Grocery","Beer, Wine & Spirits","Delis"],"lastUpdated":1547527612663,"name":"The Clark Store","phone":"(970) 879-3849","price":"$$","reviewCount":18,"reviewScore":4.5,"meta":{"revision":0,"created":1547531151493,"version":0},"$loki":25},{"_id":"5c3d65bd3525a329e0c0cd7e","address":"131 11th St","location":{"type":"Point","coordinates":[-106.8313628,40.4837578]},"isApproved":true,"items":[],"keys":["American (Traditional)","Breakfast & Brunch"],"lastUpdated":1547527612534,"name":"Creekside Cafe & Grill","phone":"(970) 879-4925","price":"$$","reviewCount":530,"reviewScore":4.5,"meta":{"revision":0,"created":1547531151493,"version":0},"$loki":26},{"_id":"5c3d65bd3525a329e0c0725c","address":"County Rd 51A","location":{"type":"Point","coordinates":[-106.8317158,40.4849769]},"isApproved":true,"items":[],"keys":["American (Traditional)"],"lastUpdated":1547527612398,"name":"Way Station","phone":"","price":"$$","reviewCount":4,"reviewScore":2.5,"meta":{"revision":0,"created":1547531151493,"version":0},"$loki":27},{"_id":"5c3d65bd3525a329e0c0b751","address":"521 Lincoln Ave","location":{"type":"Point","coordinates":[-106.832001025237,40.4844650974428]},"isApproved":true,"items":[],"keys":["Italian","Wine Bars","Pizza"],"lastUpdated":1547527612505,"name":"Mambo Italiano","phone":"(970) 870-0500","price":"$$","reviewCount":207,"reviewScore":4,"meta":{"revision":0,"created":1547531151493,"version":0},"$loki":28},{"_id":"5c3d65bd3525a329e0c15158","address":"476 Main St","location":{"type":"Point","coordinates":[-106.8324836,40.4848765]},"isApproved":true,"items":[],"keys":["Barbeque"],"lastUpdated":1547527612737,"name":"All Smoked Up BBQ","phone":"(970) 218-4626","price":"","reviewCount":9,"reviewScore":4.5,"meta":{"revision":0,"created":1547531151493,"version":0},"$loki":29},{"_id":"5c3d65bd3525a329e0c17f66","address":"2305 Mount Werner Cir","location":{"type":"Point","coordinates":[-106.8324836,40.4848765]},"isApproved":true,"items":[],"keys":["American (Traditional)"],"lastUpdated":1547527612802,"name":"Stoker Bar & Restaurant","phone":"(970) 879-6111","price":"$$","reviewCount":6,"reviewScore":3.5,"meta":{"revision":0,"created":1547531151493,"version":0},"$loki":30},{"_id":"5c3d65bd3525a329e0c19c47","address":"435 Lincoln Ave","location":{"type":"Point","coordinates":[-106.832906,40.485495]},"isApproved":true,"items":[],"keys":["Pubs","American (Traditional)"],"lastUpdated":1547527612850,"name":"Mahogany Ridge Brewery & Grill","phone":"(970) 879-3773","price":"$$","reviewCount":376,"reviewScore":4,"meta":{"revision":0,"created":1547531151493,"version":0},"$loki":31},{"_id":"5c3d65bd3525a329e0c15818","address":"1585 Mid Valley Dr","location":{"type":"Point","coordinates":[-106.8335321,40.4857732]},"isApproved":true,"items":[],"keys":["Pizza"],"lastUpdated":1547527612747,"name":"Soda Creek Pizza","phone":"(970) 871-1111","price":"$$","reviewCount":27,"reviewScore":3.5,"meta":{"revision":0,"created":1547531151493,"version":0},"$loki":32},{"_id":"5c3d65bd3525a329e0c019fd","address":"912 Lincoln Ave","location":{"type":"Point","coordinates":[-106.833776123822,40.4859439609794]},"isApproved":true,"items":[],"keys":["Pizza","Gelato"],"lastUpdated":1547527612257,"name":"Ciao Gelato","phone":"(970) 233-0080","price":"$","reviewCount":24,"reviewScore":4.5,"meta":{"revision":0,"created":1547531151493,"version":0},"$loki":33},{"_id":"5c3d65bd3525a329e0c16f8a","address":"818 Lincoln Ave","location":{"type":"Point","coordinates":[-106.8347767,40.48667]},"isApproved":true,"items":[],"keys":["Latin American","Tapas/Small Plates","Beer, Wine & Spirits"],"lastUpdated":1547527612781,"name":"Bésame","phone":"(970) 761-2561","price":"$$$","reviewCount":31,"reviewScore":4,"meta":{"revision":0,"created":1547531151493,"version":0},"$loki":34},{"_id":"5c3d65bd3525a329e0c15604","address":"3190 S Lincoln Ave","location":{"type":"Point","coordinates":[-106.8345278,40.4871694]},"isApproved":true,"items":[],"keys":["American (Traditional)","Bars","Venues & Event Spaces"],"lastUpdated":1547527612746,"name":"Rex’s American Bar & Grill","phone":"(970) 870-0438","price":"$$","reviewCount":279,"reviewScore":4,"meta":{"revision":0,"created":1547531151493,"version":0},"$loki":35},{"_id":"5c3d65bd3525a329e0c0b805","address":"198 E Lincoln Ave","location":{"type":"Point","coordinates":[-106.83533,40.486977]},"isApproved":true,"items":[],"keys":["Coffee & Tea","Breakfast & Brunch","Bakeries"],"lastUpdated":1547527612505,"name":"Wild Goose Coffee At the Granary","phone":"(970) 276-4250","price":"$","reviewCount":14,"reviewScore":5,"meta":{"revision":0,"created":1547531151493,"version":0},"$loki":36},{"_id":"5c3d65bd3525a329e0c0308e","address":"41 8th St","location":{"type":"Point","coordinates":[-106.835427,40.485755]},"isApproved":true,"items":[],"keys":["Italian"],"lastUpdated":1547527612295,"name":"Cugino’s Italian Restaurant & Pizzeria","phone":"(970) 879-5805","price":"$$","reviewCount":169,"reviewScore":3.5,"meta":{"revision":0,"created":1547531151493,"version":0},"$loki":37},{"_id":"5c3d65bd3525a329e0c06b0e","address":"609 Yampa St","location":{"type":"Point","coordinates":[-106.8340853,40.4862319]},"isApproved":true,"items":[],"keys":["Sushi Bars","Asian Fusion","American (Traditional)"],"lastUpdated":1547527612380,"name":"Sake2U","phone":"(970) 870-1019","price":"$$","reviewCount":94,"reviewScore":3,"meta":{"revision":0,"created":1547531151493,"version":0},"$loki":38},{"_id":"5c3d65bd3525a329e0c0623c","address":"740 Lincoln Ave","location":{"type":"Point","coordinates":[-106.834175772965,40.4861227153048]},"isApproved":true,"items":[],"keys":["American (Traditional)"],"lastUpdated":1547527612369,"name":"The Shack Cafe","phone":"(970) 879-9975","price":"$$","reviewCount":80,"reviewScore":3.5,"meta":{"revision":0,"created":1547531151493,"version":0},"$loki":39},{"_id":"5c3d65bd3525a329e0c0d8ce","address":"737 Lincoln Ave","location":{"type":"Point","coordinates":[-106.8345044,40.485822]},"isApproved":true,"items":[],"keys":["Juice Bars & Smoothies","Organic Stores","Vegetarian"],"lastUpdated":1547527612555,"name":"Rootz Organic Cafe & Shop","phone":"(970) 871-4510","price":"$$","reviewCount":107,"reviewScore":4.5,"meta":{"revision":0,"created":1547531151493,"version":0},"$loki":40},{"_id":"5c3d65bd3525a329e0c07204","address":"115 W Park Ave","location":{"type":"Point","coordinates":[-106.8345001,40.485822]},"isApproved":true,"items":[],"keys":["Cafes"],"lastUpdated":1547527612398,"name":"The Moose Cafe","phone":"(970) 724-9987","price":"$","reviewCount":36,"reviewScore":3.5,"meta":{"revision":0,"created":1547531151493,"version":0},"$loki":41},{"_id":"5c3d65bd3525a329e0c18df8","address":"600 Lincoln Ave","location":{"type":"Point","coordinates":[-106.8347319,40.485783]},"isApproved":true,"items":[],"keys":["Pubs","American (Traditional)"],"lastUpdated":1547527612831,"name":"Old Town Pub & Restaurant","phone":"(970) 879-2101","price":"$$","reviewCount":110,"reviewScore":3.5,"meta":{"revision":0,"created":1547531151493,"version":0},"$loki":42},{"_id":"5c3d65bd3525a329e0c15df0","address":"700 Yampa St","location":{"type":"Point","coordinates":[-106.834124,40.4858496]},"isApproved":true,"items":[],"keys":["Pizza","Beer Bar","Beer, Wine & Spirits"],"lastUpdated":1547527612755,"name":"otto PINT","phone":"(970) 875-3304","price":"","reviewCount":29,"reviewScore":4,"meta":{"revision":0,"created":1547531151493,"version":0},"$loki":43},{"_id":"5c3d65bd3525a329e0c0d72a","address":"2300 Mount Werner Cir","location":{"type":"Point","coordinates":[-106.834416,40.4856469]},"isApproved":true,"items":[],"keys":["American (Traditional)"],"lastUpdated":1547527612554,"name":"The Cabin","phone":"(970) 879-5550","price":"$$","reviewCount":31,"reviewScore":3,"meta":{"revision":0,"created":1547531151493,"version":0},"$loki":44},{"_id":"5c3d65bd3525a329e0c15f20","address":"2045 Ski Time Square Dr","location":{"type":"Point","coordinates":[-106.834522,40.484724]},"isApproved":true,"items":[],"keys":["Bars","Salad"],"lastUpdated":1547527612756,"name":"T Bar At Steamboat","phone":"(970) 879-6652","price":"$$","reviewCount":44,"reviewScore":4.5,"meta":{"revision":0,"created":1547531151493,"version":0},"$loki":45},{"_id":"5c3d65bd3525a329e0c0cf6a","address":"635 Lincoln Ave","location":{"type":"Point","coordinates":[-106.834657398409,40.4848824954935]},"isApproved":true,"items":[],"keys":["Pizza","Italian","Bars"],"lastUpdated":1547527612535,"name":"The Corner Slice","phone":"(970) 871-0005","price":"","reviewCount":6,"reviewScore":4.5,"meta":{"revision":0,"created":1547531151493,"version":0},"$loki":46},{"_id":"5c3d65bd3525a329e0c12184","address":"2200 Village Inn Ct","location":{"type":"Point","coordinates":[-106.833493,40.485128]},"isApproved":true,"items":[],"keys":["Bars","American (Traditional)"],"lastUpdated":1547527612663,"name":"Saddles Bar & Grille","phone":"(970) 879-2220","price":"$$","reviewCount":19,"reviewScore":3,"meta":{"revision":0,"created":1547531151493,"version":0},"$loki":47},{"_id":"5c3d65bd3525a329e0c11d62","address":"1110 Yampa St","location":{"type":"Point","coordinates":[-106.8335321,40.4850772]},"isApproved":true,"items":[],"keys":["Ramen","Sushi Bars","Bars"],"lastUpdated":1547527612661,"name":"Yama","phone":"(970) 761-2087","price":"$$$","reviewCount":69,"reviewScore":4,"meta":{"revision":0,"created":1547531151493,"version":0},"$loki":48},{"_id":"5c3d65bd3525a329e0c1035f","address":"635 Lincoln Ave","location":{"type":"Point","coordinates":[-106.8331513,40.4852354]},"isApproved":true,"items":[],"keys":["Vietnamese","Noodles"],"lastUpdated":1547527612617,"name":"Noodles & More Saigon Cafe","phone":"(970) 870-1544","price":"$$","reviewCount":139,"reviewScore":3.5,"meta":{"revision":0,"created":1547531151493,"version":0},"$loki":49},{"_id":"5c3d65bd3525a329e0c04406","address":"635 Lincoln Ave","location":{"type":"Point","coordinates":[-106.833127,40.485237]},"isApproved":true,"items":[],"keys":["Greek","Salad","Food Trucks"],"lastUpdated":1547527612322,"name":"Skull Creek Greek","phone":"(970) 879-1339","price":"$","reviewCount":84,"reviewScore":4.5,"meta":{"revision":0,"created":1547531151493,"version":0},"$loki":50},{"_id":"5c3d65bd3525a329e0c0a011","address":"617 Lincoln Ave","location":{"type":"Point","coordinates":[-106.8331173,40.4849413]},"isApproved":true,"items":[],"keys":["Breakfast & Brunch","Bakeries","American (Traditional)"],"lastUpdated":1547527612472,"name":"Winona’s Restaurant","phone":"(970) 879-2483","price":"$$","reviewCount":356,"reviewScore":4.5,"meta":{"revision":0,"created":1547531151493,"version":0},"$loki":51},{"_id":"5c3d65bd3525a329e0c0d92a","address":"729 Lincoln Ave","location":{"type":"Point","coordinates":[-106.833956,40.48415]},"isApproved":true,"items":[],"keys":["American (Traditional)","Sports Bars","Desserts"],"lastUpdated":1547527612555,"name":"The Tap House","phone":"(970) 879-2431","price":"$$","reviewCount":147,"reviewScore":3.5,"meta":{"revision":0,"created":1547531151493,"version":0},"$loki":52},{"_id":"5c3d65bd3525a329e0c010d0","address":"811 Yampa St","location":{"type":"Point","coordinates":[-106.8359407,40.4852789]},"isApproved":true,"items":[],"keys":["American (New)","Wine Bars","Venues & Event Spaces"],"lastUpdated":1547527612239,"name":"Aurum Food & Wine","phone":"(970) 879-9500","price":"$$$","reviewCount":148,"reviewScore":4,"meta":{"revision":0,"created":1547531151493,"version":0},"$loki":53},{"_id":"5c3d65bd3525a329e0c14b04","address":"460 Main St","location":{"type":"Point","coordinates":[-106.8359407,40.4852789]},"isApproved":true,"items":[],"keys":["Bars","Seafood","American (Traditional)"],"lastUpdated":1547527612728,"name":"River Rock Cafe","phone":"(970) 723-4670","price":"$$","reviewCount":39,"reviewScore":4,"meta":{"revision":0,"created":1547531151493,"version":0},"$loki":54},{"_id":"5c3d65bd3525a329e0c15d8e","address":"735 Yampa St","location":{"type":"Point","coordinates":[-106.8365997,40.4856517]},"isApproved":true,"items":[],"keys":["Bars","Cajun/Creole"],"lastUpdated":1547527612755,"name":"Sunpie’s Bistro","phone":"(970) 870-3360","price":"$","reviewCount":119,"reviewScore":4,"meta":{"revision":0,"created":1547531151493,"version":0},"$loki":55},{"_id":"5c3d65bd3525a329e0c0933d","address":"701 Yampa St","location":{"type":"Point","coordinates":[-106.836168306787,40.4857204199682]},"isApproved":true,"items":[],"keys":["Steakhouses","Seafood","Bars"],"lastUpdated":1547527612452,"name":"E3 Chophouse","phone":"(970) 879-7167","price":"$$$","reviewCount":212,"reviewScore":3.5,"meta":{"revision":0,"created":1547531151493,"version":0},"$loki":56},{"_id":"5c3d65bd3525a329e0c148d7","address":"911 Lincoln Ave","location":{"type":"Point","coordinates":[-106.8362433,40.4867203]},"isApproved":true,"items":[],"keys":["French","American (New)","Wine Bars"],"lastUpdated":1547527612727,"name":"Harwigs","phone":"(970) 879-1919","price":"$$$","reviewCount":83,"reviewScore":4,"meta":{"revision":0,"created":1547531151493,"version":0},"$loki":57},{"_id":"5c3d65bd3525a329e0c119fb","address":"310 Park Center Ave","location":{"type":"Point","coordinates":[-106.8358579,40.4871848]},"isApproved":true,"items":[],"keys":["Fast Food","Sandwiches"],"lastUpdated":1547527612651,"name":"Subway","phone":"(970) 724-9578","price":"","reviewCount":2,"reviewScore":4.5,"meta":{"revision":0,"created":1547531151493,"version":0},"$loki":58},{"_id":"5c3d65bd3525a329e0c0fc5b","address":"325 Anglers Dr","location":{"type":"Point","coordinates":[-106.8358599,40.4871848]},"isApproved":true,"items":[],"keys":["Breakfast & Brunch","Cafes","American (Traditional)"],"lastUpdated":1547527612607,"name":"The Egg & I","phone":"(970) 871-4633","price":"$$","reviewCount":84,"reviewScore":4.5,"meta":{"revision":0,"created":1547531151493,"version":0},"$loki":59},{"_id":"5c3d65bd3525a329e0c01798","address":"917 Lincoln Ave","location":{"type":"Point","coordinates":[-106.8364361,40.4867733]},"isApproved":true,"items":[],"keys":["Italian","Pizza"],"lastUpdated":1547527612250,"name":"Mazzola’s Italian Restaurant & Lounge","phone":"(970) 879-2405","price":"$$","reviewCount":265,"reviewScore":4.5,"meta":{"revision":0,"created":1547531151493,"version":0},"$loki":60},{"_id":"5c3d65bd3525a329e0c10491","address":"26480 Rcr 52E","location":{"type":"Point","coordinates":[-106.8364361,40.4867733]},"isApproved":true,"items":[],"keys":["American (Traditional)"],"lastUpdated":1547527612618,"name":"Bar Lazy L Ranch Sleigh Rides","phone":"(970) 879-1082","price":"","reviewCount":2,"reviewScore":5,"meta":{"revision":0,"created":1547531151493,"version":0},"$loki":61},{"_id":"5c3d65bd3525a329e0c13187","address":"910 Yampa St","location":{"type":"Point","coordinates":[-106.836874,40.4864919]},"isApproved":true,"items":[],"keys":["Coffee & Tea","Cocktail Bars","Creperies"],"lastUpdated":1547527612688,"name":"Yampy’s","phone":"(970) 761-2096","price":"$$","reviewCount":51,"reviewScore":5,"meta":{"revision":0,"created":1547531151493,"version":0},"$loki":62},{"_id":"5c3d65bd3525a329e0c051b9","address":"1855 Ski Time Sq Dr","location":{"type":"Point","coordinates":[-106.8372427,40.4872102]},"isApproved":true,"items":[],"keys":["American (New)"],"lastUpdated":1547527612340,"name":"The Steamboat Base Club","phone":"(970) 871-5192","price":"","reviewCount":1,"reviewScore":4,"meta":{"revision":0,"created":1547531151493,"version":0},"$loki":63},{"_id":"5c3d65bd3525a329e0c19893","address":"595 S Lincoln Ave","location":{"type":"Point","coordinates":[-106.8269909,40.4750424]},"isApproved":true,"items":[],"keys":["Breakfast & Brunch","Sandwiches","Diners"],"lastUpdated":1547527612842,"name":"Freshies","phone":"(970) 879-8099","price":"$$","reviewCount":223,"reviewScore":4,"meta":{"revision":0,"created":1547531151493,"version":0},"$loki":64},{"_id":"5c3d65bd3525a329e0c10ee6","address":"1809 Central Park Dr","location":{"type":"Point","coordinates":[-106.827419,40.46493]},"isApproved":true,"items":[],"keys":["Pizza"],"lastUpdated":1547527612640,"name":"Papa Murphy’s","phone":"(970) 439-1793","price":"$$","reviewCount":7,"reviewScore":4,"meta":{"revision":0,"created":1547531151493,"version":0},"$loki":65},{"_id":"5c3d65bd3525a329e0c0545b","address":"1755 Central Park Dr","location":{"type":"Point","coordinates":[-106.8240139,40.464705]},"isApproved":true,"items":[],"keys":["Mexican","Fast Food"],"lastUpdated":1547527612347,"name":"QDOBA Mexican Eats","phone":"(970) 879-7610","price":"$","reviewCount":15,"reviewScore":3,"meta":{"revision":0,"created":1547531151493,"version":0},"$loki":66},{"_id":"5c3d65bd3525a329e0c0a59b","address":"2301 Mt Werner Cir","location":{"type":"Point","coordinates":[-106.8244313,40.4651278]},"isApproved":true,"items":[],"keys":["Scandinavian"],"lastUpdated":1547527612480,"name":"Ragnar’s","phone":"(970) 871-5150","price":"$$$$","reviewCount":24,"reviewScore":4,"meta":{"revision":0,"created":1547531151493,"version":0},"$loki":67},{"_id":"5c3d65bd3525a329e0c1723c","address":"1030 Yampa St","location":{"type":"Point","coordinates":[-106.82442,40.466873]},"isApproved":true,"items":[],"keys":["Seafood Markets","Meat Shops","Delis"],"lastUpdated":1547527612783,"name":"Steamboat Meat & Seafood","phone":"(970) 879-3504","price":"$$","reviewCount":23,"reviewScore":4,"meta":{"revision":0,"created":1547531151493,"version":0},"$loki":68},{"_id":"5c3d65bd3525a329e0c09f2c","address":"55278 Hwy 14","location":{"type":"Point","coordinates":[-106.8252584,40.4668726]},"isApproved":true,"items":[],"keys":["Bars","Mexican"],"lastUpdated":1547527612472,"name":"Drifters Cookhouse","phone":"(970) 723-8300","price":"","reviewCount":4,"reviewScore":2.5,"meta":{"revision":0,"created":1547531151493,"version":0},"$loki":69},{"_id":"5c3d65bd3525a329e0c1213f","address":"Gondola Sq","location":{"type":"Point","coordinates":[-106.825702339411,40.4683637872036]},"isApproved":true,"items":[],"keys":["Pizza"],"lastUpdated":1547527612663,"name":"Geano’s Caffe’ Bar","phone":"","price":"$$","reviewCount":5,"reviewScore":3.5,"meta":{"revision":0,"created":1547531151493,"version":0},"$loki":70},{"_id":"5c3d65bd3525a329e0c0479d","address":"445 Anglers Dr","location":{"type":"Point","coordinates":[-106.8227095,40.4663378]},"isApproved":true,"items":[],"keys":["Mexican"],"lastUpdated":1547527612329,"name":"Fiesta Jalisco","phone":"(970) 871-6999","price":"$$","reviewCount":149,"reviewScore":4,"meta":{"revision":0,"created":1547531151493,"version":0},"$loki":71},{"_id":"5c3d65bd3525a329e0c0b69f","address":"116 9th St","location":{"type":"Point","coordinates":[-106.822356525167,40.4626716307814]},"isApproved":true,"items":[],"keys":["Mexican"],"lastUpdated":1547527612500,"name":"Azteca Taqueria","phone":"(970) 870-9980","price":"$","reviewCount":41,"reviewScore":3.5,"meta":{"revision":0,"created":1547531151493,"version":0},"$loki":72},{"_id":"5c3d65bd3525a329e0c1643a","address":"1475 Pine Grove Rd","location":{"type":"Point","coordinates":[-106.822274,40.46293]},"isApproved":true,"items":[],"keys":["Barbeque"],"lastUpdated":1547527612764,"name":"Western BBQ Buffet","phone":"(970) 871-5150","price":"$$$","reviewCount":9,"reviewScore":3,"meta":{"revision":0,"created":1547531151493,"version":0},"$loki":73},{"_id":"5c3d65bd3525a329e0c18c59","address":"198 E Lincoln Ave","location":{"type":"Point","coordinates":[-106.8199,40.46024]},"isApproved":true,"items":[],"keys":["Food Trucks","Pizza"],"lastUpdated":1547527612824,"name":"Embers Wood Fired Pizza","phone":"(970) 846-6139","price":"$","reviewCount":5,"reviewScore":5,"meta":{"revision":0,"created":1547531151493,"version":0},"$loki":74},{"_id":"5c3d65bd3525a329e0c02b58","address":"11005 County Rd 51st A","location":{"type":"Point","coordinates":[-106.82,40.4604]},"isApproved":true,"items":[],"keys":["Burgers"],"lastUpdated":1547527612286,"name":"Hdn Paradise Grill","phone":"(970) 276-4745","price":"","reviewCount":1,"reviewScore":1,"meta":{"revision":0,"created":1547531151493,"version":0},"$loki":75},{"_id":"5c3d65bd3525a329e0c04c8d","address":"1755 Central Park Plz","location":{"type":"Point","coordinates":[-106.822083,40.460712]},"isApproved":true,"items":[],"keys":["Fast Food","Ice Cream & Frozen Yogurt"],"lastUpdated":1547527612337,"name":"Dairy Queen","phone":"(970) 871-1800","price":"$","reviewCount":3,"reviewScore":2.5,"meta":{"revision":0,"created":1547531151493,"version":0},"$loki":76},{"_id":"5c3d65bd3525a329e0c00286","address":"941 Lincoln Ave","location":{"type":"Point","coordinates":[-106.8226109,40.460806]},"isApproved":true,"items":[],"keys":["Sushi Bars","Chinese","Thai"],"lastUpdated":1547527612225,"name":"Sambi","phone":"(970) 870-9988","price":"$$","reviewCount":62,"reviewScore":2.5,"meta":{"revision":0,"created":1547531151493,"version":0},"$loki":77},{"_id":"5c3d65bd3525a329e0c0abeb","address":"136 E Jefferson Ave","location":{"type":"Point","coordinates":[-106.8223546,40.4606201]},"isApproved":true,"items":[],"keys":["Bars","American (Traditional)"],"lastUpdated":1547527612490,"name":"HIWAY 40 Grill & Lodge","phone":"(970) 276-4200","price":"$$","reviewCount":7,"reviewScore":3.5,"meta":{"revision":0,"created":1547531151493,"version":0},"$loki":78},{"_id":"5c3d65bd3525a329e0c14465","address":"2032 Curve Plz","location":{"type":"Point","coordinates":[-106.8223546,40.4606201]},"isApproved":true,"items":[],"keys":["Fast Food","Sandwiches"],"lastUpdated":1547527612714,"name":"Subway","phone":"(970) 879-0707","price":"","reviewCount":7,"reviewScore":1.5,"meta":{"revision":0,"created":1547531151493,"version":0},"$loki":79},{"_id":"5c3d65bd3525a329e0c0e082","address":"109 S 6th St","location":{"type":"Point","coordinates":[-106.820261,40.458866]},"isApproved":true,"items":[],"keys":["Mexican"],"lastUpdated":1547527612564,"name":"Restaurant Los Amigos","phone":"(970) 724-9243","price":"$$","reviewCount":38,"reviewScore":3.5,"meta":{"revision":0,"created":1547531151493,"version":0},"$loki":80},{"_id":"5c3d65bd3525a329e0c1541e","address":"912 Lincoln Ave","location":{"type":"Point","coordinates":[-106.8192569,40.458642]},"isApproved":true,"items":[],"keys":["Barbeque","Smokehouse"],"lastUpdated":1547527612739,"name":"Steamboat Smokehouse","phone":"(970) 879-7427","price":"$$","reviewCount":135,"reviewScore":3,"meta":{"revision":0,"created":1547531151493,"version":0},"$loki":81},{"_id":"5c3d65bd3525a329e0c0977d","address":"685 Marketplace Plz","location":{"type":"Point","coordinates":[-106.8193587,40.4584752]},"isApproved":true,"items":[],"keys":["Sandwiches","Salad","Soup"],"lastUpdated":1547527612461,"name":"The Drunken Onion Get & Go Kitchen","phone":"(970) 879-8423","price":"$$","reviewCount":38,"reviewScore":4.5,"meta":{"revision":0,"created":1547531151493,"version":0},"$loki":82},{"_id":"5c3d65bd3525a329e0c0e8fd","address":"685 Marketplace Plz","location":{"type":"Point","coordinates":[-106.8193587,40.4584752]},"isApproved":true,"items":[],"keys":["Sandwiches","Salad","Italian"],"lastUpdated":1547527612575,"name":"Cruisers Sub Shop","phone":"(970) 879-1747","price":"$","reviewCount":81,"reviewScore":4.5,"meta":{"revision":0,"created":1547531151493,"version":0},"$loki":83},{"_id":"5c3d65bd3525a329e0c1b5b2","address":"738 Lincoln Ave","location":{"type":"Point","coordinates":[-106.820755004883,40.4581807743522]},"isApproved":true,"items":[],"keys":["Diners"],"lastUpdated":1547527612886,"name":"Johnny B. Good’s Diner","phone":"(970) 870-8400","price":"$$","reviewCount":96,"reviewScore":3.5,"meta":{"revision":0,"created":1547531151493,"version":0},"$loki":84},{"_id":"5c3d65bd3525a329e0bffc0d","address":"2200 Village Inn Ct","location":{"type":"Point","coordinates":[-106.81763956709,40.4228008283116]},"isApproved":true,"items":[],"keys":["American (Traditional)"],"lastUpdated":1547527612221,"name":"Sevens Restaurant","phone":"(970) 879-2220","price":"$$$","reviewCount":11,"reviewScore":2.5,"meta":{"revision":0,"created":1547531151493,"version":0},"$loki":85},{"_id":"5c3d65bd3525a329e0c0d797","address":"2305 Mount Werner Cir","location":{"type":"Point","coordinates":[-106.774064470578,40.4535935234536]},"isApproved":true,"items":[],"keys":["American (Traditional)","Pubs"],"lastUpdated":1547527612554,"name":"Gondola Pub & Grill","phone":"(970) 879-4448","price":"$$","reviewCount":49,"reviewScore":3,"meta":{"revision":0,"created":1547531151493,"version":0},"$loki":86},{"_id":"5c3d65bd3525a329e0c0a862","address":"127 11th St","location":{"type":"Point","coordinates":[-106.815150548969,40.4477390102064]},"isApproved":true,"items":[],"keys":["American (New)"],"lastUpdated":1547527612482,"name":"Laundry","phone":"(970) 870-0681","price":"$$","reviewCount":386,"reviewScore":4.5,"meta":{"revision":0,"created":1547531151493,"version":0},"$loki":87},{"_id":"5c3d65bd3525a329e0c12b7a","address":"1815 Central Park Dr","location":{"type":"Point","coordinates":[-106.812914,40.456942]},"isApproved":true,"items":[],"keys":["Bagels","Delis","Breakfast & Brunch"],"lastUpdated":1547527612680,"name":"Colorado Bagel Company","phone":"(970) 870-9657","price":"$","reviewCount":24,"reviewScore":4,"meta":{"revision":0,"created":1547531151493,"version":0},"$loki":88},{"_id":"5c3d65bd3525a329e0c098b5","address":"1195 Bangtail Way","location":{"type":"Point","coordinates":[-106.8165933,40.4588106]},"isApproved":true,"items":[],"keys":["Pizza","Italian"],"lastUpdated":1547527612462,"name":"Brick","phone":"(970) 761-2400","price":"$$","reviewCount":30,"reviewScore":4,"meta":{"revision":0,"created":1547531151493,"version":0},"$loki":89},{"_id":"5c3d65bd3525a329e0c1510b","address":"","location":{"type":"Point","coordinates":[-106.8061233,40.4581201]},"isApproved":true,"items":[],"keys":["Restaurants"],"lastUpdated":1547527612737,"name":"Gondola Joe’s","phone":"","price":"","reviewCount":2,"reviewScore":3,"meta":{"revision":0,"created":1547531151493,"version":0},"$loki":90},{"_id":"5c3d65bd3525a329e0c1387f","address":"2500 Village Dr","location":{"type":"Point","coordinates":[-106.806735,40.4586596]},"isApproved":true,"items":[],"keys":["Coffee & Tea","Breakfast & Brunch","Pizza"],"lastUpdated":1547527612698,"name":"The Iron Waffle","phone":"(970) 367-5716","price":"$$","reviewCount":81,"reviewScore":3.5,"meta":{"revision":0,"created":1547531151493,"version":0},"$loki":91},{"_id":"5c3d65bd3525a329e0c00192","address":"508 Main St","location":{"type":"Point","coordinates":[-106.8065919,40.4585615]},"isApproved":true,"items":[],"keys":["Bakeries","Cafes"],"lastUpdated":1547527612224,"name":"Moose Creek Cafe & Bakery","phone":"(970) 723-8272","price":"","reviewCount":5,"reviewScore":4.5,"meta":{"revision":0,"created":1547531151493,"version":0},"$loki":92},{"_id":"5c3d65bd3525a329e0c123ea","address":"2305 Mount Werner Cir","location":{"type":"Point","coordinates":[-106.8065919,40.4585615]},"isApproved":true,"items":[],"keys":["Food Court"],"lastUpdated":1547527612670,"name":"Thunderhead Food Court","phone":"(970) 879-6111","price":"$$","reviewCount":7,"reviewScore":4.5,"meta":{"revision":0,"created":1547531151493,"version":0},"$loki":93},{"_id":"5c3d65bd3525a329e0c1b06c","address":"2300 Mount Werner Cir","location":{"type":"Point","coordinates":[-106.8065919,40.4585615]},"isApproved":true,"items":[],"keys":["Thai","Tiki Bars","Seafood"],"lastUpdated":1547527612877,"name":"Talay Thai","phone":"(970) 761-2923","price":"","reviewCount":57,"reviewScore":4,"meta":{"revision":0,"created":1547531151493,"version":0},"$loki":94},{"_id":"5c3d65bd3525a329e0c04db9","address":"60880 County Rd 129","location":{"type":"Point","coordinates":[-106.8014457,40.4598099]},"isApproved":true,"items":[],"keys":["American (Traditional)","Horseback Riding","Pubs","Guest Houses"],"lastUpdated":1547527612338,"name":"Hahn’s Peak Roadhouse","phone":"(970) 879-4404","price":"$$","reviewCount":36,"reviewScore":3.5,"meta":{"revision":0,"created":1547531151493,"version":0},"$loki":95},{"_id":"5c3d65bd3525a329e0c18fd9","address":"345 Lincoln Ave","location":{"type":"Point","coordinates":[-106.8014457,40.4598099]},"isApproved":true,"items":[],"keys":["American (New)","Cocktail Bars"],"lastUpdated":1547527612832,"name":"Table 79 Foodbar","phone":"(970) 761-2463","price":"$$$","reviewCount":71,"reviewScore":4.5,"meta":{"revision":0,"created":1547531151493,"version":0},"$loki":96},{"_id":"5c3d65bd3525a329e0c05b39","address":"2200 Village Inn Ct","location":{"type":"Point","coordinates":[-106.804320364164,40.4576337847085]},"isApproved":true,"items":[],"keys":["American (Traditional)"],"lastUpdated":1547527612356,"name":"Timber & Torch","phone":"","price":"","reviewCount":8,"reviewScore":4,"meta":{"revision":0,"created":1547531151493,"version":0},"$loki":97},{"_id":"5c3d65bd3525a329e0c0726c","address":"1865 Ski Time Square Dr","location":{"type":"Point","coordinates":[-106.803572,40.459199]},"isApproved":true,"items":[],"keys":["American (New)","Breakfast & Brunch","Caterers"],"lastUpdated":1547527612398,"name":"The Paramount","phone":"(970) 879-1170","price":"$$","reviewCount":87,"reviewScore":4,"meta":{"revision":0,"created":1547531151493,"version":0},"$loki":98},{"_id":"5c3d65bd3525a329e0c054b8","address":"2093 Curve Plz","location":{"type":"Point","coordinates":[-106.8036883,40.4594201]},"isApproved":true,"items":[],"keys":["Breakfast & Brunch"],"lastUpdated":1547527612347,"name":"Lil’ House Country Biscuits & Coffee","phone":"(970) 870-8507","price":"$","reviewCount":22,"reviewScore":3.5,"meta":{"revision":0,"created":1547531151493,"version":0},"$loki":99},{"_id":"5c3d65bd3525a329e0c1299a","address":"2093 Curve Plz","location":{"type":"Point","coordinates":[-106.8036883,40.4594201]},"isApproved":true,"items":[],"keys":["Burgers"],"lastUpdated":1547527612679,"name":"Big House Burgers & Bottlecap Bar","phone":"(970) 870-8500","price":"$$","reviewCount":56,"reviewScore":3.5,"meta":{"revision":0,"created":1547531151493,"version":0},"$loki":100},{"_id":"5c3d65bd3525a329e0c15c30","address":"1875 Ski Times Square Dr","location":{"type":"Point","coordinates":[-106.803257,40.459432]},"isApproved":true,"items":[],"keys":["Mexican"],"lastUpdated":1547527612754,"name":"Los Locos","phone":"(970) 761-2394","price":"$$","reviewCount":21,"reviewScore":4,"meta":{"revision":0,"created":1547531151493,"version":0},"$loki":101},{"_id":"5c3d65bd3525a329e0c0d301","address":"1855 Ski Time Square Dr","location":{"type":"Point","coordinates":[-106.8035065,40.4596864]},"isApproved":true,"items":[],"keys":["Pizza","American (Traditional)","Bars"],"lastUpdated":1547527612546,"name":"Slopeside Grill","phone":"(970) 879-2916","price":"$$","reviewCount":164,"reviewScore":3.5,"meta":{"revision":0,"created":1547531151493,"version":0},"$loki":102},{"_id":"5c3d65bd3525a329e0c12608","address":"635 Lincoln Ave","location":{"type":"Point","coordinates":[-106.803917,40.459533]},"isApproved":true,"items":[],"keys":["Hot Dogs","American (New)","Food Stands"],"lastUpdated":1547527612671,"name":"The Hungry Dog","phone":"(970) 471-8944","price":"","reviewCount":8,"reviewScore":3.5,"meta":{"revision":0,"created":1547531151493,"version":0},"$loki":103},{"_id":"5c3d65bd3525a329e0c01971","address":"704 Lincoln Ave","location":{"type":"Point","coordinates":[-106.8050706,40.4582727]},"isApproved":true,"items":[],"keys":["Pizza","Italian"],"lastUpdated":1547527612251,"name":"Beau Jo’s Mountain Bistro","phone":"(970) 870-6401","price":"$$","reviewCount":76,"reviewScore":3,"meta":{"revision":0,"created":1547531151493,"version":0},"$loki":104},{"_id":"5c3d65bd3525a329e0c0e331","address":"1755 Central Park Dr","location":{"type":"Point","coordinates":[-106.8050706,40.4582727]},"isApproved":true,"items":[],"keys":["Mexican"],"lastUpdated":1547527612572,"name":"La Fiesta Grill & Cantina","phone":"(970) 879-6393","price":"$$","reviewCount":74,"reviewScore":3.5,"meta":{"revision":0,"created":1547531151493,"version":0},"$loki":105},{"_id":"5c3d65bd3525a329e0c12c57","address":"311 Park Ave","location":{"type":"Point","coordinates":[-106.8051448,40.4569476]},"isApproved":true,"items":[],"keys":["Coffee & Tea","Breakfast & Brunch","Juice Bars & Smoothies"],"lastUpdated":1547527612680,"name":"Big Shooter Coffee","phone":"(970) 724-3735","price":"$","reviewCount":43,"reviewScore":4.5,"meta":{"revision":0,"created":1547531151493,"version":0},"$loki":106},{"_id":"5c3d65bd3525a329e0c194bb","address":"2305 Mt Werner Cir","location":{"type":"Point","coordinates":[-106.8044718,40.4570979]},"isApproved":true,"items":[],"keys":["American (New)"],"lastUpdated":1547527612840,"name":"Hazie’s","phone":"(970) 871-5150","price":"$$$","reviewCount":42,"reviewScore":3.5,"meta":{"revision":0,"created":1547531151493,"version":0},"$loki":107},{"_id":"5c3d65bd3525a329e0c019bc","address":"2165 Pine Grove Rd","location":{"type":"Point","coordinates":[-106.804463,40.4570979]},"isApproved":true,"items":[],"keys":["Seafood","Steakhouses","American (New)"],"lastUpdated":1547527612257,"name":"Three Peaks Grill","phone":"(970) 879-3399","price":"$$$","reviewCount":65,"reviewScore":3.5,"meta":{"revision":0,"created":1547531151493,"version":0},"$loki":108},{"_id":"5c3d65bd3525a329e0c02ea0","address":"2521 Jackson County Rd 7A","location":{"type":"Point","coordinates":[-106.804463,40.4570979]},"isApproved":true,"items":[],"keys":["American (Traditional)"],"lastUpdated":1547527612294,"name":"Storm Splitter Grill","phone":"(970) 723-3226","price":"","reviewCount":1,"reviewScore":5,"meta":{"revision":0,"created":1547531151493,"version":0},"$loki":109},{"_id":"5c3d65bd3525a329e0c10361","address":"685 Marketplace Plz","location":{"type":"Point","coordinates":[-106.804463,40.4570979]},"isApproved":true,"items":[],"keys":["Irish Pub","Burgers","Sandwiches"],"lastUpdated":1547527612617,"name":"McKnights Irish Pub","phone":"(970) 879-7881","price":"$$","reviewCount":102,"reviewScore":3.5,"meta":{"revision":0,"created":1547531151493,"version":0},"$loki":110},{"_id":"5c3d65bd3525a329e0c0a818","address":"2250 Apres Ski Way","location":{"type":"Point","coordinates":[-106.8043335,40.4563061]},"isApproved":true,"items":[],"keys":["American (New)","Beer Bar","Cocktail Bars"],"lastUpdated":1547527612482,"name":"Truffle Pig","phone":"(970) 879-7470","price":"$$$","reviewCount":180,"reviewScore":3.5,"meta":{"revision":0,"created":1547531151493,"version":0},"$loki":111},{"_id":"5c3d65bd3525a329e0c11cea","address":"104 6 Th St","location":{"type":"Point","coordinates":[-106.804733,40.4551188]},"isApproved":true,"items":[],"keys":["Breakfast & Brunch","Diners"],"lastUpdated":1547527612660,"name":"9 & 40 Diner","phone":"(970) 724-1158","price":"","reviewCount":2,"reviewScore":3,"meta":{"revision":0,"created":1547531151493,"version":0},"$loki":112},{"_id":"5c3d65bd3525a329e0c090bb","address":"2525 Village Dr","location":{"type":"Point","coordinates":[-106.8058701,40.4551053]},"isApproved":true,"items":[],"keys":["Grocery","Delis"],"lastUpdated":1547527612439,"name":"Wild Plum","phone":"(970) 879-1981","price":"$","reviewCount":32,"reviewScore":3.5,"meta":{"revision":0,"created":1547531151493,"version":0},"$loki":113},{"_id":"5c3d65bd3525a329e0c02dc4","address":"688 Main St","location":{"type":"Point","coordinates":[-106.9167218,40.7148155]},"isApproved":true,"items":[],"keys":["American (Traditional)","Bowling"],"lastUpdated":1547527612294,"name":"The 10th Frame","phone":"(970) 723-8616","price":"$$","reviewCount":7,"reviewScore":4.5,"meta":{"revision":0,"created":1547531151493,"version":0},"$loki":114}],"idIndex":[1,2,3,4,5,6,7,8,9,10,11,12,13,14,15,16,17,18,19,20,21,22,23,24,25,26,27,28,29,30,31,32,33,34,35,36,37,38,39,40,41,42,43,44,45,46,47,48,49,50,51,52,53,54,55,56,57,58,59,60,61,62,63,64,65,66,67,68,69,70,71,72,73,74,75,76,77,78,79,80,81,82,83,84,85,86,87,88,89,90,91,92,93,94,95,96,97,98,99,100,101,102,103,104,105,106,107,108,109,110,111,112,113,114],"binaryIndices":{},"constraints":null,"uniqueNames":[],"transforms":{},"objType":"restaurants","dirty":true,"cachedIndex":null,"cachedBinaryIndex":null,"cachedData":null,"adaptiveBinaryIndices":true,"transactional":false,"cloneObjects":false,"cloneMethod":"parse-stringify","asyncListeners":false,"disableMeta":false,"disableChangesApi":true,"disableDeltaChangesApi":true,"autoupdate":false,"serializableIndices":true,"ttl":null,"maxId":114,"DynamicViews":[],"events":{"insert":[],"update":[],"pre-insert":[],"pre-update":[],"close":[],"flushbuffer":[],"error":[],"delete":[null],"warning":[null]},"changes":[]}],"databaseVersion":1.5,"engineVersion":1.5,"autosave":false,"autosaveInterval":5000,"autosaveHandle":null,"throttledSaves":true,"options":{"serializationMethod":"normal","destructureDelimiter":"$<\n"},"persistenceMethod":"fs","persistenceAdapter":null,"verbose":false,"events":{"init":[null],"loaded":[],"flushChanges":[],"close":[],"changes":[],"warning":[]},"ENV":"NODEJS"}