{"filename":"-106.75-28.5","collections":[{"name":"restaurants","data":[{"_id":"5c3d65bd3525a329e0c10fa6","address":"Calle A Carichic S/N","location":{"type":"Point","coordinates":[-106.932288956709,28.3975614967559]},"isApproved":true,"items":[],"keys":["Fast Food","Burgers"],"lastUpdated":1547527612640,"name":"Resaurant Pampas","phone":"","price":"","reviewCount":1,"reviewScore":3,"meta":{"revision":0,"created":1547531148926,"version":0},"$loki":1},{"_id":"5c3d65bd3525a329e0c0caab","address":"Carretera Yecora - Cuauhtémoc S/N","location":{"type":"Point","coordinates":[-106.932055773214,28.3978157284885]},"isApproved":true,"items":[],"keys":["Mexican","Food Stands","Fast Food"],"lastUpdated":1547527612533,"name":"Burrito Man","phone":"","price":"$","reviewCount":1,"reviewScore":5,"meta":{"revision":0,"created":1547531148926,"version":0},"$loki":2},{"_id":"5c3d65bd3525a329e0c109bb","address":"Carretera Yecora - Cuauhtémoc S/N","location":{"type":"Point","coordinates":[-106.932185906066,28.3984469409264]},"isApproved":true,"items":[],"keys":["Food Stands","Fast Food"],"lastUpdated":1547527612626,"name":"Carnitas","phone":"","price":"","reviewCount":1,"reviewScore":4,"meta":{"revision":0,"created":1547531148926,"version":0},"$loki":3},{"_id":"5c3d65bd3525a329e0c01fae","address":"Corredor Comercial","location":{"type":"Point","coordinates":[-106.910839422416,28.484695073767]},"isApproved":true,"items":[],"keys":["Rotisserie Chicken"],"lastUpdated":1547527612269,"name":"El Pollo Giro","phone":"62 558 32032","price":"","reviewCount":1,"reviewScore":3,"meta":{"revision":0,"created":1547531148926,"version":0},"$loki":4},{"_id":"5c3d65bd3525a329e0c08aeb","address":"Reforma 607","location":{"type":"Point","coordinates":[-106.870658790809,28.4064902855739]},"isApproved":true,"items":[],"keys":["Mexican","Food Stands"],"lastUpdated":1547527612435,"name":"Don Burro","phone":"62 513 45311","price":"$","reviewCount":3,"reviewScore":5,"meta":{"revision":0,"created":1547531148926,"version":0},"$loki":5},{"_id":"5c3d65bd3525a329e0c0ee4b","address":"Av. Morelos 405","location":{"type":"Point","coordinates":[-106.868272,28.406041]},"isApproved":true,"items":[],"keys":["Chicken Wings"],"lastUpdated":1547527612583,"name":"El Pollo Giro","phone":"62 558 15436","price":"","reviewCount":1,"reviewScore":5,"meta":{"revision":0,"created":1547531148926,"version":0},"$loki":6},{"_id":"5c3d65bd3525a329e0c11a97","address":"Calle Décima 878","location":{"type":"Point","coordinates":[-106.868537,28.402637]},"isApproved":true,"items":[],"keys":["Sushi Bars"],"lastUpdated":1547527612652,"name":"Sushi Fusión","phone":"62 510 22170","price":"","reviewCount":1,"reviewScore":5,"meta":{"revision":0,"created":1547531148926,"version":0},"$loki":7},{"_id":"5c3d65bd3525a329e0c16cb3","address":"Carretera a la Junta Km. 2","location":{"type":"Point","coordinates":[-106.900035389024,28.4012014601978]},"isApproved":true,"items":[],"keys":["Pizza"],"lastUpdated":1547527612774,"name":"Los Arcos Pizzeria","phone":"62 558 11578","price":"","reviewCount":1,"reviewScore":4,"meta":{"revision":0,"created":1547531148926,"version":0},"$loki":8},{"_id":"5c3d65bd3525a329e0c1771d","address":"Carretera a la Junta Km. 2","location":{"type":"Point","coordinates":[-106.901563336656,28.4010613253442]},"isApproved":true,"items":[],"keys":["Steakhouses"],"lastUpdated":1547527612791,"name":"Buffalo Steakhouse","phone":"62 558 15690","price":"","reviewCount":1,"reviewScore":5,"meta":{"revision":0,"created":1547531148926,"version":0},"$loki":9},{"_id":"5c3d65bd3525a329e0c09741","address":"Av. Rayon 30","location":{"type":"Point","coordinates":[-106.864889448682,28.4053189452477]},"isApproved":true,"items":[],"keys":["Mexican"],"lastUpdated":1547527612461,"name":"Los Alambres","phone":"62 558 22191","price":"","reviewCount":1,"reviewScore":5,"meta":{"revision":0,"created":1547531148926,"version":0},"$loki":10},{"_id":"5c3d65bd3525a329e0c06e77","address":"Vicente Guerrero 100","location":{"type":"Point","coordinates":[-106.8638878,28.4070561]},"isApproved":true,"items":[],"keys":["Pizza"],"lastUpdated":1547527612387,"name":"Pizza Hut","phone":"62 558 15333","price":"","reviewCount":1,"reviewScore":3,"meta":{"revision":0,"created":1547531148926,"version":0},"$loki":11},{"_id":"5c3d65bd3525a329e0c111f9","address":"Calle 16 de Septiembre S/N","location":{"type":"Point","coordinates":[-106.8547518,28.4083685]},"isApproved":true,"items":[],"keys":["Japanese"],"lastUpdated":1547527612642,"name":"Sushi San","phone":"62 558 10003","price":"$$","reviewCount":1,"reviewScore":4,"meta":{"revision":0,"created":1547531148926,"version":0},"$loki":12},{"_id":"5c3d65bd3525a329e0c10e2b","address":"Av. Morelos 974","location":{"type":"Point","coordinates":[-106.862692,28.410355]},"isApproved":true,"items":[],"keys":["Fast Food","Sandwiches","Salad"],"lastUpdated":1547527612634,"name":"Subway","phone":"62 558 16500","price":"","reviewCount":1,"reviewScore":3,"meta":{"revision":0,"created":1547531148926,"version":0},"$loki":13},{"_id":"5c3d65bd3525a329e0c12943","address":"José María Morelos 4148","location":{"type":"Point","coordinates":[-106.849463,28.419666]},"isApproved":true,"items":[],"keys":["Mexican"],"lastUpdated":1547527612679,"name":"La Cenaduria","phone":"62 558 22747","price":"","reviewCount":1,"reviewScore":5,"meta":{"revision":0,"created":1547531148926,"version":0},"$loki":14}],"idIndex":[1,2,3,4,5,6,7,8,9,10,11,12,13,14],"binaryIndices":{},"constraints":null,"uniqueNames":[],"transforms":{},"objType":"restaurants","dirty":true,"cachedIndex":null,"cachedBinaryIndex":null,"cachedData":null,"adaptiveBinaryIndices":true,"transactional":false,"cloneObjects":false,"cloneMethod":"parse-stringify","asyncListeners":false,"disableMeta":false,"disableChangesApi":true,"disableDeltaChangesApi":true,"autoupdate":false,"serializableIndices":true,"ttl":null,"maxId":14,"DynamicViews":[],"events":{"insert":[],"update":[],"pre-insert":[],"pre-update":[],"close":[],"flushbuffer":[],"error":[],"delete":[null],"warning":[null]},"changes":[]}],"databaseVersion":1.5,"engineVersion":1.5,"autosave":false,"autosaveInterval":5000,"autosaveHandle":null,"throttledSaves":true,"options":{"serializationMethod":"normal","destructureDelimiter":"$<\n"},"persistenceMethod":"fs","persistenceAdapter":null,"verbose":false,"events":{"init":[null],"loaded":[],"flushChanges":[],"close":[],"changes":[],"warning":[]},"ENV":"NODEJS"}