{"filename":"-107.75-39.25","collections":[{"name":"restaurants","data":[{"_id":"5c3d65bd3525a329e0c19b2c","address":"108 Main St","location":{"type":"Point","coordinates":[-107.96057,39.23927]},"isApproved":true,"items":[],"keys":["Cafes"],"lastUpdated":1547527612849,"name":"Collbran Cafe","phone":"(970) 487-0141","price":"$$","reviewCount":2,"reviewScore":3,"meta":{"revision":0,"created":1547531147720,"version":0},"$loki":1},{"_id":"5c3d65bd3525a329e0c0152a","address":"403 Jurassic Ave","location":{"type":"Point","coordinates":[-107.979781106114,39.2375350027623]},"isApproved":true,"items":[],"keys":["Burgers","Fast Food"],"lastUpdated":1547527612249,"name":"Wendy’s","phone":"(970) 858-1899","price":"$","reviewCount":5,"reviewScore":2.5,"meta":{"revision":0,"created":1547531147720,"version":0},"$loki":2},{"_id":"5c3d65bd3525a329e0c0d3d1","address":"28 Cardinal Way","location":{"type":"Point","coordinates":[-108.0466675,39.4526042]},"isApproved":true,"items":[],"keys":["Pizza","Chicken Wings","Sandwiches"],"lastUpdated":1547527612546,"name":"Domino’s Pizza","phone":"(970) 285-9296","price":"","reviewCount":1,"reviewScore":1,"meta":{"revision":0,"created":1547531147720,"version":0},"$loki":3},{"_id":"5c3d65bd3525a329e0c01064","address":"1547 Independent Ave","location":{"type":"Point","coordinates":[-108.0222124,39.4447019]},"isApproved":true,"items":[],"keys":["Mexican","Fast Food"],"lastUpdated":1547527612238,"name":"Del Taco","phone":"","price":"$","reviewCount":16,"reviewScore":3.5,"meta":{"revision":0,"created":1547531147720,"version":0},"$loki":4},{"_id":"5c3d65bd3525a329e0c0abfe","address":"220 First St","location":{"type":"Point","coordinates":[-108.050120230667,39.4544892319732]},"isApproved":true,"items":[],"keys":["Cafes"],"lastUpdated":1547527612490,"name":"Gourmet Coffee","phone":"","price":"","reviewCount":3,"reviewScore":4.5,"meta":{"revision":0,"created":1547531147720,"version":0},"$loki":5},{"_id":"5c3d65bd3525a329e0c062b7","address":"2565 American Way","location":{"type":"Point","coordinates":[-108.0505344,39.4536067]},"isApproved":true,"items":[],"keys":["American (New)","Bars"],"lastUpdated":1547527612369,"name":"Warehouse 25 Sixty Five","phone":"(970) 628-4321","price":"$$","reviewCount":82,"reviewScore":4,"meta":{"revision":0,"created":1547531147720,"version":0},"$loki":6},{"_id":"5c3d65bd3525a329e0c0fa8a","address":"257 E 1st St","location":{"type":"Point","coordinates":[-108.0523521,39.4520276]},"isApproved":true,"items":[],"keys":["Mexican","Salvadoran","Breakfast & Brunch"],"lastUpdated":1547527612601,"name":"Nalini’s Restaurant","phone":"(970) 285-0199","price":"$","reviewCount":29,"reviewScore":4.5,"meta":{"revision":0,"created":1547531147720,"version":0},"$loki":7},{"_id":"5c3d65bd3525a329e0bff454","address":"520 E Durant Ave","location":{"type":"Point","coordinates":[-108.138796,39.16642]},"isApproved":true,"items":[],"keys":["American (New)"],"lastUpdated":1547527612216,"name":"Big Wrap","phone":"(970) 544-1700","price":"$","reviewCount":138,"reviewScore":4.5,"meta":{"revision":0,"created":1547531147720,"version":0},"$loki":8},{"_id":"5c3d65bd3525a329e0c0f7c9","address":"241 Grand Ave","location":{"type":"Point","coordinates":[-108.138796,39.16642]},"isApproved":true,"items":[],"keys":["American (Traditional)","Breakfast & Brunch"],"lastUpdated":1547527612600,"name":"Lois’ place","phone":"(970) 243-2133","price":"$","reviewCount":52,"reviewScore":4.5,"meta":{"revision":0,"created":1547531147720,"version":0},"$loki":9},{"_id":"5c3d65bd3525a329e0c0252b","address":"328 E Hyman Ave","location":{"type":"Point","coordinates":[-108.139179,39.166003]},"isApproved":true,"items":[],"keys":["American (New)"],"lastUpdated":1547527612278,"name":"Aspen Public House","phone":"(970) 710-7026","price":"","reviewCount":25,"reviewScore":3.5,"meta":{"revision":0,"created":1547531147720,"version":0},"$loki":10},{"_id":"5c3d65bd3525a329e0c12426","address":"2297 Tall Grass Dr","location":{"type":"Point","coordinates":[-108.139179,39.166003]},"isApproved":true,"items":[],"keys":["Barbeque","Caterers","Food Trucks"],"lastUpdated":1547527612670,"name":"Practical Smokers BBQ, Catering, and More","phone":"(970) 242-3942","price":"","reviewCount":3,"reviewScore":5,"meta":{"revision":0,"created":1547531147720,"version":0},"$loki":11},{"_id":"5c3d65bd3525a329e0c10551","address":"2416 Hwy 6 &amp; 50","location":{"type":"Point","coordinates":[-108.138638,39.1647259]},"isApproved":true,"items":[],"keys":["Italian","Salad"],"lastUpdated":1547527612618,"name":"Olive Garden Italian Restaurant","phone":"(970) 243-7355","price":"$$","reviewCount":40,"reviewScore":3.5,"meta":{"revision":0,"created":1547531147720,"version":0},"$loki":12}],"idIndex":[1,2,3,4,5,6,7,8,9,10,11,12],"binaryIndices":{},"constraints":null,"uniqueNames":[],"transforms":{},"objType":"restaurants","dirty":true,"cachedIndex":null,"cachedBinaryIndex":null,"cachedData":null,"adaptiveBinaryIndices":true,"transactional":false,"cloneObjects":false,"cloneMethod":"parse-stringify","asyncListeners":false,"disableMeta":false,"disableChangesApi":true,"disableDeltaChangesApi":true,"autoupdate":false,"serializableIndices":true,"ttl":null,"maxId":12,"DynamicViews":[],"events":{"insert":[],"update":[],"pre-insert":[],"pre-update":[],"close":[],"flushbuffer":[],"error":[],"delete":[null],"warning":[null]},"changes":[]}],"databaseVersion":1.5,"engineVersion":1.5,"autosave":false,"autosaveInterval":5000,"autosaveHandle":null,"throttledSaves":true,"options":{"serializationMethod":"normal","destructureDelimiter":"$<\n"},"persistenceMethod":"fs","persistenceAdapter":null,"verbose":false,"events":{"init":[null],"loaded":[],"flushChanges":[],"close":[],"changes":[],"warning":[]},"ENV":"NODEJS"}