{"filename":"-109-35.25","collections":[{"name":"restaurants","data":[{"_id":"5c3d65bd3525a329e0c1126d","address":"1120 E Historic Hwy 66","location":{"type":"Point","coordinates":[-108.783039145508,35.5120001186015]},"isApproved":true,"items":[],"keys":["Mexican"],"lastUpdated":1547527612642,"name":"Alicia Burrito Express","phone":"(505) 863-9090","price":"$","reviewCount":23,"reviewScore":3.5,"meta":{"revision":0,"created":1547531149882,"version":0},"$loki":1},{"_id":"5c3d65bd3525a329e0c0bf9d","address":"Highway 264 Rte 12","location":{"type":"Point","coordinates":[-108.7813103,35.5158856]},"isApproved":true,"items":[],"keys":["Mexican"],"lastUpdated":1547527612516,"name":"Cocina De Dominguez","phone":"(928) 810-3777","price":"$$","reviewCount":14,"reviewScore":4.5,"meta":{"revision":0,"created":1547531149882,"version":0},"$loki":2},{"_id":"5c3d65bd3525a329e0c1b3c6","address":"2201 W Historic Hwy 66","location":{"type":"Point","coordinates":[-108.7813103,35.5158856]},"isApproved":true,"items":[],"keys":["Steakhouses","Seafood","Wine Bars"],"lastUpdated":1547527612884,"name":"Badlands Grill","phone":"(505) 722-5157","price":"$$$","reviewCount":101,"reviewScore":4,"meta":{"revision":0,"created":1547531149882,"version":0},"$loki":3},{"_id":"5c3d65bd3525a329e0c088a2","address":"2504 E Hwy 66","location":{"type":"Point","coordinates":[-108.781148379299,35.5160633830209]},"isApproved":true,"items":[],"keys":["Fast Food","Chicken Wings","Chicken Shop"],"lastUpdated":1547527612428,"name":"KFC","phone":"(505) 722-5707","price":"","reviewCount":2,"reviewScore":1,"meta":{"revision":0,"created":1547531149882,"version":0},"$loki":4},{"_id":"5c3d65bd3525a329e0c096e0","address":"State Highway 264 &amp; IR 12","location":{"type":"Point","coordinates":[-108.781148379299,35.5160633830209]},"isApproved":true,"items":[],"keys":["Tex-Mex","Fast Food","Mexican"],"lastUpdated":1547527612454,"name":"Taco Bell","phone":"(928) 871-3454","price":"$","reviewCount":3,"reviewScore":2,"meta":{"revision":0,"created":1547531149882,"version":0},"$loki":5},{"_id":"5c3d65bd3525a329e0c0828a","address":"1015 N Hwy 491","location":{"type":"Point","coordinates":[-108.7823525,35.5167508425744]},"isApproved":true,"items":[],"keys":["Fast Food","Chicken Wings"],"lastUpdated":1547527612420,"name":"Church’s Chicken","phone":"(505) 722-0928","price":"","reviewCount":5,"reviewScore":3,"meta":{"revision":0,"created":1547531149882,"version":0},"$loki":6},{"_id":"5c3d65bd3525a329e0c00eb6","address":"801 W Historic Hwy 66","location":{"type":"Point","coordinates":[-108.802818614931,35.5109471657587]},"isApproved":true,"items":[],"keys":["Nightlife","Mexican"],"lastUpdated":1547527612237,"name":"Don Diego’s Restaurant & Lounge","phone":"(505) 722-5517","price":"$$","reviewCount":44,"reviewScore":3.5,"meta":{"revision":0,"created":1547531149882,"version":0},"$loki":7},{"_id":"5c3d65bd3525a329e0c0c302","address":"221 W Historic Hwy 66","location":{"type":"Point","coordinates":[-108.797818,35.511446]},"isApproved":true,"items":[],"keys":["Mexican"],"lastUpdated":1547527612518,"name":"Ceci’s Mexican Restaurant","phone":"(505) 488-2372","price":"","reviewCount":2,"reviewScore":3,"meta":{"revision":0,"created":1547531149882,"version":0},"$loki":8},{"_id":"5c3d65bd3525a329e0c0612a","address":"Kerr Mcgee Rd","location":{"type":"Point","coordinates":[-108.81816,35.50766]},"isApproved":true,"items":[],"keys":["Sandwiches","Fast Food"],"lastUpdated":1547527612368,"name":"Subway","phone":"(928) 688-2334","price":"","reviewCount":2,"reviewScore":4,"meta":{"revision":0,"created":1547531149882,"version":0},"$loki":9},{"_id":"5c3d65bd3525a329e0c08b8a","address":"3006 W Hwy 66","location":{"type":"Point","coordinates":[-108.815356050991,35.5086695667183]},"isApproved":true,"items":[],"keys":["Delis","Donuts","Sandwiches"],"lastUpdated":1547527612436,"name":"Westend Donut & Deli","phone":"(505) 722-3233","price":"$","reviewCount":100,"reviewScore":4.5,"meta":{"revision":0,"created":1547531149882,"version":0},"$loki":10},{"_id":"5c3d65bd3525a329e0c16e09","address":"1516 E Historic Hwy 66","location":{"type":"Point","coordinates":[-108.8147842,35.5075656]},"isApproved":true,"items":[],"keys":["Pizza"],"lastUpdated":1547527612780,"name":"Big Cheese Pizza","phone":"(505) 722-4454","price":"$$","reviewCount":6,"reviewScore":2.5,"meta":{"revision":0,"created":1547531149882,"version":0},"$loki":11},{"_id":"5c3d65bd3525a329e0c07673","address":"Hwy 264","location":{"type":"Point","coordinates":[-108.8106173,35.5083607]},"isApproved":true,"items":[],"keys":["Fast Food","Chicken Wings","Chicken Shop"],"lastUpdated":1547527612402,"name":"KFC","phone":"(505) 371-5452","price":"","reviewCount":1,"reviewScore":2,"meta":{"revision":0,"created":1547531149882,"version":0},"$loki":12},{"_id":"5c3d65bd3525a329e0c0ede1","address":"1314 Metro Ave","location":{"type":"Point","coordinates":[-108.8106173,35.5083607]},"isApproved":true,"items":[],"keys":["Buffets","Chinese"],"lastUpdated":1547527612582,"name":"Super Buffet","phone":"(505) 863-8889","price":"","reviewCount":3,"reviewScore":1,"meta":{"revision":0,"created":1547531149882,"version":0},"$loki":13},{"_id":"5c3d65bd3525a329e0c1aff3","address":"3405 W Hwy 66","location":{"type":"Point","coordinates":[-108.833935260773,35.5048411203143]},"isApproved":true,"items":[],"keys":["Indian","Buffets","Diners"],"lastUpdated":1547527612876,"name":"Bombay Grill","phone":"(505) 488-2920","price":"$$","reviewCount":82,"reviewScore":4.5,"meta":{"revision":0,"created":1547531149882,"version":0},"$loki":14},{"_id":"5c3d65bd3525a329e0c14b3f","address":"508 N Us Hwy 491","location":{"type":"Point","coordinates":[-108.83449051425,35.5049930866532]},"isApproved":true,"items":[],"keys":["Chinese","Fast Food"],"lastUpdated":1547527612728,"name":"Panda Express","phone":"(505) 863-8983","price":"$","reviewCount":15,"reviewScore":2.5,"meta":{"revision":0,"created":1547531149882,"version":0},"$loki":15},{"_id":"5c3d65bd3525a329e0c1a0ce","address":"1201 W Historic Hwy 66","location":{"type":"Point","coordinates":[-108.8414724,35.5037411]},"isApproved":true,"items":[],"keys":["Mexican"],"lastUpdated":1547527612857,"name":"El Sombrero Restaurant","phone":"(505) 863-4554","price":"$$","reviewCount":40,"reviewScore":2.5,"meta":{"revision":0,"created":1547531149882,"version":0},"$loki":16},{"_id":"5c3d65bd3525a329e0c0d41b","address":"1344 State Hwy 53","location":{"type":"Point","coordinates":[-108.8250248,35.0752681]},"isApproved":true,"items":[],"keys":["Pizza"],"lastUpdated":1547527612546,"name":"Chu Chu’s Pizzaria","phone":"(505) 782-2100","price":"$","reviewCount":7,"reviewScore":4,"meta":{"revision":0,"created":1547531149882,"version":0},"$loki":17},{"_id":"5c3d65bd3525a329e0c1117f","address":"1185A Highway 53","location":{"type":"Point","coordinates":[-108.8496798,35.0691187]},"isApproved":true,"items":[],"keys":["American (Traditional)"],"lastUpdated":1547527612641,"name":"Village Bistro","phone":"(505) 782-0224","price":"","reviewCount":9,"reviewScore":5,"meta":{"revision":0,"created":1547531149882,"version":0},"$loki":18}],"idIndex":[1,2,3,4,5,6,7,8,9,10,11,12,13,14,15,16,17,18],"binaryIndices":{},"constraints":null,"uniqueNames":[],"transforms":{},"objType":"restaurants","dirty":true,"cachedIndex":null,"cachedBinaryIndex":null,"cachedData":null,"adaptiveBinaryIndices":true,"transactional":false,"cloneObjects":false,"cloneMethod":"parse-stringify","asyncListeners":false,"disableMeta":false,"disableChangesApi":true,"disableDeltaChangesApi":true,"autoupdate":false,"serializableIndices":true,"ttl":null,"maxId":18,"DynamicViews":[],"events":{"insert":[],"update":[],"pre-insert":[],"pre-update":[],"close":[],"flushbuffer":[],"error":[],"delete":[null],"warning":[null]},"changes":[]}],"databaseVersion":1.5,"engineVersion":1.5,"autosave":false,"autosaveInterval":5000,"autosaveHandle":null,"throttledSaves":true,"options":{"serializationMethod":"normal","destructureDelimiter":"$<\n"},"persistenceMethod":"fs","persistenceAdapter":null,"verbose":false,"events":{"init":[null],"loaded":[],"flushChanges":[],"close":[],"changes":[],"warning":[]},"ENV":"NODEJS"}