{"filename":"-110.75-35","collections":[{"name":"restaurants","data":[{"_id":"5c3d65bd3525a329e0c0bf6f","address":"704 Mike&#39;s Peak Blvd","location":{"type":"Point","coordinates":[-110.701351752406,35.0411506661695]},"isApproved":true,"items":[],"keys":["Fast Food","Burgers"],"lastUpdated":1547527612516,"name":"Carl’s Jr.","phone":"(928) 289-0231","price":"$$","reviewCount":5,"reviewScore":1,"meta":{"revision":0,"created":1547531150784,"version":0},"$loki":1},{"_id":"5c3d65bd3525a329e0bfff08","address":"600 Mike&#39;s Pike Blvd","location":{"type":"Point","coordinates":[-110.7003966,35.041218]},"isApproved":true,"items":[],"keys":["Pizza","Italian","Chicken Wings"],"lastUpdated":1547527612223,"name":"Pizza Hut","phone":"(928) 289-2445","price":"$$","reviewCount":6,"reviewScore":4.5,"meta":{"revision":0,"created":1547531150784,"version":0},"$loki":2},{"_id":"5c3d65bd3525a329e0c06d9d","address":"1700 N Park Dr","location":{"type":"Point","coordinates":[-110.697603,35.0385438]},"isApproved":true,"items":[],"keys":["Coffee & Tea","Breakfast & Brunch"],"lastUpdated":1547527612387,"name":"Mojo Coffee","phone":"(928) 289-6656","price":"$","reviewCount":71,"reviewScore":4,"meta":{"revision":0,"created":1547531150784,"version":0},"$loki":3},{"_id":"5c3d65bd3525a329e0c07a71","address":"1503 N Park Dr","location":{"type":"Point","coordinates":[-110.698326,35.03568]},"isApproved":true,"items":[],"keys":["Mexican"],"lastUpdated":1547527612409,"name":"Alfonso’s Mexican Food","phone":"(928) 289-1233","price":"$","reviewCount":24,"reviewScore":4,"meta":{"revision":0,"created":1547531150784,"version":0},"$loki":4},{"_id":"5c3d65bd3525a329e0c15ba6","address":"1616 N Park","location":{"type":"Point","coordinates":[-110.697629973292,35.0369784274933]},"isApproved":true,"items":[],"keys":["Fast Food","Coffee & Tea","Burgers"],"lastUpdated":1547527612754,"name":"McDonald’s","phone":"(928) 289-5710","price":"$","reviewCount":14,"reviewScore":2.5,"meta":{"revision":0,"created":1547531150784,"version":0},"$loki":5},{"_id":"5c3d65bd3525a329e0c136e7","address":"1605 No Park Drive","location":{"type":"Point","coordinates":[-110.69809,35.03714]},"isApproved":true,"items":[],"keys":["Fast Food","Mexican","Tex-Mex"],"lastUpdated":1547527612697,"name":"Taco Bell","phone":"(928) 289-4212","price":"","reviewCount":5,"reviewScore":3,"meta":{"revision":0,"created":1547531150784,"version":0},"$loki":6},{"_id":"5c3d65bd3525a329e0c130c7","address":"1605 N Park Dr","location":{"type":"Point","coordinates":[-110.6984381,35.0370361]},"isApproved":true,"items":[],"keys":["Seafood","Fast Food"],"lastUpdated":1547527612688,"name":"Long John Silver’s","phone":"(928) 289-4212","price":"","reviewCount":4,"reviewScore":2,"meta":{"revision":0,"created":1547531150784,"version":0},"$loki":7},{"_id":"5c3d65bd3525a329e0c00490","address":"510 W Desmond St","location":{"type":"Point","coordinates":[-110.6995585,35.03762]},"isApproved":true,"items":[],"keys":["Chinese"],"lastUpdated":1547527612226,"name":"China Town Restaurants","phone":"(928) 289-9988","price":"","reviewCount":3,"reviewScore":4.5,"meta":{"revision":0,"created":1547531150784,"version":0},"$loki":8},{"_id":"5c3d65bd3525a329e0c18640","address":"1601 N Park Dr","location":{"type":"Point","coordinates":[-110.6997681,35.0367798]},"isApproved":true,"items":[],"keys":["Drugstores","Grocery","Delis"],"lastUpdated":1547527612815,"name":"Safeway Food & Drug","phone":"(928) 289-3126","price":"$$","reviewCount":5,"reviewScore":2,"meta":{"revision":0,"created":1547531150784,"version":0},"$loki":9},{"_id":"5c3d65bd3525a329e0c0198c","address":"1503 N Park Dr","location":{"type":"Point","coordinates":[-110.6988601,35.0356852]},"isApproved":true,"items":[],"keys":["Sandwiches","Fast Food"],"lastUpdated":1547527612257,"name":"Subway","phone":"(928) 289-5758","price":"","reviewCount":3,"reviewScore":3,"meta":{"revision":0,"created":1547531150784,"version":0},"$loki":10},{"_id":"5c3d65bd3525a329e0c15a0c","address":"2217 N Park Dr","location":{"type":"Point","coordinates":[-110.698269803306,35.0425123425369]},"isApproved":true,"items":[],"keys":["Pizza","Italian"],"lastUpdated":1547527612748,"name":"Captain Tony’s Pizza & Pasta Emporium","phone":"(928) 289-4919","price":"$$","reviewCount":44,"reviewScore":4,"meta":{"revision":0,"created":1547531150784,"version":0},"$loki":11},{"_id":"5c3d65bd3525a329e0c0fa64","address":"1001 N Williamson Ave","location":{"type":"Point","coordinates":[-110.6930866,35.0302043]},"isApproved":true,"items":[],"keys":["American (New)"],"lastUpdated":1547527612601,"name":"Darrel’s Root Beer Stand","phone":"(928) 289-2891","price":"$","reviewCount":14,"reviewScore":4,"meta":{"revision":0,"created":1547531150784,"version":0},"$loki":12},{"_id":"5c3d65bd3525a329e0c0877e","address":"1919 W Second St","location":{"type":"Point","coordinates":[-110.7158204,35.0317615]},"isApproved":true,"items":[],"keys":["Chinese"],"lastUpdated":1547527612428,"name":"Entre Restaurant","phone":"(928) 289-2141","price":"$$","reviewCount":10,"reviewScore":2.5,"meta":{"revision":0,"created":1547531150784,"version":0},"$loki":13},{"_id":"5c3d65bd3525a329e0c050e4","address":"6 W White Mountain Rd","location":{"type":"Point","coordinates":[-110.7447361,35.0436776]},"isApproved":true,"items":[],"keys":["Fast Food","Burgers","Coffee & Tea"],"lastUpdated":1547527612340,"name":"McDonald’s","phone":"(928) 367-6126","price":"","reviewCount":10,"reviewScore":2.5,"meta":{"revision":0,"created":1547531150784,"version":0},"$loki":14},{"_id":"5c3d65bd3525a329e0c0a534","address":"452 W Finnie Flat Rd","location":{"type":"Point","coordinates":[-110.7447361,35.0436776]},"isApproved":true,"items":[],"keys":["Pizza","Chicken Wings","Sandwiches"],"lastUpdated":1547527612480,"name":"Domino’s Pizza","phone":"(928) 554-0999","price":"","reviewCount":4,"reviewScore":2.5,"meta":{"revision":0,"created":1547531150784,"version":0},"$loki":15},{"_id":"5c3d65bd3525a329e0c0c36a","address":"2200 Mt Ararat","location":{"type":"Point","coordinates":[-110.7447361,35.0436776]},"isApproved":true,"items":[],"keys":["Caterers","Food Stands"],"lastUpdated":1547527612518,"name":"Thumbs Up Industries","phone":"(928) 386-8893","price":"","reviewCount":1,"reviewScore":5,"meta":{"revision":0,"created":1547531150784,"version":0},"$loki":16}],"idIndex":[1,2,3,4,5,6,7,8,9,10,11,12,13,14,15,16],"binaryIndices":{},"constraints":null,"uniqueNames":[],"transforms":{},"objType":"restaurants","dirty":true,"cachedIndex":null,"cachedBinaryIndex":null,"cachedData":null,"adaptiveBinaryIndices":true,"transactional":false,"cloneObjects":false,"cloneMethod":"parse-stringify","asyncListeners":false,"disableMeta":false,"disableChangesApi":true,"disableDeltaChangesApi":true,"autoupdate":false,"serializableIndices":true,"ttl":null,"maxId":16,"DynamicViews":[],"events":{"insert":[],"update":[],"pre-insert":[],"pre-update":[],"close":[],"flushbuffer":[],"error":[],"delete":[null],"warning":[null]},"changes":[]}],"databaseVersion":1.5,"engineVersion":1.5,"autosave":false,"autosaveInterval":5000,"autosaveHandle":null,"throttledSaves":true,"options":{"serializationMethod":"normal","destructureDelimiter":"$<\n"},"persistenceMethod":"fs","persistenceAdapter":null,"verbose":false,"events":{"init":[null],"loaded":[],"flushChanges":[],"close":[],"changes":[],"warning":[]},"ENV":"NODEJS"}