{"filename":"-110.75-44.75","collections":[{"name":"restaurants","data":[{"_id":"5c3d65bd3525a329e0c08e22","address":"1 Grand Loop Rd","location":{"type":"Point","coordinates":[-110.401191951838,44.5498632462479]},"isApproved":true,"items":[],"keys":["American (Traditional)"],"lastUpdated":1547527612438,"name":"Lake Hotel Dining Room","phone":"","price":"$$","reviewCount":20,"reviewScore":3.5,"meta":{"revision":0,"created":1547531149776,"version":0},"$loki":1},{"_id":"5c3d65bd3525a329e0bffb71","address":"1 Grand Loop Rd.","location":{"type":"Point","coordinates":[-110.3957396,44.5550505]},"isApproved":true,"items":[],"keys":["Restaurants"],"lastUpdated":1547527612220,"name":"Roosevelt Lodge Dining Room","phone":"","price":"","reviewCount":7,"reviewScore":3,"meta":{"revision":0,"created":1547531149776,"version":0},"$loki":2},{"_id":"5c3d65bd3525a329e0c025a7","address":"1 Grand Loop Rd.","location":{"type":"Point","coordinates":[-110.3957396,44.5550505]},"isApproved":true,"items":[],"keys":["Cafeteria"],"lastUpdated":1547527612278,"name":"Lake Lodge Cafeteria","phone":"","price":"$$","reviewCount":13,"reviewScore":2,"meta":{"revision":0,"created":1547531149776,"version":0},"$loki":3},{"_id":"5c3d65bd3525a329e0c0438f","address":"1 Grand Loop Rd.","location":{"type":"Point","coordinates":[-110.3957396,44.5550505]},"isApproved":true,"items":[],"keys":["Restaurants"],"lastUpdated":1547527612321,"name":"Old Faithful Inn Dining Room","phone":"","price":"","reviewCount":7,"reviewScore":3,"meta":{"revision":0,"created":1547531149776,"version":0},"$loki":4},{"_id":"5c3d65bd3525a329e0c09f52","address":"1 Grand Loop Rd.","location":{"type":"Point","coordinates":[-110.3957396,44.5550505]},"isApproved":true,"items":[],"keys":["Cafeteria"],"lastUpdated":1547527612472,"name":"Old Faithful Lodge Cafeteria & Bake Shop","phone":"","price":"$$","reviewCount":7,"reviewScore":2.5,"meta":{"revision":0,"created":1547531149776,"version":0},"$loki":5},{"_id":"5c3d65bd3525a329e0c0eb82","address":"890 Buttermilk Creek Rd","location":{"type":"Point","coordinates":[-110.3957396,44.5550505]},"isApproved":true,"items":[],"keys":["American (Traditional)","Breakfast & Brunch","Hotels"],"lastUpdated":1547527612581,"name":"Bar N Ranch","phone":"(406) 580-5756","price":"$$$","reviewCount":82,"reviewScore":4,"meta":{"revision":0,"created":1547531149776,"version":0},"$loki":6},{"_id":"5c3d65bd3525a329e0c103f5","address":"1 Grand Loop Rd.","location":{"type":"Point","coordinates":[-110.3957396,44.5550505]},"isApproved":true,"items":[],"keys":["Restaurants"],"lastUpdated":1547527612617,"name":"Canyon Lodge Deli","phone":"","price":"$","reviewCount":2,"reviewScore":4,"meta":{"revision":0,"created":1547531149776,"version":0},"$loki":7},{"_id":"5c3d65bd3525a329e0c10a61","address":"1 Grand Loop Rd.","location":{"type":"Point","coordinates":[-110.3957396,44.5550505]},"isApproved":true,"items":[],"keys":["Restaurants"],"lastUpdated":1547527612631,"name":"Mammoth Hotel Dining Room","phone":"","price":"$$","reviewCount":9,"reviewScore":3,"meta":{"revision":0,"created":1547531149776,"version":0},"$loki":8},{"_id":"5c3d65bd3525a329e0c11896","address":"1 Grand Loop Rd.","location":{"type":"Point","coordinates":[-110.3957396,44.5550505]},"isApproved":true,"items":[],"keys":["Restaurants"],"lastUpdated":1547527612650,"name":"Old Faithful Inn Bear Paw Deli","phone":"","price":"","reviewCount":12,"reviewScore":4,"meta":{"revision":0,"created":1547531149776,"version":0},"$loki":9},{"_id":"5c3d65bd3525a329e0c16f7c","address":"1 Grand Loop Rd.","location":{"type":"Point","coordinates":[-110.3957396,44.5550505]},"isApproved":true,"items":[],"keys":["Restaurants"],"lastUpdated":1547527612781,"name":"Lake Deli","phone":"","price":"","reviewCount":2,"reviewScore":2,"meta":{"revision":0,"created":1547531149776,"version":0},"$loki":10},{"_id":"5c3d65bd3525a329e0c1844a","address":"1 Grand Loop Rd.","location":{"type":"Point","coordinates":[-110.3957396,44.5550505]},"isApproved":true,"items":[],"keys":["Restaurants"],"lastUpdated":1547527612814,"name":"Grant Village Lake House Restaurant","phone":"","price":"$$","reviewCount":10,"reviewScore":2.5,"meta":{"revision":0,"created":1547531149776,"version":0},"$loki":11},{"_id":"5c3d65bd3525a329e0c14fd3","address":"1 Grand Loop Rd","location":{"type":"Point","coordinates":[-110.490961074829,44.7337246192775]},"isApproved":true,"items":[],"keys":["American (New)"],"lastUpdated":1547527612736,"name":"Canyon Soda Fountain","phone":"","price":"$$","reviewCount":29,"reviewScore":3.5,"meta":{"revision":0,"created":1547531149776,"version":0},"$loki":12},{"_id":"5c3d65bd3525a329e0bff4fd","address":"10 Canyon St","location":{"type":"Point","coordinates":[-110.491622909904,44.7334816800226]},"isApproved":true,"items":[],"keys":["Cafes","Ice Cream & Frozen Yogurt"],"lastUpdated":1547527612216,"name":"Espresso West","phone":"(406) 640-1906","price":"$","reviewCount":36,"reviewScore":4.5,"meta":{"revision":0,"created":1547531149776,"version":0},"$loki":13},{"_id":"5c3d65bd3525a329e0c13f10","address":"901 Scott St W","location":{"type":"Point","coordinates":[-110.491622909904,44.7334816800226]},"isApproved":true,"items":[],"keys":["American (Traditional)","Breakfast & Brunch"],"lastUpdated":1547527612706,"name":"The Yellowstone Mine","phone":"(406) 848-7336","price":"$$","reviewCount":60,"reviewScore":3,"meta":{"revision":0,"created":1547531149776,"version":0},"$loki":14},{"_id":"5c3d65bd3525a329e0c17927","address":"1 Grand Loop Rd","location":{"type":"Point","coordinates":[-110.490738658105,44.7345475283216]},"isApproved":true,"items":[],"keys":["Cafeteria"],"lastUpdated":1547527612792,"name":"Canyon Lodge Cafeteria","phone":"(307) 344-7311","price":"$$","reviewCount":19,"reviewScore":2,"meta":{"revision":0,"created":1547531149776,"version":0},"$loki":15},{"_id":"5c3d65bd3525a329e0c08db2","address":"","location":{"type":"Point","coordinates":[-110.489882584656,44.7340402042456]},"isApproved":true,"items":[],"keys":["Pop-Up Restaurants","American (Traditional)"],"lastUpdated":1547527612437,"name":"M66 Bar & Grill","phone":"(307) 344-7311","price":"$$","reviewCount":3,"reviewScore":3.5,"meta":{"revision":0,"created":1547531149776,"version":0},"$loki":16},{"_id":"5c3d65bd3525a329e0c1a123","address":"1 Grand Loop Rd","location":{"type":"Point","coordinates":[-110.416853690707,44.9125331994162]},"isApproved":true,"items":[],"keys":["American (Traditional)"],"lastUpdated":1547527612857,"name":"Roosevelt Lodge","phone":"(307) 344-7311","price":"$$","reviewCount":33,"reviewScore":3.5,"meta":{"revision":0,"created":1547531149776,"version":0},"$loki":17},{"_id":"5c3d65bd3525a329e0c00b03","address":"Roosevelt Lodge","location":{"type":"Point","coordinates":[-110.4168524,44.9125864]},"isApproved":true,"items":[],"keys":["Tours","American (Traditional)","Horseback Riding"],"lastUpdated":1547527612230,"name":"Old West Dinner Cookout","phone":"","price":"$$","reviewCount":10,"reviewScore":4,"meta":{"revision":0,"created":1547531149776,"version":0},"$loki":18},{"_id":"5c3d65bd3525a329e0c07820","address":"1016 Scott St","location":{"type":"Point","coordinates":[-110.718010106429,45.0370709386638]},"isApproved":true,"items":[],"keys":["American (New)","Asian Fusion","Barbeque"],"lastUpdated":1547527612408,"name":"Grizzly Grille","phone":"(406) 451-1419","price":"$$","reviewCount":7,"reviewScore":4,"meta":{"revision":0,"created":1547531149776,"version":0},"$loki":19},{"_id":"5c3d65bd3525a329e0c1a081","address":"44 Big Sky Resort Rd","location":{"type":"Point","coordinates":[-110.718010106429,45.0370709386638]},"isApproved":true,"items":[],"keys":["American (Traditional)"],"lastUpdated":1547527612857,"name":"Chet’s Bar and Grill","phone":"(406) 995-5784","price":"$$","reviewCount":29,"reviewScore":3,"meta":{"revision":0,"created":1547531149776,"version":0},"$loki":20},{"_id":"5c3d65bd3525a329e0c0b4ce","address":"163 Chico Rd","location":{"type":"Point","coordinates":[-110.7154344,45.0359321]},"isApproved":true,"items":[],"keys":["Steakhouses","Seafood","American (Traditional)"],"lastUpdated":1547527612499,"name":"Chico Hotsprings Dinning Room","phone":"(406) 333-4933","price":"","reviewCount":1,"reviewScore":5,"meta":{"revision":0,"created":1547531149776,"version":0},"$loki":21},{"_id":"5c3d65bd3525a329e0c00605","address":"107 S 2nd St","location":{"type":"Point","coordinates":[-110.7162395,45.0369965]},"isApproved":true,"items":[],"keys":["Bars","Breakfast & Brunch","American (Traditional)"],"lastUpdated":1547527612227,"name":"Two Bit Saloon","phone":"(406) 848-7743","price":"$$","reviewCount":44,"reviewScore":3.5,"meta":{"revision":0,"created":1547531149776,"version":0},"$loki":22},{"_id":"5c3d65bd3525a329e0c16cc1","address":"118 W Wallace St","location":{"type":"Point","coordinates":[-110.7162395,45.0369965]},"isApproved":true,"items":[],"keys":["Chinese","Seafood","Ice Cream & Frozen Yogurt"],"lastUpdated":1547527612774,"name":"Jade Monkey","phone":"(406) 843-5233","price":"","reviewCount":3,"reviewScore":3.5,"meta":{"revision":0,"created":1547531149776,"version":0},"$loki":23},{"_id":"5c3d65bd3525a329e0c06500","address":"711 Scott St","location":{"type":"Point","coordinates":[-110.7122894,45.0350165]},"isApproved":true,"items":[],"keys":["Burgers","Delis","Sandwiches"],"lastUpdated":1547527612377,"name":"The CORRAL","phone":"(406) 848-7627","price":"$$","reviewCount":101,"reviewScore":4,"meta":{"revision":0,"created":1547531149776,"version":0},"$loki":24},{"_id":"5c3d65bd3525a329e0c0e94f","address":"50 Big Sky Resort Rd","location":{"type":"Point","coordinates":[-110.7122894,45.0350165]},"isApproved":true,"items":[],"keys":["American (New)","Sandwiches"],"lastUpdated":1547527612580,"name":"Everett’s 8800","phone":"(406) 995-8800","price":"$$","reviewCount":35,"reviewScore":3.5,"meta":{"revision":0,"created":1547531149776,"version":0},"$loki":25},{"_id":"5c3d65bd3525a329e0c07339","address":"404 Scott St","location":{"type":"Point","coordinates":[-110.706271135609,45.0337349330892]},"isApproved":true,"items":[],"keys":["American (Traditional)","Coffee & Tea","Breakfast & Brunch"],"lastUpdated":1547527612399,"name":"Yellowstone Grill","phone":"(406) 848-9433","price":"$$","reviewCount":118,"reviewScore":4,"meta":{"revision":0,"created":1547531149776,"version":0},"$loki":26},{"_id":"5c3d65bd3525a329e0c08e41","address":"3793 US Hwy 287","location":{"type":"Point","coordinates":[-110.706271135609,45.0337349330892]},"isApproved":true,"items":[],"keys":["Hotels","Cafes","RV Parks"],"lastUpdated":1547527612438,"name":"Blue Moon Saloon","phone":"(406) 682-4555","price":"$","reviewCount":3,"reviewScore":4.5,"meta":{"revision":0,"created":1547531149776,"version":0},"$loki":27},{"_id":"5c3d65bd3525a329e0c1aeb5","address":"","location":{"type":"Point","coordinates":[-110.7061008,45.033284]},"isApproved":true,"items":[],"keys":["American (New)"],"lastUpdated":1547527612876,"name":"Grant Village General Store","phone":"(307) 242-7266","price":"","reviewCount":1,"reviewScore":5,"meta":{"revision":0,"created":1547531149776,"version":0},"$loki":28},{"_id":"5c3d65bd3525a329e0c0a046","address":"501 Scott St","location":{"type":"Point","coordinates":[-110.7073522,45.0337912]},"isApproved":true,"items":[],"keys":["Coffee & Tea","Breakfast & Brunch","Sandwiches"],"lastUpdated":1547527612472,"name":"Tumbleweed Bookstore and Cafe","phone":"(406) 848-2225","price":"$","reviewCount":59,"reviewScore":4,"meta":{"revision":0,"created":1547531149776,"version":0},"$loki":29},{"_id":"5c3d65bd3525a329e0c09bdf","address":"212 Spring St","location":{"type":"Point","coordinates":[-110.7064529,45.0315881]},"isApproved":true,"items":[],"keys":["American (Traditional)","Bars"],"lastUpdated":1547527612464,"name":"Iron Horse Bar & Grill","phone":"(406) 848-7888","price":"$$","reviewCount":167,"reviewScore":4,"meta":{"revision":0,"created":1547531149776,"version":0},"$loki":30},{"_id":"5c3d65bd3525a329e0c05d5d","address":"206 Main St","location":{"type":"Point","coordinates":[-110.706018370769,45.0305297258168]},"isApproved":true,"items":[],"keys":["Cafes","Vacation Rentals","American (Traditional)"],"lastUpdated":1547527612361,"name":"Wonderland Cafe And Lodge","phone":"(406) 223-1914","price":"$$","reviewCount":71,"reviewScore":4.5,"meta":{"revision":0,"created":1547531149776,"version":0},"$loki":31},{"_id":"5c3d65bd3525a329e0c1086b","address":"77 Lone Peak Dr","location":{"type":"Point","coordinates":[-110.706018370769,45.0305297258168]},"isApproved":true,"items":[],"keys":["Pubs","American (Traditional)"],"lastUpdated":1547527612620,"name":"Choppers Grub & Pub","phone":"(406) 995-3830","price":"$$","reviewCount":72,"reviewScore":2.5,"meta":{"revision":0,"created":1547531149776,"version":0},"$loki":32},{"_id":"5c3d65bd3525a329e0c0e230","address":"202 Main St","location":{"type":"Point","coordinates":[-110.705640766062,45.0305846316962]},"isApproved":true,"items":[],"keys":["Pizza","Salad"],"lastUpdated":1547527612565,"name":"KBAR Pizza","phone":"(406) 848-9995","price":"$$","reviewCount":147,"reviewScore":3.5,"meta":{"revision":0,"created":1547531149776,"version":0},"$loki":33},{"_id":"5c3d65bd3525a329e0c06551","address":"50 Big Sky Resort Rd","location":{"type":"Point","coordinates":[-110.705924,45.0314951]},"isApproved":true,"items":[],"keys":["American (Traditional)"],"lastUpdated":1547527612377,"name":"Peaks","phone":"(406) 995-8076","price":"$$$","reviewCount":15,"reviewScore":3,"meta":{"revision":0,"created":1547531149776,"version":0},"$loki":34},{"_id":"5c3d65bd3525a329e0c09075","address":"206 W Park Pl","location":{"type":"Point","coordinates":[-110.7059,45.036]},"isApproved":true,"items":[],"keys":["Italian"],"lastUpdated":1547527612439,"name":"Rosie’s","phone":"(406) 848-7035","price":"$$","reviewCount":39,"reviewScore":3,"meta":{"revision":0,"created":1547531149776,"version":0},"$loki":35},{"_id":"5c3d65bd3525a329e0c159b8","address":"118 E Park St","location":{"type":"Point","coordinates":[-110.705024454332,45.0298017154199]},"isApproved":true,"items":[],"keys":["American (New)"],"lastUpdated":1547527612747,"name":"The Raven Grill","phone":"(406) 848-9171","price":"$$","reviewCount":243,"reviewScore":4,"meta":{"revision":0,"created":1547531149776,"version":0},"$loki":36},{"_id":"5c3d65bd3525a329e0c1879f","address":"1360 E River Rd","location":{"type":"Point","coordinates":[-110.7056088,45.0302156]},"isApproved":true,"items":[],"keys":["American (Traditional)","Breakfast & Brunch","Pizza"],"lastUpdated":1547527612821,"name":"Pray Cafe","phone":"(406) 333-4202","price":"","reviewCount":7,"reviewScore":5,"meta":{"revision":0,"created":1547531149776,"version":0},"$loki":37},{"_id":"5c3d65bd3525a329e0c13ef1","address":"206 W Park St Gardiner","location":{"type":"Point","coordinates":[-110.7057624,45.0299861]},"isApproved":true,"items":[],"keys":["Sports Bars","American (Traditional)"],"lastUpdated":1547527612706,"name":"Red’s Blue Goose Saloon","phone":"(406) 848-7434","price":"$","reviewCount":12,"reviewScore":4.5,"meta":{"revision":0,"created":1547531149776,"version":0},"$loki":38},{"_id":"5c3d65bd3525a329e0c09aed","address":"557 Mammoth","location":{"type":"Point","coordinates":[-110.7055344,45.0297769]},"isApproved":true,"items":[],"keys":["American (New)"],"lastUpdated":1547527612464,"name":"Mammoth Hot Springs Dining Room","phone":"","price":"$$","reviewCount":51,"reviewScore":2.5,"meta":{"revision":0,"created":1547531149776,"version":0},"$loki":39},{"_id":"5c3d65bd3525a329e0c0a7fa","address":"118 Ousel Falls Rd","location":{"type":"Point","coordinates":[-110.7055344,45.0297769]},"isApproved":true,"items":[],"keys":["Mexican","Lounges","Cocktail Bars"],"lastUpdated":1547527612482,"name":"El Patron Cantina","phone":"(406) 995-7222","price":"$$","reviewCount":11,"reviewScore":2.5,"meta":{"revision":0,"created":1547531149776,"version":0},"$loki":40},{"_id":"5c3d65bd3525a329e0c191fc","address":"210 Park St","location":{"type":"Point","coordinates":[-110.7073146,45.0297258]},"isApproved":true,"items":[],"keys":["Pizza"],"lastUpdated":1547527612833,"name":"Yellowstone Pizza Company","phone":"(406) 848-9991","price":"$$","reviewCount":113,"reviewScore":4,"meta":{"revision":0,"created":1547531149776,"version":0},"$loki":41},{"_id":"5c3d65bd3525a329e0c0f2bc","address":"1 Grand View Loop Rd","location":{"type":"Point","coordinates":[-110.702770882588,44.9751885545592]},"isApproved":true,"items":[],"keys":["American (Traditional)"],"lastUpdated":1547527612591,"name":"Mammoth Terrace Grill","phone":"","price":"$","reviewCount":48,"reviewScore":2.5,"meta":{"revision":0,"created":1547531149776,"version":0},"$loki":42},{"_id":"5c3d65bd3525a329e0c0fd28","address":"50 Big Sky Resort Rd","location":{"type":"Point","coordinates":[-110.702770882588,44.9751885545592]},"isApproved":true,"items":[],"keys":["Burgers","Salad","Delis"],"lastUpdated":1547527612608,"name":"Lone Peak Café","phone":"(406) 995-5876","price":"","reviewCount":1,"reviewScore":3,"meta":{"revision":0,"created":1547531149776,"version":0},"$loki":43},{"_id":"5c3d65bd3525a329e0c18ecd","address":"107 Hellroaring St","location":{"type":"Point","coordinates":[-110.702272660009,44.9759558743412]},"isApproved":true,"items":[],"keys":["American (Traditional)","Bars","Burgers"],"lastUpdated":1547527612831,"name":"Antler Pub & Grill","phone":"(406) 848-7536","price":"$$","reviewCount":19,"reviewScore":4,"meta":{"revision":0,"created":1547531149776,"version":0},"$loki":44},{"_id":"5c3d65bd3525a329e0c07238","address":"Hwy 89","location":{"type":"Point","coordinates":[-110.702356,44.97601]},"isApproved":true,"items":[],"keys":["American (Traditional)"],"lastUpdated":1547527612398,"name":"Mammoth Hotel Dining Room","phone":"(307) 344-7311","price":"$$","reviewCount":35,"reviewScore":3,"meta":{"revision":0,"created":1547531149776,"version":0},"$loki":45},{"_id":"5c3d65bd3525a329e0c09393","address":"11 Yellowstone Ave","location":{"type":"Point","coordinates":[-111.114695846619,44.6865049229737]},"isApproved":true,"items":[],"keys":["Mexican"],"lastUpdated":1547527612452,"name":"Taco’s El Mirador","phone":"(406) 577-4359","price":"","reviewCount":1,"reviewScore":4,"meta":{"revision":0,"created":1547531149776,"version":0},"$loki":46},{"_id":"5c3d65bd3525a329e0c09e3c","address":"Corner Of Madison","location":{"type":"Point","coordinates":[-111.1145613,44.6867178]},"isApproved":true,"items":[],"keys":["Casinos","Pizza"],"lastUpdated":1547527612471,"name":"Gusher Pizza & Sandwich Shoppe","phone":"(406) 646-9050","price":"$$","reviewCount":5,"reviewScore":3.5,"meta":{"revision":0,"created":1547531149776,"version":0},"$loki":47},{"_id":"5c3d65bd3525a329e0c1546a","address":"19 Madison Ave","location":{"type":"Point","coordinates":[-111.110143661499,44.6603391964244]},"isApproved":true,"items":[],"keys":["Chinese"],"lastUpdated":1547527612745,"name":"Red Lotus","phone":"(406) 646-7002","price":"$$","reviewCount":218,"reviewScore":2.5,"meta":{"revision":0,"created":1547531149776,"version":0},"$loki":48},{"_id":"5c3d65bd3525a329e0c10c71","address":"139 N Canyon St","location":{"type":"Point","coordinates":[-111.09968891969,44.6619051068093]},"isApproved":true,"items":[],"keys":["American (New)","Pubs","Pizza"],"lastUpdated":1547527612633,"name":"Slippery Otter Pub","phone":"(406) 646-7050","price":"$$","reviewCount":435,"reviewScore":4,"meta":{"revision":0,"created":1547531149776,"version":0},"$loki":49},{"_id":"5c3d65bd3525a329e0c0425c","address":"721 Yellowstone Airport Rd","location":{"type":"Point","coordinates":[-111.099436,44.6612055]},"isApproved":true,"items":[],"keys":["American (Traditional)","Gluten-Free"],"lastUpdated":1547527612321,"name":"SmokeJumper Cafe - Temp. CLOSED","phone":"(406) 646-9060","price":"$$","reviewCount":49,"reviewScore":4.5,"meta":{"revision":0,"created":1547531149776,"version":0},"$loki":50},{"_id":"5c3d65bd3525a329e0c1139e","address":"22 N Canyon St","location":{"type":"Point","coordinates":[-111.098665,44.660842]},"isApproved":true,"items":[],"keys":["American (Traditional)","Breakfast & Brunch","Fish & Chips"],"lastUpdated":1547527612642,"name":"Canyon Street Grill","phone":"(406) 646-7548","price":"$$","reviewCount":105,"reviewScore":3.5,"meta":{"revision":0,"created":1547531149776,"version":0},"$loki":51},{"_id":"5c3d65bd3525a329e0c078b9","address":"215 N Canyon St","location":{"type":"Point","coordinates":[-111.0984043,44.6607409]},"isApproved":true,"items":[],"keys":["Fast Food","Sandwiches"],"lastUpdated":1547527612408,"name":"Subway","phone":"(406) 646-4132","price":"$","reviewCount":16,"reviewScore":2,"meta":{"revision":0,"created":1547531149776,"version":0},"$loki":52},{"_id":"5c3d65bd3525a329e0c04e50","address":"14 Madison Ave","location":{"type":"Point","coordinates":[-111.098200455308,44.660530481062]},"isApproved":true,"items":[],"keys":["Pizza"],"lastUpdated":1547527612338,"name":"Wild West Pizzeria & Saloon","phone":"(406) 646-4400","price":"$$","reviewCount":542,"reviewScore":4,"meta":{"revision":0,"created":1547531149776,"version":0},"$loki":53},{"_id":"5c3d65bd3525a329e0c17bf5","address":"234 Firehole Ave","location":{"type":"Point","coordinates":[-111.0977158,44.6589345]},"isApproved":true,"items":[],"keys":["Hotels","Restaurants"],"lastUpdated":1547527612800,"name":"Yellowstone Country Inn","phone":"(406) 646-7622","price":"$$$$","reviewCount":12,"reviewScore":1.5,"meta":{"revision":0,"created":1547531149776,"version":0},"$loki":54},{"_id":"5c3d65bd3525a329e0c16031","address":"North Rim Drive","location":{"type":"Point","coordinates":[-111.0981979,44.6588797]},"isApproved":true,"items":[],"keys":["American (Traditional)"],"lastUpdated":1547527612756,"name":"Hamilton Stores Fountain","phone":"","price":"","reviewCount":3,"reviewScore":2.5,"meta":{"revision":0,"created":1547531149776,"version":0},"$loki":55},{"_id":"5c3d65bd3525a329e0c04324","address":"135 Yellowstone Ave","location":{"type":"Point","coordinates":[-111.100026203941,44.6588678530071]},"isApproved":true,"items":[],"keys":["American (Traditional)","Cafes"],"lastUpdated":1547527612321,"name":"Timberline Cafe","phone":"(406) 646-9349","price":"$$","reviewCount":78,"reviewScore":3,"meta":{"revision":0,"created":1547531149776,"version":0},"$loki":56},{"_id":"5c3d65bd3525a329e0c06a4a","address":"17 Madison Ave","location":{"type":"Point","coordinates":[-111.100600623977,44.6588065468718]},"isApproved":true,"items":[],"keys":["Coffee & Tea","Breakfast & Brunch","Sandwiches"],"lastUpdated":1547527612379,"name":"Mountain Mama’s Coffee House & Bakery","phone":"(406) 641-0089","price":"$","reviewCount":44,"reviewScore":4,"meta":{"revision":0,"created":1547531149776,"version":0},"$loki":57},{"_id":"5c3d65bd3525a329e0c13663","address":"40 Dunraven St","location":{"type":"Point","coordinates":[-111.098798923194,44.65682250377]},"isApproved":true,"items":[],"keys":["Pizza","Sandwiches"],"lastUpdated":1547527612696,"name":"The Gusher","phone":"(406) 646-9050","price":"$$","reviewCount":118,"reviewScore":3,"meta":{"revision":0,"created":1547531149776,"version":0},"$loki":58},{"_id":"5c3d65bd3525a329e0c0e3df","address":"315 Madison Ave","location":{"type":"Point","coordinates":[-111.100255092651,44.6574410553384]},"isApproved":true,"items":[],"keys":["American (Traditional)"],"lastUpdated":1547527612572,"name":"Trappers Family Restaurant","phone":"(406) 646-9375","price":"$","reviewCount":14,"reviewScore":2.5,"meta":{"revision":0,"created":1547531149776,"version":0},"$loki":59},{"_id":"5c3d65bd3525a329e0c0a92a","address":"205 W Yellowstone Ave","location":{"type":"Point","coordinates":[-111.104877,44.659184]},"isApproved":true,"items":[],"keys":["American (Traditional)","Breakfast & Brunch"],"lastUpdated":1547527612482,"name":"Three Bear Restaurant","phone":"(406) 646-7811","price":"$$","reviewCount":189,"reviewScore":3,"meta":{"revision":0,"created":1547531149776,"version":0},"$loki":60},{"_id":"5c3d65bd3525a329e0c19c37","address":"3 Yellowstone Ave","location":{"type":"Point","coordinates":[-111.102314,44.660284]},"isApproved":true,"items":[],"keys":["Pizza"],"lastUpdated":1547527612850,"name":"Yellowstone Pizza & Internet Cafe","phone":"(406) 646-1116","price":"","reviewCount":5,"reviewScore":1.5,"meta":{"revision":0,"created":1547531149776,"version":0},"$loki":61},{"_id":"5c3d65bd3525a329e0c0a005","address":"132 Madison Ave","location":{"type":"Point","coordinates":[-111.1023099,44.6602805]},"isApproved":true,"items":[],"keys":["Tea Rooms","Sushi Bars","Japanese"],"lastUpdated":1547527612472,"name":"Tea Tao’s","phone":"(406) 646-6299","price":"$$","reviewCount":83,"reviewScore":2,"meta":{"revision":0,"created":1547531149776,"version":0},"$loki":62},{"_id":"5c3d65bd3525a329e0c093f3","address":"Canyon Village","location":{"type":"Point","coordinates":[-111.102379900819,44.6590046075048]},"isApproved":true,"items":[],"keys":["Salad","Convenience Stores"],"lastUpdated":1547527612452,"name":"Yellowstone General Stores","phone":"","price":"","reviewCount":4,"reviewScore":2.5,"meta":{"revision":0,"created":1547531149776,"version":0},"$loki":63},{"_id":"5c3d65bd3525a329e0c01a43","address":"112 Canyon St","location":{"type":"Point","coordinates":[-111.1015083,44.6589008]},"isApproved":true,"items":[],"keys":["Italian","Pizza","Sandwiches"],"lastUpdated":1547527612257,"name":"Pete’s Rocky Mountain Pizza and Pasta","phone":"(406) 646-7820","price":"$$","reviewCount":137,"reviewScore":3.5,"meta":{"revision":0,"created":1547531149776,"version":0},"$loki":64},{"_id":"5c3d65bd3525a329e0c0aaec","address":"302 Firehole Ave","location":{"type":"Point","coordinates":[-111.1005848,44.6590963]},"isApproved":true,"items":[],"keys":["Coffee & Tea","Ice Cream & Frozen Yogurt","Breakfast & Brunch"],"lastUpdated":1547527612489,"name":"Go-Go Espresso Drive Thru / Walk up","phone":"(406) 640-0649","price":"$","reviewCount":19,"reviewScore":4,"meta":{"revision":0,"created":1547531149776,"version":0},"$loki":65},{"_id":"5c3d65bd3525a329e0c0581f","address":"237 Firehole Ave","location":{"type":"Point","coordinates":[-111.1001763,44.6597604]},"isApproved":true,"items":[],"keys":["Breakfast & Brunch"],"lastUpdated":1547527612349,"name":"Euro Cafe","phone":"(406) 646-1170","price":"$$","reviewCount":84,"reviewScore":4,"meta":{"revision":0,"created":1547531149776,"version":0},"$loki":66},{"_id":"5c3d65bd3525a329e0c170f6","address":"100 S Canyon","location":{"type":"Point","coordinates":[-111.099705145095,44.6594614069254]},"isApproved":true,"items":[],"keys":["Fast Food","Burgers","Coffee & Tea"],"lastUpdated":1547527612782,"name":"McDonald’s","phone":"(406) 646-4592","price":"$","reviewCount":49,"reviewScore":2,"meta":{"revision":0,"created":1547531149776,"version":0},"$loki":67},{"_id":"5c3d65bd3525a329e0c0358a","address":"21 N Canyon St","location":{"type":"Point","coordinates":[-111.099288,44.6597789]},"isApproved":true,"items":[],"keys":["Mexican","Food Trucks"],"lastUpdated":1547527612303,"name":"Las Palmitas","phone":"(406) 640-1822","price":"$","reviewCount":249,"reviewScore":4.5,"meta":{"revision":0,"created":1547531149776,"version":0},"$loki":68},{"_id":"5c3d65bd3525a329e0c1ab6d","address":"615 Hwy Ave","location":{"type":"Point","coordinates":[-111.1003591,44.6603121]},"isApproved":true,"items":[],"keys":["Chinese"],"lastUpdated":1547527612868,"name":"China Panda","phone":"(406) 646-7126","price":"$$","reviewCount":25,"reviewScore":2.5,"meta":{"revision":0,"created":1547531149776,"version":0},"$loki":69},{"_id":"5c3d65bd3525a329e0c0d063","address":"121 Madison Ave","location":{"type":"Point","coordinates":[-111.100367,44.660685]},"isApproved":true,"items":[],"keys":["Bars","American (Traditional)"],"lastUpdated":1547527612544,"name":"Madison Crossing Lounge","phone":"(406) 646-7621","price":"$$","reviewCount":302,"reviewScore":4,"meta":{"revision":0,"created":1547531149776,"version":0},"$loki":70},{"_id":"5c3d65bd3525a329e0c12422","address":"110 Madison Ave","location":{"type":"Point","coordinates":[-111.099932,44.660457]},"isApproved":true,"items":[],"keys":["Chinese"],"lastUpdated":1547527612670,"name":"Chinatown Restaurant","phone":"(406) 646-7088","price":"$$","reviewCount":134,"reviewScore":1.5,"meta":{"revision":0,"created":1547531149776,"version":0},"$loki":71},{"_id":"5c3d65bd3525a329e0c15883","address":"38 N Canyon St","location":{"type":"Point","coordinates":[-111.0999345,44.6609804]},"isApproved":true,"items":[],"keys":["American (New)","French"],"lastUpdated":1547527612747,"name":"Serenity Bistro","phone":"(406) 646-7660","price":"$$$","reviewCount":125,"reviewScore":3.5,"meta":{"revision":0,"created":1547531149776,"version":0},"$loki":72},{"_id":"5c3d65bd3525a329e0c1ac58","address":"105 S Canyon St","location":{"type":"Point","coordinates":[-111.101259,44.660174]},"isApproved":true,"items":[],"keys":["American (New)","Chinese"],"lastUpdated":1547527612869,"name":"Park One Restaurant","phone":"(406) 646-9595","price":"$$","reviewCount":51,"reviewScore":2.5,"meta":{"revision":0,"created":1547531149776,"version":0},"$loki":73},{"_id":"5c3d65bd3525a329e0c07461","address":"115 Yellowstone Ave","location":{"type":"Point","coordinates":[-111.1015521,44.6603417]},"isApproved":true,"items":[],"keys":["American (Traditional)","Coffee & Tea","Breakfast & Brunch"],"lastUpdated":1547527612400,"name":"Outpost Restaurant","phone":"(406) 646-7303","price":"$$","reviewCount":100,"reviewScore":3,"meta":{"revision":0,"created":1547531149776,"version":0},"$loki":74},{"_id":"5c3d65bd3525a329e0c0e9f8","address":"4141 Sawtelle Peak Rd","location":{"type":"Point","coordinates":[-111.1015521,44.6603417]},"isApproved":true,"items":[],"keys":["Sandwiches","Fast Food"],"lastUpdated":1547527612581,"name":"Subway","phone":"(208) 558-9884","price":"","reviewCount":2,"reviewScore":2,"meta":{"revision":0,"created":1547531149776,"version":0},"$loki":75},{"_id":"5c3d65bd3525a329e0c1812e","address":"236 N Dunraven St","location":{"type":"Point","coordinates":[-111.100163437957,44.6618381111501]},"isApproved":true,"items":[],"keys":["Hotels","Restaurants"],"lastUpdated":1547527612809,"name":"Yellowstone Park Inn & Suites","phone":"(406) 646-7681","price":"$$","reviewCount":6,"reviewScore":2.5,"meta":{"revision":0,"created":1547531149776,"version":0},"$loki":76},{"_id":"5c3d65bd3525a329e0c00889","address":"120 Firehole Ave","location":{"type":"Point","coordinates":[-111.1004496,44.6620333]},"isApproved":true,"items":[],"keys":["Barbeque"],"lastUpdated":1547527612228,"name":"Firehole Bar-B-Que","phone":"(406) 641-0020","price":"$$","reviewCount":93,"reviewScore":4.5,"meta":{"revision":0,"created":1547531149776,"version":0},"$loki":77},{"_id":"5c3d65bd3525a329e0c15a03","address":"132 Firehole St","location":{"type":"Point","coordinates":[-111.101009488789,44.6620864155898]},"isApproved":true,"items":[],"keys":["Food Trucks","Mexican"],"lastUpdated":1547527612748,"name":"Taqueria Malverde","phone":"(208) 403-1157","price":"$","reviewCount":83,"reviewScore":4.5,"meta":{"revision":0,"created":1547531149776,"version":0},"$loki":78},{"_id":"5c3d65bd3525a329e0c0685a","address":"Yelloestone Ave","location":{"type":"Point","coordinates":[-111.102287,44.6635075]},"isApproved":true,"items":[],"keys":["Delis"],"lastUpdated":1547527612378,"name":"Red Onion Deli","phone":"","price":"","reviewCount":1,"reviewScore":4,"meta":{"revision":0,"created":1547531149776,"version":0},"$loki":79},{"_id":"5c3d65bd3525a329e0c02872","address":"721 Yellowstone Airport Rd","location":{"type":"Point","coordinates":[-111.1036638,44.6621088]},"isApproved":true,"items":[],"keys":["Italian"],"lastUpdated":1547527612285,"name":"TJ’s Italian Restaurant","phone":"(406) 646-4700","price":"","reviewCount":1,"reviewScore":3,"meta":{"revision":0,"created":1547531149776,"version":0},"$loki":80},{"_id":"5c3d65bd3525a329e0c1725c","address":"316 Canyon St","location":{"type":"Point","coordinates":[-111.103790947892,44.6624752371488]},"isApproved":true,"items":[],"keys":["Chinese"],"lastUpdated":1547527612783,"name":"China Fun Restaurant","phone":"(406) 646-9988","price":"$$","reviewCount":75,"reviewScore":2.5,"meta":{"revision":0,"created":1547531149776,"version":0},"$loki":81},{"_id":"5c3d65bd3525a329e0c03486","address":"24 Canyon St","location":{"type":"Point","coordinates":[-111.1044707,44.6621328]},"isApproved":true,"items":[],"keys":["Barbeque","Steakhouses","Burgers"],"lastUpdated":1547527612302,"name":"Buckaroo Bills Ice Cream Parlor & Bbq","phone":"(406) 646-7901","price":"$$","reviewCount":107,"reviewScore":3,"meta":{"revision":0,"created":1547531149776,"version":0},"$loki":82},{"_id":"5c3d65bd3525a329e0c04381","address":"335 Hwy 20 Ave","location":{"type":"Point","coordinates":[-111.105944,44.662587]},"isApproved":true,"items":[],"keys":["American (Traditional)","Breakfast & Brunch","Lounges"],"lastUpdated":1547527612321,"name":"The Buffalo Bar & Casino","phone":"(406) 646-1176","price":"$$","reviewCount":259,"reviewScore":4,"meta":{"revision":0,"created":1547531149776,"version":0},"$loki":83},{"_id":"5c3d65bd3525a329e0c05403","address":"538 Madison Ave","location":{"type":"Point","coordinates":[-111.107167,44.662444]},"isApproved":true,"items":[],"keys":["Breakfast & Brunch","American (Traditional)","Coffee & Tea"],"lastUpdated":1547527612347,"name":"Running Bear Pancake House","phone":"(406) 646-7703","price":"$$","reviewCount":359,"reviewScore":4,"meta":{"revision":0,"created":1547531149776,"version":0},"$loki":84},{"_id":"5c3d65bd3525a329e0c08aed","address":"115 N Canyon St","location":{"type":"Point","coordinates":[-111.100243,44.664541]},"isApproved":true,"items":[],"keys":["American (New)"],"lastUpdated":1547527612435,"name":"Bullwinkles","phone":"(406) 646-7630","price":"$$","reviewCount":239,"reviewScore":3.5,"meta":{"revision":0,"created":1547531149776,"version":0},"$loki":85},{"_id":"5c3d65bd3525a329e0c03f35","address":"311 N Canyon St","location":{"type":"Point","coordinates":[-111.0997844,44.6643401]},"isApproved":true,"items":[],"keys":["Spanish","Gluten-Free","Tapas Bars"],"lastUpdated":1547527612319,"name":"Café Madriz","phone":"(406) 646-9245","price":"$$","reviewCount":243,"reviewScore":4.5,"meta":{"revision":0,"created":1547531149776,"version":0},"$loki":86},{"_id":"5c3d65bd3525a329e0c0894f","address":"128 Madison Ave","location":{"type":"Point","coordinates":[-111.111256,44.663547]},"isApproved":true,"items":[],"keys":["American (Traditional)","Bars","Cafes"],"lastUpdated":1547527612429,"name":"Old Town Cafe","phone":"(406) 646-0126","price":"$$","reviewCount":106,"reviewScore":3,"meta":{"revision":0,"created":1547531149776,"version":0},"$loki":87},{"_id":"5c3d65bd3525a329e0c004e1","address":"","location":{"type":"Point","coordinates":[-110.6424411,44.4620852]},"isApproved":true,"items":[],"keys":["American (New)"],"lastUpdated":1547527612226,"name":"Lake Yellowstone Hotel Dining Room","phone":"(866) 439-7375","price":"$$$","reviewCount":60,"reviewScore":3.5,"meta":{"revision":0,"created":1547531149776,"version":0},"$loki":88},{"_id":"5c3d65bd3525a329e0c021e5","address":"Old Faithful Snow Lodge","location":{"type":"Point","coordinates":[-110.829695,44.456804]},"isApproved":true,"items":[],"keys":["American (New)","Breakfast & Brunch"],"lastUpdated":1547527612276,"name":"Obsidian Room","phone":"(307) 344-7311","price":"$$","reviewCount":26,"reviewScore":2.5,"meta":{"revision":0,"created":1547531149776,"version":0},"$loki":89},{"_id":"5c3d65bd3525a329e0c048b8","address":"1000 Old Faithful Rd","location":{"type":"Point","coordinates":[-110.829566722708,44.4574663641364]},"isApproved":true,"items":[],"keys":["American (Traditional)"],"lastUpdated":1547527612330,"name":"Geyser Grill","phone":"(307) 545-4813","price":"","reviewCount":11,"reviewScore":2,"meta":{"revision":0,"created":1547531149776,"version":0},"$loki":90},{"_id":"5c3d65bd3525a329e0c0735b","address":"Yellowstone National Park","location":{"type":"Point","coordinates":[-110.827761,44.463191]},"isApproved":true,"items":[],"keys":["Hotels","American (New)","Breakfast & Brunch"],"lastUpdated":1547527612399,"name":"Old Faithful Inn Dining Room","phone":"(307) 344-7311","price":"$$","reviewCount":193,"reviewScore":3,"meta":{"revision":0,"created":1547531149776,"version":0},"$loki":91},{"_id":"5c3d65bd3525a329e0c0db1f","address":"315 Yellowstone Ave","location":{"type":"Point","coordinates":[-110.8337551,44.460625]},"isApproved":true,"items":[],"keys":["American (Traditional)","Steakhouses","Bars"],"lastUpdated":1547527612556,"name":"The Branch Restaurant and Bar","phone":"(406) 646-7365","price":"$$","reviewCount":73,"reviewScore":3,"meta":{"revision":0,"created":1547531149776,"version":0},"$loki":92},{"_id":"5c3d65bd3525a329e0c01829","address":"Near Old Faithful Inn Northside","location":{"type":"Point","coordinates":[-110.83397269249,44.4608170361699]},"isApproved":true,"items":[],"keys":["American (Traditional)"],"lastUpdated":1547527612251,"name":"Hamilton Stores Fountain","phone":"","price":"$$","reviewCount":11,"reviewScore":3.5,"meta":{"revision":0,"created":1547531149776,"version":0},"$loki":93}],"idIndex":[1,2,3,4,5,6,7,8,9,10,11,12,13,14,15,16,17,18,19,20,21,22,23,24,25,26,27,28,29,30,31,32,33,34,35,36,37,38,39,40,41,42,43,44,45,46,47,48,49,50,51,52,53,54,55,56,57,58,59,60,61,62,63,64,65,66,67,68,69,70,71,72,73,74,75,76,77,78,79,80,81,82,83,84,85,86,87,88,89,90,91,92,93],"binaryIndices":{},"constraints":null,"uniqueNames":[],"transforms":{},"objType":"restaurants","dirty":true,"cachedIndex":null,"cachedBinaryIndex":null,"cachedData":null,"adaptiveBinaryIndices":true,"transactional":false,"cloneObjects":false,"cloneMethod":"parse-stringify","asyncListeners":false,"disableMeta":false,"disableChangesApi":true,"disableDeltaChangesApi":true,"autoupdate":false,"serializableIndices":true,"ttl":null,"maxId":93,"DynamicViews":[],"events":{"insert":[],"update":[],"pre-insert":[],"pre-update":[],"close":[],"flushbuffer":[],"error":[],"delete":[null],"warning":[null]},"changes":[]}],"databaseVersion":1.5,"engineVersion":1.5,"autosave":false,"autosaveInterval":5000,"autosaveHandle":null,"throttledSaves":true,"options":{"serializationMethod":"normal","destructureDelimiter":"$<\n"},"persistenceMethod":"fs","persistenceAdapter":null,"verbose":false,"events":{"init":[null],"loaded":[],"flushChanges":[],"close":[],"changes":[],"warning":[]},"ENV":"NODEJS"}