{"filename":"-111.25-39.25","collections":[{"name":"restaurants","data":[{"_id":"5c3d65bd3525a329e0c04f5f","address":"195 S Main","location":{"type":"Point","coordinates":[-110.9649629,39.3238155]},"isApproved":true,"items":[],"keys":["Fast Food","Sandwiches"],"lastUpdated":1547527612339,"name":"Subway","phone":"(435) 687-2345","price":"","reviewCount":2,"reviewScore":2.5,"meta":{"revision":0,"created":1547531148723,"version":0},"$loki":1},{"_id":"5c3d65bd3525a329e0c0a2dd","address":"686 North 400 E","location":{"type":"Point","coordinates":[-110.954905,39.339067]},"isApproved":true,"items":[],"keys":["American (Traditional)"],"lastUpdated":1547527612473,"name":"Ponderosa Grill","phone":"(435) 687-3663","price":"","reviewCount":1,"reviewScore":5,"meta":{"revision":0,"created":1547531148723,"version":0},"$loki":2},{"_id":"5c3d65bd3525a329e0c1604f","address":"686 N 400th E","location":{"type":"Point","coordinates":[-110.9548816,39.3389373]},"isApproved":true,"items":[],"keys":["Cafes"],"lastUpdated":1547527612756,"name":"Garden Cafe","phone":"(435) 687-2264","price":"$","reviewCount":3,"reviewScore":4.5,"meta":{"revision":0,"created":1547531148723,"version":0},"$loki":3},{"_id":"5c3d65bd3525a329e0c00e10","address":"801 E Main St","location":{"type":"Point","coordinates":[-110.964167,39.334989]},"isApproved":true,"items":[],"keys":["Mexican"],"lastUpdated":1547527612237,"name":"El Salto Cafe","phone":"(435) 637-6545","price":"","reviewCount":3,"reviewScore":1.5,"meta":{"revision":0,"created":1547531148723,"version":0},"$loki":4},{"_id":"5c3d65bd3525a329e0c02fb0","address":"506 N Main","location":{"type":"Point","coordinates":[-110.964167,39.334989]},"isApproved":true,"items":[],"keys":["Convenience Stores","Pizza"],"lastUpdated":1547527612295,"name":"B K’s Stop-N Shop","phone":"(435) 687-9393","price":"","reviewCount":1,"reviewScore":4,"meta":{"revision":0,"created":1547531148723,"version":0},"$loki":5},{"_id":"5c3d65bd3525a329e0c0a1e4","address":"340 E Main St","location":{"type":"Point","coordinates":[-111.0133692,39.2116279]},"isApproved":true,"items":[],"keys":["Pizza","Burgers","Sandwiches"],"lastUpdated":1547527612473,"name":"Fatty’s Pizza & Grill","phone":"(435) 381-5080","price":"$","reviewCount":12,"reviewScore":3.5,"meta":{"revision":0,"created":1547531148723,"version":0},"$loki":6},{"_id":"5c3d65bd3525a329e0c00aee","address":"555 E Main St","location":{"type":"Point","coordinates":[-111.009133681655,39.212021850973]},"isApproved":true,"items":[],"keys":["Pizza"],"lastUpdated":1547527612230,"name":"R Pizza Place","phone":"(435) 381-2163","price":"","reviewCount":3,"reviewScore":5,"meta":{"revision":0,"created":1547531148723,"version":0},"$loki":7},{"_id":"5c3d65bd3525a329e0c08a4b","address":"1659 S State St","location":{"type":"Point","coordinates":[-111.1332247,39.0935829]},"isApproved":true,"items":[],"keys":["Fast Food","Burgers"],"lastUpdated":1547527612430,"name":"Carl’s Jr","phone":"(435) 529-2048","price":"$","reviewCount":9,"reviewScore":3,"meta":{"revision":0,"created":1547531148723,"version":0},"$loki":8},{"_id":"5c3d65bd3525a329e0c10abf","address":"","location":{"type":"Point","coordinates":[-111.1332247,39.0935829]},"isApproved":true,"items":[],"keys":["American (Traditional)"],"lastUpdated":1547527612631,"name":"Millsite Snack Shack","phone":"(435) 384-2887","price":"","reviewCount":3,"reviewScore":4,"meta":{"revision":0,"created":1547531148723,"version":0},"$loki":9},{"_id":"5c3d65bd3525a329e0c082bb","address":"549 S Main","location":{"type":"Point","coordinates":[-111.132402,39.091449]},"isApproved":true,"items":[],"keys":["Fast Food","Burgers","Coffee & Tea"],"lastUpdated":1547527612420,"name":"McDonald’s","phone":"(435) 283-4915","price":"$","reviewCount":9,"reviewScore":3.5,"meta":{"revision":0,"created":1547531148723,"version":0},"$loki":10},{"_id":"5c3d65bd3525a329e0c0857d","address":"95 N State St","location":{"type":"Point","coordinates":[-111.132402,39.091449]},"isApproved":true,"items":[],"keys":["Fast Food"],"lastUpdated":1547527612427,"name":"Grub Box Drive Inn","phone":"(435) 384-2623","price":"$","reviewCount":6,"reviewScore":4.5,"meta":{"revision":0,"created":1547531148723,"version":0},"$loki":11},{"_id":"5c3d65bd3525a329e0c0a7bf","address":"33 N Main","location":{"type":"Point","coordinates":[-111.4960789,39.478601]},"isApproved":true,"items":[],"keys":["Cafes"],"lastUpdated":1547527612481,"name":"Das Cafe","phone":"(435) 462-7484","price":"$","reviewCount":38,"reviewScore":5,"meta":{"revision":0,"created":1547531148723,"version":0},"$loki":12},{"_id":"5c3d65bd3525a329e0c11a5f","address":"61 S Main St","location":{"type":"Point","coordinates":[-111.5870176,39.3587077]},"isApproved":true,"items":[],"keys":["Hawaiian"],"lastUpdated":1547527612652,"name":"kalama’s Island Style","phone":"(435) 283-3577","price":"","reviewCount":5,"reviewScore":5,"meta":{"revision":0,"created":1547531148723,"version":0},"$loki":13},{"_id":"5c3d65bd3525a329e0c17278","address":"81 S Main St","location":{"type":"Point","coordinates":[-111.5867483,39.3583094]},"isApproved":true,"items":[],"keys":["Italian","Pizza","Sandwiches"],"lastUpdated":1547527612783,"name":"Roy’s Pizza & Pasta","phone":"(435) 283-4222","price":"$$","reviewCount":28,"reviewScore":4.5,"meta":{"revision":0,"created":1547531148723,"version":0},"$loki":14},{"_id":"5c3d65bd3525a329e0c09a58","address":"96 E Center St","location":{"type":"Point","coordinates":[-111.5842886,39.3597646]},"isApproved":true,"items":[],"keys":["Cafes","Coffee & Tea","Bagels"],"lastUpdated":1547527612463,"name":"Solid Rock Cafe","phone":"(435) 283-0178","price":"$","reviewCount":7,"reviewScore":5,"meta":{"revision":0,"created":1547531148723,"version":0},"$loki":15},{"_id":"5c3d65bd3525a329e0c12d33","address":"1895 S State St","location":{"type":"Point","coordinates":[-111.5867251,39.3649064]},"isApproved":true,"items":[],"keys":["Fast Food","Sandwiches"],"lastUpdated":1547527612681,"name":"Arby’s","phone":"(435) 287-0464","price":"$","reviewCount":2,"reviewScore":3,"meta":{"revision":0,"created":1547531148723,"version":0},"$loki":16},{"_id":"5c3d65bd3525a329e0c1a703","address":"150 N Main St","location":{"type":"Point","coordinates":[-111.5868648,39.3625594]},"isApproved":true,"items":[],"keys":["Ice Cream & Frozen Yogurt","Burgers"],"lastUpdated":1547527612866,"name":"The Malt Shop","phone":"(435) 283-4101","price":"$$","reviewCount":9,"reviewScore":3,"meta":{"revision":0,"created":1547531148723,"version":0},"$loki":17},{"_id":"5c3d65bd3525a329e0c0ddf2","address":"27 N Main St","location":{"type":"Point","coordinates":[-111.587442755699,39.3603820099702]},"isApproved":true,"items":[],"keys":["Sandwiches","Salad","Soup"],"lastUpdated":1547527612563,"name":"Abundance","phone":"(435) 283-4734","price":"$$","reviewCount":11,"reviewScore":4.5,"meta":{"revision":0,"created":1547531148723,"version":0},"$loki":18},{"_id":"5c3d65bd3525a329e0c0d0c0","address":"413 S Main St","location":{"type":"Point","coordinates":[-111.5869802,39.3524203]},"isApproved":true,"items":[],"keys":["Chinese"],"lastUpdated":1547527612544,"name":"Snow Dragon Chinese","phone":"(435) 283-6868","price":"$$","reviewCount":21,"reviewScore":3.5,"meta":{"revision":0,"created":1547531148723,"version":0},"$loki":19},{"_id":"5c3d65bd3525a329e0bffaff","address":"215 S Main","location":{"type":"Point","coordinates":[-111.587593451841,39.3500344563994]},"isApproved":true,"items":[],"keys":["Fast Food","Sandwiches"],"lastUpdated":1547527612220,"name":"Subway","phone":"(435) 528-7669","price":"","reviewCount":2,"reviewScore":3,"meta":{"revision":0,"created":1547531148723,"version":0},"$loki":20},{"_id":"5c3d65bd3525a329e0c14067","address":"3 E 700th S","location":{"type":"Point","coordinates":[-111.58785,39.347626]},"isApproved":true,"items":[],"keys":["Mexican"],"lastUpdated":1547527612707,"name":"Los Amigos Mexican Restaurant","phone":"(435) 283-5675","price":"$$","reviewCount":8,"reviewScore":3,"meta":{"revision":0,"created":1547531148723,"version":0},"$loki":21},{"_id":"5c3d65bd3525a329e0c055ef","address":"1060 So Hwy 99","location":{"type":"Point","coordinates":[-111.586572489712,39.3689502512076]},"isApproved":true,"items":[],"keys":["Mexican"],"lastUpdated":1547527612348,"name":"Costa Vida Fresh Mexican Grill","phone":"(435) 743-5782","price":"$","reviewCount":49,"reviewScore":3,"meta":{"revision":0,"created":1547531148723,"version":0},"$loki":22},{"_id":"5c3d65bd3525a329e0c0a8e4","address":"295 N Main St","location":{"type":"Point","coordinates":[-111.587203,39.36544]},"isApproved":true,"items":[],"keys":["Mexican"],"lastUpdated":1547527612482,"name":"Malena’s Cafe Mexican Food","phone":"(435) 283-4425","price":"$","reviewCount":43,"reviewScore":4.5,"meta":{"revision":0,"created":1547531148723,"version":0},"$loki":23},{"_id":"5c3d65bd3525a329e0bff97b","address":"350 N Main St","location":{"type":"Point","coordinates":[-111.5867945,39.3662358]},"isApproved":true,"items":[],"keys":["Cafes"],"lastUpdated":1547527612219,"name":"Satisfied Ewe Cafe","phone":"(435) 283-6364","price":"$$","reviewCount":18,"reviewScore":3,"meta":{"revision":0,"created":1547531148723,"version":0},"$loki":24},{"_id":"5c3d65bd3525a329e0c0fe14","address":"101 S Main St","location":{"type":"Point","coordinates":[-111.6366112,39.2637944]},"isApproved":true,"items":[],"keys":["Pizza"],"lastUpdated":1547527612608,"name":"Main Street Pizza","phone":"(435) 835-8008","price":"$$","reviewCount":8,"reviewScore":4,"meta":{"revision":0,"created":1547531148723,"version":0},"$loki":25},{"_id":"5c3d65bd3525a329e0c11c94","address":"120 S Main St","location":{"type":"Point","coordinates":[-111.6371468,39.2637083]},"isApproved":true,"items":[],"keys":["American (Traditional)","Hawaiian"],"lastUpdated":1547527612660,"name":"Fred’s Sports Grill","phone":"(435) 835-4871","price":"$","reviewCount":20,"reviewScore":3.5,"meta":{"revision":0,"created":1547531148723,"version":0},"$loki":26},{"_id":"5c3d65bd3525a329e0c0dbde","address":"115 N Main St","location":{"type":"Point","coordinates":[-111.637457,39.2671416]},"isApproved":true,"items":[],"keys":["American (New)"],"lastUpdated":1547527612556,"name":"Dirk’s Farmhouse Restaurant","phone":"(435) 835-6500","price":"$$","reviewCount":35,"reviewScore":3.5,"meta":{"revision":0,"created":1547531148723,"version":0},"$loki":27},{"_id":"5c3d65bd3525a329e0c15bc4","address":"227 N Main St","location":{"type":"Point","coordinates":[-111.6373099,39.268769]},"isApproved":true,"items":[],"keys":["American (Traditional)","Donuts","Ice Cream & Frozen Yogurt"],"lastUpdated":1547527612754,"name":"Miller’s Drive-Thru","phone":"(435) 835-4931","price":"$","reviewCount":20,"reviewScore":3.5,"meta":{"revision":0,"created":1547531148723,"version":0},"$loki":28},{"_id":"5c3d65bd3525a329e0c01cf5","address":"401 N Main St","location":{"type":"Point","coordinates":[-111.6372634,39.2714879]},"isApproved":true,"items":[],"keys":["American (Traditional)"],"lastUpdated":1547527612259,"name":"Carriage Restaurant","phone":"(435) 835-0162","price":"","reviewCount":2,"reviewScore":4,"meta":{"revision":0,"created":1547531148723,"version":0},"$loki":29}],"idIndex":[1,2,3,4,5,6,7,8,9,10,11,12,13,14,15,16,17,18,19,20,21,22,23,24,25,26,27,28,29],"binaryIndices":{},"constraints":null,"uniqueNames":[],"transforms":{},"objType":"restaurants","dirty":true,"cachedIndex":null,"cachedBinaryIndex":null,"cachedData":null,"adaptiveBinaryIndices":true,"transactional":false,"cloneObjects":false,"cloneMethod":"parse-stringify","asyncListeners":false,"disableMeta":false,"disableChangesApi":true,"disableDeltaChangesApi":true,"autoupdate":false,"serializableIndices":true,"ttl":null,"maxId":29,"DynamicViews":[],"events":{"insert":[],"update":[],"pre-insert":[],"pre-update":[],"close":[],"flushbuffer":[],"error":[],"delete":[null],"warning":[null]},"changes":[]}],"databaseVersion":1.5,"engineVersion":1.5,"autosave":false,"autosaveInterval":5000,"autosaveHandle":null,"throttledSaves":true,"options":{"serializationMethod":"normal","destructureDelimiter":"$<\n"},"persistenceMethod":"fs","persistenceAdapter":null,"verbose":false,"events":{"init":[null],"loaded":[],"flushChanges":[],"close":[],"changes":[],"warning":[]},"ENV":"NODEJS"}