{"filename":"-111.25-31.75","collections":[{"name":"restaurants","data":[{"_id":"5c3d65bd3525a329e0c12e53","address":"10390 S Sierrita Mountain Rd","location":{"type":"Point","coordinates":[-111.272314,32.060708]},"isApproved":true,"items":[],"keys":["Breakfast & Brunch","Burgers","American (Traditional)"],"lastUpdated":1547527612681,"name":"Kestrel Cafe","phone":"(520) 822-1714","price":"$$","reviewCount":2,"reviewScore":2.5,"meta":{"revision":0,"created":1547531149281,"version":0},"$loki":1},{"_id":"5c3d65bd3525a329e0c13787","address":"7002 E Broadway Blvd","location":{"type":"Point","coordinates":[-110.999516,31.8505899]},"isApproved":true,"items":[],"keys":["Breakfast & Brunch","American (New)"],"lastUpdated":1547527612697,"name":"Baja Cafe","phone":"(520) 495-4772","price":"$","reviewCount":740,"reviewScore":4.5,"meta":{"revision":0,"created":1547531149281,"version":0},"$loki":2},{"_id":"5c3d65bd3525a329e0c0300d","address":"15990 S Rancho Sahuarita Blvd","location":{"type":"Point","coordinates":[-110.9987706,31.8993394]},"isApproved":true,"items":[],"keys":["Hawaiian","Barbeque"],"lastUpdated":1547527612295,"name":"Mama’s Hawaiian BBQ","phone":"(520) 207-8187","price":"$","reviewCount":82,"reviewScore":3.5,"meta":{"revision":0,"created":1547531149281,"version":0},"$loki":3},{"_id":"5c3d65bd3525a329e0c04546","address":"849 Anita Ave","location":{"type":"Point","coordinates":[-111.0002933,31.8977618]},"isApproved":true,"items":[],"keys":["Mexican"],"lastUpdated":1547527612323,"name":"Anita Street Market","phone":"(520) 882-5280","price":"$","reviewCount":130,"reviewScore":4.5,"meta":{"revision":0,"created":1547531149281,"version":0},"$loki":4},{"_id":"5c3d65bd3525a329e0bff96d","address":"277 W Duval Rd","location":{"type":"Point","coordinates":[-110.993925,31.899483]},"isApproved":true,"items":[],"keys":["Bakeries","American (Traditional)","Coffee & Tea"],"lastUpdated":1547527612219,"name":"Mountain View Cafe & Bakery","phone":"(520) 625-2526","price":"$","reviewCount":59,"reviewScore":4.5,"meta":{"revision":0,"created":1547531149281,"version":0},"$loki":5},{"_id":"5c3d65bd3525a329e0bffd96","address":"121 W Duval Rd","location":{"type":"Point","coordinates":[-110.98912702288,31.8995811825707]},"isApproved":true,"items":[],"keys":["Mexican","Breakfast & Brunch"],"lastUpdated":1547527612222,"name":"Manuel’s Mexican Restaurant","phone":"(520) 648-6068","price":"$$","reviewCount":195,"reviewScore":4,"meta":{"revision":0,"created":1547531149281,"version":0},"$loki":6},{"_id":"5c3d65bd3525a329e0bff75c","address":"4 Plaza Rd","location":{"type":"Point","coordinates":[-110.987062760681,31.9003295787108]},"isApproved":true,"items":[],"keys":["American (Traditional)","Tacos","Hot Dogs"],"lastUpdated":1547527612218,"name":"¡DOS!","phone":"(520) 216-7664","price":"$$","reviewCount":47,"reviewScore":3.5,"meta":{"revision":0,"created":1547531149281,"version":0},"$loki":7},{"_id":"5c3d65bd3525a329e0c05407","address":"100 N Stone Ave","location":{"type":"Point","coordinates":[-110.9889115,31.9008131]},"isApproved":true,"items":[],"keys":["Indian","Honduran","Empanadas"],"lastUpdated":1547527612347,"name":"Bombolé","phone":"(520) 777-5011","price":"","reviewCount":19,"reviewScore":4.5,"meta":{"revision":0,"created":1547531149281,"version":0},"$loki":8},{"_id":"5c3d65bd3525a329e0c07e95","address":"2643 N Campbell Ave","location":{"type":"Point","coordinates":[-110.9804218,31.91124]},"isApproved":true,"items":[],"keys":["Poke","Japanese"],"lastUpdated":1547527612417,"name":"Hoki Poki","phone":"(520) 321-0400","price":"","reviewCount":17,"reviewScore":4.5,"meta":{"revision":0,"created":1547531149281,"version":0},"$loki":9},{"_id":"5c3d65bd3525a329e0c1699d","address":"","location":{"type":"Point","coordinates":[-110.981833745752,31.9089400390963]},"isApproved":true,"items":[],"keys":["Mexican"],"lastUpdated":1547527612772,"name":"Mercedes Cantina","phone":"","price":"","reviewCount":1,"reviewScore":4,"meta":{"revision":0,"created":1547531149281,"version":0},"$loki":10},{"_id":"5c3d65bd3525a329e0c115ec","address":"101 South La Cañada Dr","location":{"type":"Point","coordinates":[-110.983628,31.909759]},"isApproved":true,"items":[],"keys":["American (Traditional)","Breakfast & Brunch"],"lastUpdated":1547527612649,"name":"The Greens Restaurant","phone":"(520) 648-5531","price":"","reviewCount":12,"reviewScore":3.5,"meta":{"revision":0,"created":1547531149281,"version":0},"$loki":11},{"_id":"5c3d65bd3525a329e0c0f1db","address":"9136 E Valencia Rd","location":{"type":"Point","coordinates":[-110.983872,31.909679]},"isApproved":true,"items":[],"keys":["Thai"],"lastUpdated":1547527612591,"name":"Saing Thai Cuisine","phone":"(520) 663-5955","price":"$$","reviewCount":274,"reviewScore":4,"meta":{"revision":0,"created":1547531149281,"version":0},"$loki":12},{"_id":"5c3d65bd3525a329e0c026d1","address":"2970 N Campbell Ave","location":{"type":"Point","coordinates":[-110.980042182623,31.9132208629785]},"isApproved":true,"items":[],"keys":["Breakfast & Brunch","American (Traditional)","Mexican"],"lastUpdated":1547527612284,"name":"Baja Cafe on Campbell","phone":"(520) 344-7369","price":"$$","reviewCount":454,"reviewScore":4.5,"meta":{"revision":0,"created":1547531149281,"version":0},"$loki":13},{"_id":"5c3d65bd3525a329e0c01738","address":"446 N Campbell Ave","location":{"type":"Point","coordinates":[-110.995548800088,31.8794979732458]},"isApproved":true,"items":[],"keys":["Pizza","Salad","Sandwiches"],"lastUpdated":1547527612250,"name":"Trident Pizza Pub","phone":"(520) 274-7068","price":"","reviewCount":1,"reviewScore":5,"meta":{"revision":0,"created":1547531149281,"version":0},"$loki":14},{"_id":"5c3d65bd3525a329e0c144fd","address":"101 S La Canada Dr","location":{"type":"Point","coordinates":[-110.993109,31.869519]},"isApproved":true,"items":[],"keys":["Cafes"],"lastUpdated":1547527612715,"name":"Marti’s Bistro","phone":"(520) 223-0888","price":"$","reviewCount":24,"reviewScore":4.5,"meta":{"revision":0,"created":1547531149281,"version":0},"$loki":15},{"_id":"5c3d65bd3525a329e0c0e877","address":"7385 S Houghton Rd","location":{"type":"Point","coordinates":[-110.993374054146,31.8692092253544]},"isApproved":true,"items":[],"keys":["Mexican","Bars"],"lastUpdated":1547527612575,"name":"El Coronado","phone":"(520) 574-7776","price":"$$","reviewCount":85,"reviewScore":3.5,"meta":{"revision":0,"created":1547531149281,"version":0},"$loki":16},{"_id":"5c3d65bd3525a329e0c1522e","address":"3210 E Valencia Rd","location":{"type":"Point","coordinates":[-110.994906,31.869002]},"isApproved":true,"items":[],"keys":["Japanese","Sushi Bars"],"lastUpdated":1547527612737,"name":"Sachiko Sushi","phone":"(520) 741-1000","price":"$$","reviewCount":134,"reviewScore":3.5,"meta":{"revision":0,"created":1547531149281,"version":0},"$loki":17},{"_id":"5c3d65bd3525a329e0c19e79","address":"2980 S Hwy 90","location":{"type":"Point","coordinates":[-110.9937364,31.8678589]},"isApproved":true,"items":[],"keys":["American (New)"],"lastUpdated":1547527612851,"name":"Bat Cave Cafe","phone":"(520) 586-2283","price":"$","reviewCount":5,"reviewScore":4,"meta":{"revision":0,"created":1547531149281,"version":0},"$loki":18},{"_id":"5c3d65bd3525a329e0c13a0c","address":"2027 S Craycroft Rd","location":{"type":"Point","coordinates":[-110.992126464844,31.8612298259309]},"isApproved":true,"items":[],"keys":["Hawaiian"],"lastUpdated":1547527612698,"name":"Solid Grindz","phone":"(520) 867-8040","price":"$","reviewCount":100,"reviewScore":4.5,"meta":{"revision":0,"created":1547531149281,"version":0},"$loki":19},{"_id":"5c3d65bd3525a329e0c15aac","address":"266 E Congress St","location":{"type":"Point","coordinates":[-110.9914357,31.868266]},"isApproved":true,"items":[],"keys":["American (Traditional)","Ice Cream & Frozen Yogurt","Bars"],"lastUpdated":1547527612753,"name":"HUB Restaurant & Ice Creamery","phone":"(520) 207-8201","price":"$$","reviewCount":1059,"reviewScore":4,"meta":{"revision":0,"created":1547531149281,"version":0},"$loki":20},{"_id":"5c3d65bd3525a329e0bffdbe","address":"2869 E Frontage Rd","location":{"type":"Point","coordinates":[-110.9753392,31.8556256]},"isApproved":true,"items":[],"keys":["Barbeque"],"lastUpdated":1547527612222,"name":"The Greyhound Room","phone":"(520) 301-4246","price":"$$","reviewCount":4,"reviewScore":4.5,"meta":{"revision":0,"created":1547531149281,"version":0},"$loki":21},{"_id":"5c3d65bd3525a329e0c15b65","address":"9172 S Houghton Rd","location":{"type":"Point","coordinates":[-110.9945793,31.8527537]},"isApproved":true,"items":[],"keys":["Fast Food","Delis","Sandwiches"],"lastUpdated":1547527612754,"name":"Jersey Mike’s Subs","phone":"(520) 867-8917","price":"","reviewCount":15,"reviewScore":3.5,"meta":{"revision":0,"created":1547531149281,"version":0},"$loki":22},{"_id":"5c3d65bd3525a329e0c15d19","address":"1800 E Fort Lowell Rd","location":{"type":"Point","coordinates":[-110.995360415423,31.8534463902872]},"isApproved":true,"items":[],"keys":["Mexican","Latin American"],"lastUpdated":1547527612755,"name":"Taqueria El Pueblito","phone":"(520) 339-9336","price":"$","reviewCount":258,"reviewScore":4.5,"meta":{"revision":0,"created":1547531149281,"version":0},"$loki":23},{"_id":"5c3d65bd3525a329e0c03833","address":"1015 W Prince Rd","location":{"type":"Point","coordinates":[-110.9401854,31.8886887]},"isApproved":true,"items":[],"keys":["Sandwiches","Delis","Meat Shops"],"lastUpdated":1547527612304,"name":"Sausage Shop Meat Market and Deli","phone":"(520) 888-1701","price":"$","reviewCount":165,"reviewScore":4.5,"meta":{"revision":0,"created":1547531149281,"version":0},"$loki":24},{"_id":"5c3d65bd3525a329e0c002de","address":"4699 E Speedway Blvd","location":{"type":"Point","coordinates":[-110.940503558402,31.8907674793331]},"isApproved":true,"items":[],"keys":["Korean","Steakhouses"],"lastUpdated":1547527612225,"name":"7 Ounce Korean Steakhouse","phone":"(520) 347-6995","price":"$$","reviewCount":112,"reviewScore":4,"meta":{"revision":0,"created":1547531149281,"version":0},"$loki":25},{"_id":"5c3d65bd3525a329e0c0bac7","address":"2418 N Craycroft Rd","location":{"type":"Point","coordinates":[-110.9857307,31.9596368]},"isApproved":true,"items":[],"keys":["Mexican"],"lastUpdated":1547527612508,"name":"The Quesadillas","phone":"(520) 296-1345","price":"$","reviewCount":329,"reviewScore":4.5,"meta":{"revision":0,"created":1547531149281,"version":0},"$loki":26},{"_id":"5c3d65bd3525a329e0bff908","address":"15920 S Rancho Sahuarita Blvd","location":{"type":"Point","coordinates":[-110.9833209,31.9613501]},"isApproved":true,"items":[],"keys":["American (New)","Pubs"],"lastUpdated":1547527612219,"name":"Pub 1922","phone":"(520) 325-1922","price":"$$","reviewCount":168,"reviewScore":3,"meta":{"revision":0,"created":1547531149281,"version":0},"$loki":27},{"_id":"5c3d65bd3525a329e0c0bc1b","address":"9403 E Golf Links Rd","location":{"type":"Point","coordinates":[-110.999244,31.8218139]},"isApproved":true,"items":[],"keys":["Sports Bars","Chicken Wings","American (New)"],"lastUpdated":1547527612509,"name":"Mulligans","phone":"(520) 733-5661","price":"$","reviewCount":49,"reviewScore":3.5,"meta":{"revision":0,"created":1547531149281,"version":0},"$loki":28},{"_id":"5c3d65bd3525a329e0c013bc","address":"2995 E Speedway","location":{"type":"Point","coordinates":[-111.0330585,31.7876825]},"isApproved":true,"items":[],"keys":["Ramen"],"lastUpdated":1547527612249,"name":"Raijin Ramen","phone":"(520) 795-3123","price":"$$","reviewCount":300,"reviewScore":4,"meta":{"revision":0,"created":1547531149281,"version":0},"$loki":29},{"_id":"5c3d65bd3525a329e0c18497","address":"9040 E Valencia Rd","location":{"type":"Point","coordinates":[-111.0642222,31.7080342]},"isApproved":true,"items":[],"keys":["Asian Fusion","Szechuan","Bars"],"lastUpdated":1547527612814,"name":"Happy Wok","phone":"(520) 663-3888","price":"$$","reviewCount":83,"reviewScore":4.5,"meta":{"revision":0,"created":1547531149281,"version":0},"$loki":30},{"_id":"5c3d65bd3525a329e0c0357d","address":"3001 E Frontage Rd","location":{"type":"Point","coordinates":[-111.057211272418,31.7236011765434]},"isApproved":true,"items":[],"keys":["American (New)","Wine Bars"],"lastUpdated":1547527612303,"name":"Firefly Restaurant","phone":"(520) 398-3028","price":"$$","reviewCount":44,"reviewScore":4,"meta":{"revision":0,"created":1547531149281,"version":0},"$loki":31},{"_id":"5c3d65bd3525a329e0c0210b","address":"7131 E Broadway Blvd","location":{"type":"Point","coordinates":[-111.052737,31.6201481]},"isApproved":true,"items":[],"keys":["Breakfast & Brunch","Cafes"],"lastUpdated":1547527612275,"name":"The Oink Cafe - Tucson","phone":"(520) 296-6465","price":"$$","reviewCount":439,"reviewScore":3.5,"meta":{"revision":0,"created":1547531149281,"version":0},"$loki":32},{"_id":"5c3d65bd3525a329e0c09019","address":"2475 S Harrison Rd","location":{"type":"Point","coordinates":[-111.0486953,31.6142168]},"isApproved":true,"items":[],"keys":["Chinese"],"lastUpdated":1547527612439,"name":"Mae’s Chinese Restaurant","phone":"(520) 298-4222","price":"$$","reviewCount":66,"reviewScore":4,"meta":{"revision":0,"created":1547531149281,"version":0},"$loki":33},{"_id":"5c3d65bd3525a329e0c0868b","address":"514 E Whitehouse Canyon Rd","location":{"type":"Point","coordinates":[-111.0481375,31.6131302]},"isApproved":true,"items":[],"keys":["Cafes"],"lastUpdated":1547527612427,"name":"The Olives Bistro","phone":"(520) 393-3431","price":"$$","reviewCount":48,"reviewScore":4,"meta":{"revision":0,"created":1547531149281,"version":0},"$loki":34},{"_id":"5c3d65bd3525a329e0c06ac4","address":"26 Tubac Rd","location":{"type":"Point","coordinates":[-111.0492542,31.6119931]},"isApproved":true,"items":[],"keys":["Sandwiches","Bars","Coffee & Tea"],"lastUpdated":1547527612380,"name":"The Goods Kitchen & Cocktails","phone":"(520) 398-2001","price":"$","reviewCount":30,"reviewScore":4.5,"meta":{"revision":0,"created":1547531149281,"version":0},"$loki":35},{"_id":"5c3d65bd3525a329e0c19bd3","address":"10235 E Old Vail Road","location":{"type":"Point","coordinates":[-111.05073,31.612862]},"isApproved":true,"items":[],"keys":["Sandwiches","Salad","Soup"],"lastUpdated":1547527612850,"name":"Baggin’s","phone":"(520) 585-4585","price":"$","reviewCount":29,"reviewScore":3,"meta":{"revision":0,"created":1547531149281,"version":0},"$loki":36},{"_id":"5c3d65bd3525a329e0c0cddc","address":"2221 E Frontage Rd,Ste A101","location":{"type":"Point","coordinates":[-111.052007050046,31.6146914409957]},"isApproved":true,"items":[],"keys":["Mexican"],"lastUpdated":1547527612534,"name":"Elvira’s","phone":"(520) 398-9421","price":"$$","reviewCount":197,"reviewScore":3.5,"meta":{"revision":0,"created":1547531149281,"version":0},"$loki":37},{"_id":"5c3d65bd3525a329e0c08b8b","address":"6450 E Grant Rd","location":{"type":"Point","coordinates":[-111.0501623,31.61035]},"isApproved":true,"items":[],"keys":["American (New)","Breakfast & Brunch"],"lastUpdated":1547527612436,"name":"Prep & Pastry on Grant","phone":"(520) 838-0809","price":"$$","reviewCount":351,"reviewScore":4.5,"meta":{"revision":0,"created":1547531149281,"version":0},"$loki":38},{"_id":"5c3d65bd3525a329e0c0aff7","address":"926 N Madison Ave","location":{"type":"Point","coordinates":[-111.050113539673,31.6114236389286]},"isApproved":true,"items":[],"keys":["Burgers","American (New)","Sandwiches"],"lastUpdated":1547527612491,"name":"Benson City Grille","phone":"(520) 586-2525","price":"$$","reviewCount":11,"reviewScore":4,"meta":{"revision":0,"created":1547531149281,"version":0},"$loki":39},{"_id":"5c3d65bd3525a329e0c13a60","address":"1100 W Pima Mine Rd","location":{"type":"Point","coordinates":[-111.051710111928,31.5730125192865]},"isApproved":true,"items":[],"keys":["American (Traditional)","Seafood"],"lastUpdated":1547527612698,"name":"Agave Restaurant","phone":"(520) 342-2328","price":"$$","reviewCount":45,"reviewScore":3.5,"meta":{"revision":0,"created":1547531149281,"version":0},"$loki":40},{"_id":"5c3d65bd3525a329e0c02207","address":"3502 E Grant Rd","location":{"type":"Point","coordinates":[-111.0442951,31.62582]},"isApproved":true,"items":[],"keys":["Noodles"],"lastUpdated":1547527612276,"name":"Noodleholics","phone":"(520) 305-4262","price":"$$","reviewCount":160,"reviewScore":4.5,"meta":{"revision":0,"created":1547531149281,"version":0},"$loki":41}],"idIndex":[1,2,3,4,5,6,7,8,9,10,11,12,13,14,15,16,17,18,19,20,21,22,23,24,25,26,27,28,29,30,31,32,33,34,35,36,37,38,39,40,41],"binaryIndices":{},"constraints":null,"uniqueNames":[],"transforms":{},"objType":"restaurants","dirty":true,"cachedIndex":null,"cachedBinaryIndex":null,"cachedData":null,"adaptiveBinaryIndices":true,"transactional":false,"cloneObjects":false,"cloneMethod":"parse-stringify","asyncListeners":false,"disableMeta":false,"disableChangesApi":true,"disableDeltaChangesApi":true,"autoupdate":false,"serializableIndices":true,"ttl":null,"maxId":41,"DynamicViews":[],"events":{"insert":[],"update":[],"pre-insert":[],"pre-update":[],"close":[],"flushbuffer":[],"error":[],"delete":[null],"warning":[null]},"changes":[]}],"databaseVersion":1.5,"engineVersion":1.5,"autosave":false,"autosaveInterval":5000,"autosaveHandle":null,"throttledSaves":true,"options":{"serializationMethod":"normal","destructureDelimiter":"$<\n"},"persistenceMethod":"fs","persistenceAdapter":null,"verbose":false,"events":{"init":[null],"loaded":[],"flushChanges":[],"close":[],"changes":[],"warning":[]},"ENV":"NODEJS"}