{"filename":"-112.5-41.75","collections":[{"name":"restaurants","data":[{"_id":"5c3d65bd3525a329e0c059cb","address":"10 South Stone Rd","location":{"type":"Point","coordinates":[-112.7108829,41.9653264]},"isApproved":true,"items":[],"keys":["Diners","American (Traditional)"],"lastUpdated":1547527612355,"name":"Ranch House Diner","phone":"(435) 872-8338","price":"$$","reviewCount":28,"reviewScore":4,"meta":{"revision":0,"created":1547531148696,"version":0},"$loki":1},{"_id":"5c3d65bd3525a329e0c08937","address":"15 E Main St","location":{"type":"Point","coordinates":[-112.710291842922,41.9657614057748]},"isApproved":true,"items":[],"keys":["Cafes"],"lastUpdated":1547527612429,"name":"Mollie’s Cafe","phone":"(435) 872-8295","price":"$","reviewCount":79,"reviewScore":4.5,"meta":{"revision":0,"created":1547531148696,"version":0},"$loki":2},{"_id":"5c3d65bd3525a329e0c1577c","address":"2880 W Main St","location":{"type":"Point","coordinates":[-112.167036942928,41.8862167146784]},"isApproved":true,"items":[],"keys":["Burgers","Fast Food"],"lastUpdated":1547527612746,"name":"Wendy’s","phone":"(435) 257-1441","price":"$","reviewCount":19,"reviewScore":2,"meta":{"revision":0,"created":1547531148696,"version":0},"$loki":3},{"_id":"5c3d65bd3525a329e0c0d68c","address":"2410 West Main","location":{"type":"Point","coordinates":[-112.201984450221,41.7115151175376]},"isApproved":true,"items":[],"keys":["Mexican"],"lastUpdated":1547527612554,"name":"Poblanos Quick Mex","phone":"(435) 257-7249","price":"","reviewCount":5,"reviewScore":2.5,"meta":{"revision":0,"created":1547531148696,"version":0},"$loki":4},{"_id":"5c3d65bd3525a329e0c0ecb2","address":"2267 W Main St","location":{"type":"Point","coordinates":[-112.201086,41.711306]},"isApproved":true,"items":[],"keys":["Burgers"],"lastUpdated":1547527612582,"name":"Burger King","phone":"(435) 257-0438","price":"$","reviewCount":10,"reviewScore":2.5,"meta":{"revision":0,"created":1547531148696,"version":0},"$loki":5},{"_id":"5c3d65bd3525a329e0c06d84","address":"2341 W Main St","location":{"type":"Point","coordinates":[-112.201613368143,41.710187807647]},"isApproved":true,"items":[],"keys":["Breakfast & Brunch","American (Traditional)","Diners"],"lastUpdated":1547527612387,"name":"Denny’s","phone":"(435) 257-1919","price":"$","reviewCount":20,"reviewScore":2,"meta":{"revision":0,"created":1547531148696,"version":0},"$loki":6},{"_id":"5c3d65bd3525a329e0c0ef5c","address":"5175 W 9600th N","location":{"type":"Point","coordinates":[-112.162311619314,41.711074051372]},"isApproved":true,"items":[],"keys":["Sandwiches","Fast Food"],"lastUpdated":1547527612584,"name":"Arbys","phone":"(435) 257-0511","price":"","reviewCount":2,"reviewScore":2.5,"meta":{"revision":0,"created":1547531148696,"version":0},"$loki":7},{"_id":"5c3d65bd3525a329e0c05fb7","address":"55 South 100 E","location":{"type":"Point","coordinates":[-112.163933,41.711179]},"isApproved":true,"items":[],"keys":["Pizza"],"lastUpdated":1547527612368,"name":"Pizza Plus- Tremonton","phone":"(435) 257-7587","price":"$","reviewCount":16,"reviewScore":3.5,"meta":{"revision":0,"created":1547531148696,"version":0},"$loki":8},{"_id":"5c3d65bd3525a329e0c034d3","address":"80 E Main St","location":{"type":"Point","coordinates":[-112.164857873289,41.7116246152081]},"isApproved":true,"items":[],"keys":["Ice Cream & Frozen Yogurt","American (Traditional)"],"lastUpdated":1547527612303,"name":"Mack’s Family Drive-In","phone":"(435) 257-3712","price":"$","reviewCount":9,"reviewScore":2.5,"meta":{"revision":0,"created":1547531148696,"version":0},"$loki":9},{"_id":"5c3d65bd3525a329e0c1ac5b","address":"26 S Tremont St","location":{"type":"Point","coordinates":[-112.1663507,41.7113421]},"isApproved":true,"items":[],"keys":["Vietnamese","Chinese"],"lastUpdated":1547527612869,"name":"Saigon Towers","phone":"(435) 257-0443","price":"$$","reviewCount":12,"reviewScore":2.5,"meta":{"revision":0,"created":1547531148696,"version":0},"$loki":10},{"_id":"5c3d65bd3525a329e0c10fd1","address":"1 W Main St","location":{"type":"Point","coordinates":[-112.166208787159,41.7116362790035]},"isApproved":true,"items":[],"keys":["Pizza","Chicken Wings","Sandwiches"],"lastUpdated":1547527612640,"name":"Domino’s Pizza","phone":"(435) 257-5881","price":"","reviewCount":2,"reviewScore":5,"meta":{"revision":0,"created":1547531148696,"version":0},"$loki":11},{"_id":"5c3d65bd3525a329e0c1afeb","address":"140 E Main St","location":{"type":"Point","coordinates":[-112.163801989176,41.7114720646042]},"isApproved":true,"items":[],"keys":["Chinese","Asian Fusion"],"lastUpdated":1547527612876,"name":"China Express","phone":"(435) 257-2845","price":"$","reviewCount":8,"reviewScore":4,"meta":{"revision":0,"created":1547531148696,"version":0},"$loki":12},{"_id":"5c3d65bd3525a329e0c09b18","address":"295 E Main St","location":{"type":"Point","coordinates":[-112.162081310406,41.7121039656884]},"isApproved":true,"items":[],"keys":["Mexican"],"lastUpdated":1547527612464,"name":"Taco Time","phone":"(435) 257-5016","price":"$","reviewCount":2,"reviewScore":5,"meta":{"revision":0,"created":1547531148696,"version":0},"$loki":13},{"_id":"5c3d65bd3525a329e0c09305","address":"1387 S Main St","location":{"type":"Point","coordinates":[-112.1618138,41.7266593]},"isApproved":true,"items":[],"keys":["Burgers","Fast Food","Hot Dogs"],"lastUpdated":1547527612452,"name":"Golden Spike Burgers","phone":"(435) 257-6263","price":"$","reviewCount":24,"reviewScore":4.5,"meta":{"revision":0,"created":1547531148696,"version":0},"$loki":14},{"_id":"5c3d65bd3525a329e0c141b1","address":"20 W 1400th S","location":{"type":"Point","coordinates":[-112.1629043841,41.7265141872844]},"isApproved":true,"items":[],"keys":["Bakeries","Donuts","Breakfast & Brunch"],"lastUpdated":1547527612713,"name":"The Pie Dump & TL Catering","phone":"(435) 257-3947","price":"$","reviewCount":19,"reviewScore":4.5,"meta":{"revision":0,"created":1547531148696,"version":0},"$loki":15},{"_id":"5c3d65bd3525a329e0c0a326","address":"980 W Main St","location":{"type":"Point","coordinates":[-112.17997094059,41.7143939447753]},"isApproved":true,"items":[],"keys":["Mexican","Food Trucks"],"lastUpdated":1547527612474,"name":"Taqueria El Cazador","phone":"(435) 720-7758","price":"","reviewCount":6,"reviewScore":4.5,"meta":{"revision":0,"created":1547531148696,"version":0},"$loki":16},{"_id":"5c3d65bd3525a329e0c1909e","address":"1410 W Main St","location":{"type":"Point","coordinates":[-112.187305140995,41.711661338844]},"isApproved":true,"items":[],"keys":["Barbeque","Pizza","Burgers"],"lastUpdated":1547527612832,"name":"The Grille Restaurant","phone":"(435) 257-4745","price":"$$","reviewCount":33,"reviewScore":3.5,"meta":{"revision":0,"created":1547531148696,"version":0},"$loki":17},{"_id":"5c3d65bd3525a329e0c0f1ac","address":"40 N 1600 E","location":{"type":"Point","coordinates":[-112.141925,41.712984]},"isApproved":true,"items":[],"keys":["Burgers","Fast Food"],"lastUpdated":1547527612591,"name":"Artic Circle","phone":"(435) 257-7428","price":"","reviewCount":3,"reviewScore":4.5,"meta":{"revision":0,"created":1547531148696,"version":0},"$loki":18},{"_id":"5c3d65bd3525a329e0c1295f","address":"95 S 1600 E","location":{"type":"Point","coordinates":[-112.141839,41.710941]},"isApproved":true,"items":[],"keys":["Mexican"],"lastUpdated":1547527612679,"name":"El Parral Mexican Restaurant","phone":"(435) 257-6853","price":"$$","reviewCount":29,"reviewScore":3.5,"meta":{"revision":0,"created":1547531148696,"version":0},"$loki":19},{"_id":"5c3d65bd3525a329e0c10477","address":"10260 N 5200th W","location":{"type":"Point","coordinates":[-112.141318973065,41.6953600683615]},"isApproved":true,"items":[],"keys":["Diners"],"lastUpdated":1547527612618,"name":"J C’s Country Diner","phone":"(435) 257-1867","price":"$","reviewCount":66,"reviewScore":4,"meta":{"revision":0,"created":1547531148696,"version":0},"$loki":20},{"_id":"5c3d65bd3525a329e0bffb9e","address":"840 S Main St","location":{"type":"Point","coordinates":[-112.140405491784,41.6825000784509]},"isApproved":true,"items":[],"keys":["Mexican"],"lastUpdated":1547527612220,"name":"Taco Time","phone":"(435) 734-9346","price":"$","reviewCount":5,"reviewScore":4.5,"meta":{"revision":0,"created":1547531148696,"version":0},"$loki":21}],"idIndex":[1,2,3,4,5,6,7,8,9,10,11,12,13,14,15,16,17,18,19,20,21],"binaryIndices":{},"constraints":null,"uniqueNames":[],"transforms":{},"objType":"restaurants","dirty":true,"cachedIndex":null,"cachedBinaryIndex":null,"cachedData":null,"adaptiveBinaryIndices":true,"transactional":false,"cloneObjects":false,"cloneMethod":"parse-stringify","asyncListeners":false,"disableMeta":false,"disableChangesApi":true,"disableDeltaChangesApi":true,"autoupdate":false,"serializableIndices":true,"ttl":null,"maxId":21,"DynamicViews":[],"events":{"insert":[],"update":[],"pre-insert":[],"pre-update":[],"close":[],"flushbuffer":[],"error":[],"delete":[null],"warning":[null]},"changes":[]}],"databaseVersion":1.5,"engineVersion":1.5,"autosave":false,"autosaveInterval":5000,"autosaveHandle":null,"throttledSaves":true,"options":{"serializationMethod":"normal","destructureDelimiter":"$<\n"},"persistenceMethod":"fs","persistenceAdapter":null,"verbose":false,"events":{"init":[null],"loaded":[],"flushChanges":[],"close":[],"changes":[],"warning":[]},"ENV":"NODEJS"}