{"filename":"-112-43","collections":[{"name":"restaurants","data":[{"_id":"5c3d65bd3525a329e0c0b0c6","address":"1330 W Broadway","location":{"type":"Point","coordinates":[-112.3541114,43.1817563]},"isApproved":true,"items":[],"keys":["Breakfast & Brunch","American (Traditional)","Comfort Food"],"lastUpdated":1547527612497,"name":"Shari’s Cafe & Pies","phone":"(208) 529-2911","price":"$","reviewCount":33,"reviewScore":3,"meta":{"revision":0,"created":1547531152024,"version":0},"$loki":1},{"_id":"5c3d65bd3525a329e0c1b21a","address":"999 S 25th E","location":{"type":"Point","coordinates":[-112.353341,43.1830207]},"isApproved":true,"items":[],"keys":["Buffets","American (Traditional)"],"lastUpdated":1547527612877,"name":"Chuck-A-Rama Buffet","phone":"(208) 524-5511","price":"$$","reviewCount":23,"reviewScore":3.5,"meta":{"revision":0,"created":1547531152024,"version":0},"$loki":2},{"_id":"5c3d65bd3525a329e0c04447","address":"1627 Market Way","location":{"type":"Point","coordinates":[-112.3517623,43.1852367]},"isApproved":true,"items":[],"keys":["Mexican"],"lastUpdated":1547527612322,"name":"Taqueria El Rodeo","phone":"(208) 528-5427","price":"$","reviewCount":20,"reviewScore":3.5,"meta":{"revision":0,"created":1547531152024,"version":0},"$loki":3},{"_id":"5c3d65bd3525a329e0c01094","address":"620 W Bridge St","location":{"type":"Point","coordinates":[-112.351383,43.1921681]},"isApproved":true,"items":[],"keys":["Mexican"],"lastUpdated":1547527612239,"name":"El Mirador","phone":"(208) 785-1595","price":"$$","reviewCount":19,"reviewScore":4,"meta":{"revision":0,"created":1547531152024,"version":0},"$loki":4},{"_id":"5c3d65bd3525a329e0c0d97f","address":"990 Market St","location":{"type":"Point","coordinates":[-112.349374550821,43.189717195417]},"isApproved":true,"items":[],"keys":["Mexican"],"lastUpdated":1547527612555,"name":"Rolbertos Mexican Food","phone":"(208) 785-2777","price":"$","reviewCount":14,"reviewScore":4,"meta":{"revision":0,"created":1547531152024,"version":0},"$loki":5},{"_id":"5c3d65bd3525a329e0c0b09e","address":"2250 E 17th St","location":{"type":"Point","coordinates":[-112.352425,43.1830979]},"isApproved":true,"items":[],"keys":["Pizza","Italian","Chicken Wings"],"lastUpdated":1547527612497,"name":"Pizza Hut","phone":"(208) 524-1211","price":"$$","reviewCount":13,"reviewScore":2,"meta":{"revision":0,"created":1547531152024,"version":0},"$loki":6},{"_id":"5c3d65bd3525a329e0c0dfdd","address":"302 NE Main St","location":{"type":"Point","coordinates":[-112.3474326,43.1769209]},"isApproved":true,"items":[],"keys":["Burgers"],"lastUpdated":1547527612564,"name":"Rupe’s Burgers","phone":"(208) 785-5710","price":"$","reviewCount":64,"reviewScore":4.5,"meta":{"revision":0,"created":1547531152024,"version":0},"$loki":7},{"_id":"5c3d65bd3525a329e0c064f7","address":"116 S Clark St","location":{"type":"Point","coordinates":[-112.3411919,43.1902313]},"isApproved":true,"items":[],"keys":["Barbeque","Caterers"],"lastUpdated":1547527612377,"name":"Lil’ Mikes Smokin’ BBQ","phone":"(208) 534-1802","price":"$$","reviewCount":20,"reviewScore":4,"meta":{"revision":0,"created":1547531152024,"version":0},"$loki":8},{"_id":"5c3d65bd3525a329e0c0af06","address":"130 NW Main St","location":{"type":"Point","coordinates":[-112.343778423965,43.1894041008506]},"isApproved":true,"items":[],"keys":["Cafes"],"lastUpdated":1547527612491,"name":"Potato Station Cafe","phone":"(208) 785-9933","price":"","reviewCount":1,"reviewScore":4,"meta":{"revision":0,"created":1547531152024,"version":0},"$loki":9},{"_id":"5c3d65bd3525a329e0c03b50","address":"125 NW Main St","location":{"type":"Point","coordinates":[-112.344188,43.189823]},"isApproved":true,"items":[],"keys":["Pizza"],"lastUpdated":1547527612312,"name":"Mr Pizza","phone":"(208) 785-3785","price":"$$","reviewCount":6,"reviewScore":4,"meta":{"revision":0,"created":1547531152024,"version":0},"$loki":10},{"_id":"5c3d65bd3525a329e0c16ae9","address":"321 N W Main St","location":{"type":"Point","coordinates":[-112.3427423,43.1912985]},"isApproved":true,"items":[],"keys":["Mexican"],"lastUpdated":1547527612773,"name":"Melina’s Mexican Restaurant","phone":"(208) 785-3525","price":"$$","reviewCount":6,"reviewScore":3.5,"meta":{"revision":0,"created":1547531152024,"version":0},"$loki":11},{"_id":"5c3d65bd3525a329e0c19a90","address":"1243 Parkway Dr","location":{"type":"Point","coordinates":[-112.3445881,43.1903328]},"isApproved":true,"items":[],"keys":["Fast Food","Sandwiches"],"lastUpdated":1547527612849,"name":"Arby’s","phone":"(208) 785-0174","price":"","reviewCount":2,"reviewScore":1,"meta":{"revision":0,"created":1547531152024,"version":0},"$loki":12},{"_id":"5c3d65bd3525a329e0c173b3","address":"150 N 3rd Ave","location":{"type":"Point","coordinates":[-112.4375,43.033333]},"isApproved":true,"items":[],"keys":["Greek","American (Traditional)"],"lastUpdated":1547527612783,"name":"Tom’s Gyro and Burgers","phone":"(208) 233-4200","price":"$","reviewCount":42,"reviewScore":3.5,"meta":{"revision":0,"created":1547531152024,"version":0},"$loki":13}],"idIndex":[1,2,3,4,5,6,7,8,9,10,11,12,13],"binaryIndices":{},"constraints":null,"uniqueNames":[],"transforms":{},"objType":"restaurants","dirty":true,"cachedIndex":null,"cachedBinaryIndex":null,"cachedData":null,"adaptiveBinaryIndices":true,"transactional":false,"cloneObjects":false,"cloneMethod":"parse-stringify","asyncListeners":false,"disableMeta":false,"disableChangesApi":true,"disableDeltaChangesApi":true,"autoupdate":false,"serializableIndices":true,"ttl":null,"maxId":13,"DynamicViews":[],"events":{"insert":[],"update":[],"pre-insert":[],"pre-update":[],"close":[],"flushbuffer":[],"error":[],"delete":[null],"warning":[null]},"changes":[]}],"databaseVersion":1.5,"engineVersion":1.5,"autosave":false,"autosaveInterval":5000,"autosaveHandle":null,"throttledSaves":true,"options":{"serializationMethod":"normal","destructureDelimiter":"$<\n"},"persistenceMethod":"fs","persistenceAdapter":null,"verbose":false,"events":{"init":[null],"loaded":[],"flushChanges":[],"close":[],"changes":[],"warning":[]},"ENV":"NODEJS"}