{"filename":"-112.5-33.25","collections":[{"name":"restaurants","data":[{"_id":"5c3d65bd3525a329e0c168d3","address":"15411 W Waddell Rd","location":{"type":"Point","coordinates":[-112.2547714,33.4792414]},"isApproved":true,"items":[],"keys":["French","American (New)","Seafood"],"lastUpdated":1547527612772,"name":"Vogue Bistro","phone":"(623) 544-9109","price":"$$","reviewCount":428,"reviewScore":3.5,"meta":{"revision":0,"created":1547531151896,"version":0},"$loki":1},{"_id":"5c3d65bd3525a329e0c06aad","address":"7835 N 19th Ave","location":{"type":"Point","coordinates":[-112.2918161,33.5081323]},"isApproved":true,"items":[],"keys":["Mexican","Bars","Seafood"],"lastUpdated":1547527612380,"name":"Las Glorias Grill Mexican Food","phone":"(602) 726-4198","price":"$$","reviewCount":239,"reviewScore":4,"meta":{"revision":0,"created":1547531151896,"version":0},"$loki":2},{"_id":"5c3d65bd3525a329e0c07202","address":"15170 West Bell Rd","location":{"type":"Point","coordinates":[-112.427177429199,33.5410308837891]},"isApproved":true,"items":[],"keys":["Mediterranean"],"lastUpdated":1547527612398,"name":"Pita Wraps","phone":"(623) 266-2520","price":"$","reviewCount":70,"reviewScore":4,"meta":{"revision":0,"created":1547531151896,"version":0},"$loki":3},{"_id":"5c3d65bd3525a329e0c08988","address":"17191 N Litchfield Rd","location":{"type":"Point","coordinates":[-112.410581,33.550211]},"isApproved":true,"items":[],"keys":["Sushi Bars"],"lastUpdated":1547527612429,"name":"Uni Sushi & Steak","phone":"(623) 546-7669","price":"$$","reviewCount":265,"reviewScore":4,"meta":{"revision":0,"created":1547531151896,"version":0},"$loki":4},{"_id":"5c3d65bd3525a329e0c03255","address":"13820 W Glendale Ave","location":{"type":"Point","coordinates":[-112.357224002481,33.5372461602879]},"isApproved":true,"items":[],"keys":["Donuts","Coffee & Tea","Breakfast & Brunch"],"lastUpdated":1547527612296,"name":"Bosa Donuts","phone":"(623) 271-7191","price":"","reviewCount":19,"reviewScore":4,"meta":{"revision":0,"created":1547531151896,"version":0},"$loki":5},{"_id":"5c3d65bd3525a329e0c0d000","address":"10000 W Happy Valley Rd","location":{"type":"Point","coordinates":[-112.359145,33.507719]},"isApproved":true,"items":[],"keys":["Mexican","Fast Food"],"lastUpdated":1547527612539,"name":"El Pollo Loco","phone":"(623) 825-6679","price":"$","reviewCount":46,"reviewScore":3,"meta":{"revision":0,"created":1547531151896,"version":0},"$loki":6},{"_id":"5c3d65bd3525a329e0c0f177","address":"","location":{"type":"Point","coordinates":[-112.356836,33.51006]},"isApproved":true,"items":[],"keys":["Mexican","Food Trucks"],"lastUpdated":1547527612591,"name":"Green Chile Grill","phone":"(480) 217-4335","price":"$","reviewCount":17,"reviewScore":4.5,"meta":{"revision":0,"created":1547531151896,"version":0},"$loki":7},{"_id":"5c3d65bd3525a329e0c0874d","address":"9947 W Happy Valley Pkwy","location":{"type":"Point","coordinates":[-112.356527342531,33.5096682821518]},"isApproved":true,"items":[],"keys":["Sushi Bars"],"lastUpdated":1547527612428,"name":"Squid Ink Sushi - Peoria","phone":"(623) 561-7747","price":"$$","reviewCount":324,"reviewScore":3.5,"meta":{"revision":0,"created":1547531151896,"version":0},"$loki":8},{"_id":"5c3d65bd3525a329e0c109ed","address":"502 E Thunderbird Rd","location":{"type":"Point","coordinates":[-112.342301,33.508877]},"isApproved":true,"items":[],"keys":["Breakfast & Brunch","Cafes","American (Traditional)"],"lastUpdated":1547527612626,"name":"Moon Valley Cafe","phone":"(602) 375-0445","price":"$","reviewCount":146,"reviewScore":3.5,"meta":{"revision":0,"created":1547531151896,"version":0},"$loki":9},{"_id":"5c3d65bd3525a329e0c151e0","address":"7700 W Arrowhead Towne Ctr","location":{"type":"Point","coordinates":[-112.341459989548,33.5090366126271]},"isApproved":true,"items":[],"keys":["Delis","Bakeries"],"lastUpdated":1547527612737,"name":"Chompie’s","phone":"(623) 344-3104","price":"$$","reviewCount":248,"reviewScore":3.5,"meta":{"revision":0,"created":1547531151896,"version":0},"$loki":10},{"_id":"5c3d65bd3525a329e0c0d122","address":"10639 N 35th Ave","location":{"type":"Point","coordinates":[-112.33958659577,33.510646604463]},"isApproved":true,"items":[],"keys":["Mexican"],"lastUpdated":1547527612545,"name":"Rolando’s Mexican Food","phone":"(602) 439-5424","price":"$","reviewCount":113,"reviewScore":4.5,"meta":{"revision":0,"created":1547531151896,"version":0},"$loki":11},{"_id":"5c3d65bd3525a329e0c034a7","address":"12005 NW Grand Ave","location":{"type":"Point","coordinates":[-112.511910952504,33.5131742392804]},"isApproved":true,"items":[],"keys":["Mexican","Meat Shops"],"lastUpdated":1547527612302,"name":"Carniceria Y Panaderia El Oaxaqueno","phone":"(623) 977-4380","price":"","reviewCount":3,"reviewScore":5,"meta":{"revision":0,"created":1547531151896,"version":0},"$loki":12}],"idIndex":[1,2,3,4,5,6,7,8,9,10,11,12],"binaryIndices":{},"constraints":null,"uniqueNames":[],"transforms":{},"objType":"restaurants","dirty":true,"cachedIndex":null,"cachedBinaryIndex":null,"cachedData":null,"adaptiveBinaryIndices":true,"transactional":false,"cloneObjects":false,"cloneMethod":"parse-stringify","asyncListeners":false,"disableMeta":false,"disableChangesApi":true,"disableDeltaChangesApi":true,"autoupdate":false,"serializableIndices":true,"ttl":null,"maxId":12,"DynamicViews":[],"events":{"insert":[],"update":[],"pre-insert":[],"pre-update":[],"close":[],"flushbuffer":[],"error":[],"delete":[null],"warning":[null]},"changes":[]}],"databaseVersion":1.5,"engineVersion":1.5,"autosave":false,"autosaveInterval":5000,"autosaveHandle":null,"throttledSaves":true,"options":{"serializationMethod":"normal","destructureDelimiter":"$<\n"},"persistenceMethod":"fs","persistenceAdapter":null,"verbose":false,"events":{"init":[null],"loaded":[],"flushChanges":[],"close":[],"changes":[],"warning":[]},"ENV":"NODEJS"}