{"filename":"-112.25-35","collections":[{"name":"restaurants","data":[{"_id":"5c3d65bd3525a329e0c11095","address":"226 S Cortez St","location":{"type":"Point","coordinates":[-112.021478,34.739197]},"isApproved":true,"items":[],"keys":["Coffee & Tea","Breakfast & Brunch","Bakeries"],"lastUpdated":1547527612640,"name":"Cuppers Coffeehouse","phone":"(928) 445-1636","price":"$","reviewCount":182,"reviewScore":4,"meta":{"revision":0,"created":1547531151665,"version":0},"$loki":1},{"_id":"5c3d65bd3525a329e0c0b97f","address":"660 E Mingus Ave","location":{"type":"Point","coordinates":[-112.0227191,34.7399256]},"isApproved":true,"items":[],"keys":["American (Traditional)","Breakfast & Brunch","Gluten-Free"],"lastUpdated":1547527612507,"name":"Annies","phone":"(928) 634-4121","price":"$","reviewCount":43,"reviewScore":4,"meta":{"revision":0,"created":1547531151665,"version":0},"$loki":2},{"_id":"5c3d65bd3525a329e0c1439b","address":"232 S Montezuma","location":{"type":"Point","coordinates":[-112.0210182,34.7440994]},"isApproved":true,"items":[],"keys":["American (New)","Seafood"],"lastUpdated":1547527612714,"name":"Atmesfir","phone":"(928) 445-1929","price":"$$$","reviewCount":56,"reviewScore":4.5,"meta":{"revision":0,"created":1547531151665,"version":0},"$loki":3},{"_id":"5c3d65bd3525a329e0c120be","address":"11901 E State Route 69","location":{"type":"Point","coordinates":[-112.0137067,34.743953]},"isApproved":true,"items":[],"keys":["Mexican"],"lastUpdated":1547527612663,"name":"Puerto Vallarta","phone":"(928) 772-4460","price":"$$","reviewCount":37,"reviewScore":4,"meta":{"revision":0,"created":1547531151665,"version":0},"$loki":4},{"_id":"5c3d65bd3525a329e0c0bd46","address":"777 N Main St","location":{"type":"Point","coordinates":[-112.0258615,34.7455482]},"isApproved":true,"items":[],"keys":["Gastropubs"],"lastUpdated":1547527612515,"name":"Riot in Old Town","phone":"(928) 634-3777","price":"$$","reviewCount":126,"reviewScore":4.5,"meta":{"revision":0,"created":1547531151665,"version":0},"$loki":5},{"_id":"5c3d65bd3525a329e0c16fb0","address":"102 E Pima St","location":{"type":"Point","coordinates":[-112.026199,34.746982]},"isApproved":true,"items":[],"keys":["Tapas/Small Plates","Cocktail Bars"],"lastUpdated":1547527612782,"name":"3 Kings Kasbar","phone":"(928) 639-4433","price":"$$","reviewCount":46,"reviewScore":4.5,"meta":{"revision":0,"created":1547531151665,"version":0},"$loki":6},{"_id":"5c3d65bd3525a329e0c073e7","address":"925 N Main St","location":{"type":"Point","coordinates":[-112.0270274,34.7475906]},"isApproved":true,"items":[],"keys":["Italian"],"lastUpdated":1547527612399,"name":"Nic’s Italian Steak & Crab House","phone":"(928) 634-9626","price":"$$","reviewCount":233,"reviewScore":4.5,"meta":{"revision":0,"created":1547531151665,"version":0},"$loki":7},{"_id":"5c3d65bd3525a329e0c1420f","address":"3088 N Glassford Hill Rd","location":{"type":"Point","coordinates":[-112.027082,34.747391]},"isApproved":true,"items":[],"keys":["Mexican"],"lastUpdated":1547527612713,"name":"Casa Perez","phone":"(928) 772-7777","price":"$$","reviewCount":77,"reviewScore":3.5,"meta":{"revision":0,"created":1547531151665,"version":0},"$loki":8},{"_id":"5c3d65bd3525a329e0c18368","address":"1201 Iron Springs Rd","location":{"type":"Point","coordinates":[-112.0279924,34.7470019]},"isApproved":true,"items":[],"keys":["Salad"],"lastUpdated":1547527612814,"name":"That Salad Place","phone":"(928) 227-1629","price":"","reviewCount":16,"reviewScore":4.5,"meta":{"revision":0,"created":1547531151665,"version":0},"$loki":9},{"_id":"5c3d65bd3525a329e0c0b71a","address":"226 N Montezuma St","location":{"type":"Point","coordinates":[-112.027061562011,34.7479285053702]},"isApproved":true,"items":[],"keys":["Coffee & Tea","Breakfast & Brunch"],"lastUpdated":1547527612505,"name":"The Porch Prescott","phone":"(928) 227-2790","price":"$","reviewCount":19,"reviewScore":4.5,"meta":{"revision":0,"created":1547531151665,"version":0},"$loki":10},{"_id":"5c3d65bd3525a329e0c0374a","address":"1028 N Main St","location":{"type":"Point","coordinates":[-112.0274931,34.7486273]},"isApproved":true,"items":[],"keys":["Tacos"],"lastUpdated":1547527612304,"name":"Poquito Loco","phone":"(928) 852-4268","price":"","reviewCount":3,"reviewScore":3.5,"meta":{"revision":0,"created":1547531151665,"version":0},"$loki":11},{"_id":"5c3d65bd3525a329e0c06517","address":"324 S Main St","location":{"type":"Point","coordinates":[-112.0270274,34.7486173]},"isApproved":true,"items":[],"keys":["Diners","Mexican"],"lastUpdated":1547527612377,"name":"Pepe’s Diner","phone":"(928) 634-6262","price":"$","reviewCount":127,"reviewScore":4.5,"meta":{"revision":0,"created":1547531151665,"version":0},"$loki":12},{"_id":"5c3d65bd3525a329e0c0e540","address":"901 N Main St","location":{"type":"Point","coordinates":[-112.0269924,34.7469103]},"isApproved":true,"items":[],"keys":["Cafes","Breakfast & Brunch","Sandwiches"],"lastUpdated":1547527612573,"name":"Red Rooster Cafe","phone":"(928) 649-8100","price":"$$","reviewCount":226,"reviewScore":4.5,"meta":{"revision":0,"created":1547531151665,"version":0},"$loki":13},{"_id":"5c3d65bd3525a329e0bffec4","address":"804 N Main St","location":{"type":"Point","coordinates":[-112.0275397,34.7459808]},"isApproved":true,"items":[],"keys":["American (Traditional)","Bars","Barbeque"],"lastUpdated":1547527612222,"name":"Colt 804 Grill","phone":"(928) 634-1140","price":"$$","reviewCount":168,"reviewScore":4.5,"meta":{"revision":0,"created":1547531151665,"version":0},"$loki":14},{"_id":"5c3d65bd3525a329e0c0602f","address":"794 N Main St","location":{"type":"Point","coordinates":[-112.026841,34.7454081]},"isApproved":true,"items":[],"keys":["Burgers"],"lastUpdated":1547527612368,"name":"Bing’s Burger Station","phone":"(928) 852-0109","price":"$","reviewCount":97,"reviewScore":4,"meta":{"revision":0,"created":1547531151665,"version":0},"$loki":15},{"_id":"5c3d65bd3525a329e0c0ea76","address":"1124 N Main St","location":{"type":"Point","coordinates":[-112.028347626328,34.7497403694814]},"isApproved":true,"items":[],"keys":["Mexican"],"lastUpdated":1547527612581,"name":"Adriana’s Mexican Restaurant","phone":"(928) 634-1466","price":"$","reviewCount":118,"reviewScore":4.5,"meta":{"revision":0,"created":1547531151665,"version":0},"$loki":16},{"_id":"5c3d65bd3525a329e0c03523","address":"1667 S State Rte 89","location":{"type":"Point","coordinates":[-112.0275863,34.7495791]},"isApproved":true,"items":[],"keys":["American (Traditional)","Sports Bars"],"lastUpdated":1547527612303,"name":"Bonn-Fire","phone":"(928) 636-7410","price":"$$","reviewCount":101,"reviewScore":3.5,"meta":{"revision":0,"created":1547531151665,"version":0},"$loki":17},{"_id":"5c3d65bd3525a329e0c04512","address":"1875 Mabery Ranch Rd","location":{"type":"Point","coordinates":[-112.024649012095,34.7566941]},"isApproved":true,"items":[],"keys":["Performing Arts","American (New)"],"lastUpdated":1547527612322,"name":"Blazin’ M Ranch","phone":"(928) 634-0334","price":"$$$","reviewCount":153,"reviewScore":4.5,"meta":{"revision":0,"created":1547531151665,"version":0},"$loki":18},{"_id":"5c3d65bd3525a329e0c05852","address":"230 N Virginia St","location":{"type":"Point","coordinates":[-112.0518987,34.7517451]},"isApproved":true,"items":[],"keys":["Bakeries","Breakfast & Brunch"],"lastUpdated":1547527612354,"name":"Berry’s Pie Pantry","phone":"(928) 778-0511","price":"$$","reviewCount":86,"reviewScore":4,"meta":{"revision":0,"created":1547531151665,"version":0},"$loki":19},{"_id":"5c3d65bd3525a329e0c1827c","address":"412 Main St","location":{"type":"Point","coordinates":[-112.1150996,34.7477359]},"isApproved":true,"items":[],"keys":["Burgers","Falafel"],"lastUpdated":1547527612813,"name":"The Bordello Of Jerome","phone":"(928) 649-5855","price":"$$","reviewCount":144,"reviewScore":4.5,"meta":{"revision":0,"created":1547531151665,"version":0},"$loki":20},{"_id":"5c3d65bd3525a329e0c1b094","address":"171 S State Rt 69","location":{"type":"Point","coordinates":[-112.114659,34.7498619]},"isApproved":true,"items":[],"keys":["Barbeque"],"lastUpdated":1547527612877,"name":"Lucky’s BBQ & Burgers","phone":"(928) 632-0077","price":"$","reviewCount":97,"reviewScore":4.5,"meta":{"revision":0,"created":1547531151665,"version":0},"$loki":21},{"_id":"5c3d65bd3525a329e0c0931f","address":"1001 North Main St","location":{"type":"Point","coordinates":[-112.1146146,34.7497926]},"isApproved":true,"items":[],"keys":["Wine Tasting Room","Wine Bars","Italian"],"lastUpdated":1547527612452,"name":"Merkin Vineyards Tasting Room & Osteria","phone":"(928) 639-1001","price":"$$","reviewCount":157,"reviewScore":4.5,"meta":{"revision":0,"created":1547531151665,"version":0},"$loki":22},{"_id":"5c3d65bd3525a329e0c15cc7","address":"1060 N Main St","location":{"type":"Point","coordinates":[-112.1153083,34.7498853]},"isApproved":true,"items":[],"keys":["Pizza"],"lastUpdated":1547527612755,"name":"Pizzeria Bocce","phone":"(928) 202-3597","price":"$$","reviewCount":401,"reviewScore":4.5,"meta":{"revision":0,"created":1547531151665,"version":0},"$loki":23},{"_id":"5c3d65bd3525a329e0c14423","address":"4155 Outer Loop Rd 5","location":{"type":"Point","coordinates":[-112.1149907,34.7499304]},"isApproved":true,"items":[],"keys":["Sandwiches"],"lastUpdated":1547527612714,"name":"Chubby Chuck’s Subs","phone":"(928) 445-7699","price":"$","reviewCount":12,"reviewScore":4.5,"meta":{"revision":0,"created":1547531151665,"version":0},"$loki":24},{"_id":"5c3d65bd3525a329e0c18533","address":"11255 S Hwy 69","location":{"type":"Point","coordinates":[-112.1160841,34.7501707]},"isApproved":true,"items":[],"keys":["Steakhouses"],"lastUpdated":1547527612815,"name":"The Old West Steakhouse at the Creekside Lodge","phone":"(928) 632-0777","price":"$$","reviewCount":28,"reviewScore":4.5,"meta":{"revision":0,"created":1547531151665,"version":0},"$loki":25},{"_id":"5c3d65bd3525a329e0c07575","address":"623 Miller Valley Rd","location":{"type":"Point","coordinates":[-112.1159187,34.7504312]},"isApproved":true,"items":[],"keys":["American (Traditional)","Sandwiches","Comfort Food"],"lastUpdated":1547527612400,"name":"Biga by Senses","phone":"(928) 227-2543","price":"$$","reviewCount":174,"reviewScore":4.5,"meta":{"revision":0,"created":1547531151665,"version":0},"$loki":26},{"_id":"5c3d65bd3525a329e0c17324","address":"111 Main St","location":{"type":"Point","coordinates":[-112.115714,34.751221]},"isApproved":true,"items":[],"keys":["Italian"],"lastUpdated":1547527612783,"name":"Grapes Restaurant","phone":"(928) 639-8477","price":"$$","reviewCount":296,"reviewScore":4,"meta":{"revision":0,"created":1547531151665,"version":0},"$loki":27},{"_id":"5c3d65bd3525a329e0c06465","address":"520 W Sheldon St","location":{"type":"Point","coordinates":[-112.1158929,34.7511173]},"isApproved":true,"items":[],"keys":["American (Traditional)","Breakfast & Brunch"],"lastUpdated":1547527612371,"name":"The Local","phone":"(928) 237-4724","price":"$$","reviewCount":469,"reviewScore":4.5,"meta":{"revision":0,"created":1547531151665,"version":0},"$loki":28},{"_id":"5c3d65bd3525a329e0c03da9","address":"330 W Gurley St","location":{"type":"Point","coordinates":[-112.117006,34.751521]},"isApproved":true,"items":[],"keys":["Italian","Pizza"],"lastUpdated":1547527612313,"name":"Rosa’s Pizzeria","phone":"(928) 445-7400","price":"$$","reviewCount":574,"reviewScore":4.5,"meta":{"revision":0,"created":1547531151665,"version":0},"$loki":29},{"_id":"5c3d65bd3525a329e0c154a2","address":"517 N 12th St","location":{"type":"Point","coordinates":[-112.116620715344,34.7506898847588]},"isApproved":true,"items":[],"keys":["American (Traditional)"],"lastUpdated":1547527612745,"name":"Georgie’s Cafe","phone":"(928) 639-0751","price":"$","reviewCount":75,"reviewScore":4.5,"meta":{"revision":0,"created":1547531151665,"version":0},"$loki":30},{"_id":"5c3d65bd3525a329e0c08369","address":"12910 E Main St","location":{"type":"Point","coordinates":[-112.058253586292,34.771021446089]},"isApproved":true,"items":[],"keys":["Pizza","Sandwiches","Salad"],"lastUpdated":1547527612420,"name":"Jackie Boyz Little Italy","phone":"(928) 632-1010","price":"$$","reviewCount":17,"reviewScore":4.5,"meta":{"revision":0,"created":1547531151665,"version":0},"$loki":31},{"_id":"5c3d65bd3525a329e0c0db53","address":"115 S Main St","location":{"type":"Point","coordinates":[-112.0581863,34.7709571]},"isApproved":true,"items":[],"keys":["Cafes","Sandwiches","Desserts"],"lastUpdated":1547527612556,"name":"The Cozy Cafe","phone":"(928) 634-7091","price":"$","reviewCount":3,"reviewScore":3.5,"meta":{"revision":0,"created":1547531151665,"version":0},"$loki":32},{"_id":"5c3d65bd3525a329e0c1b132","address":"1975 N Page Springs Rd","location":{"type":"Point","coordinates":[-112.0580854,34.7713967]},"isApproved":true,"items":[],"keys":["American (New)","Steakhouses","Wine Bars"],"lastUpdated":1547527612877,"name":"Up The Creek Bistro Wine Bar","phone":"(928) 634-9954","price":"$$","reviewCount":173,"reviewScore":4.5,"meta":{"revision":0,"created":1547531151665,"version":0},"$loki":33},{"_id":"5c3d65bd3525a329e0c1a59f","address":"7000 Hwy 179","location":{"type":"Point","coordinates":[-112.059048,34.7713066]},"isApproved":true,"items":[],"keys":["American (New)"],"lastUpdated":1547527612860,"name":"Corner Table","phone":"(928) 862-4017","price":"$$","reviewCount":77,"reviewScore":4,"meta":{"revision":0,"created":1547531151665,"version":0},"$loki":34},{"_id":"5c3d65bd3525a329e0c168ac","address":"1204 N Sr 89","location":{"type":"Point","coordinates":[-112.4539656,34.7630272]},"isApproved":true,"items":[],"keys":["Greek","Food Trucks","Specialty Food"],"lastUpdated":1547527612772,"name":"Sweet Pickles Gyros Subs and More","phone":"(928) 642-5652","price":"","reviewCount":2,"reviewScore":4.5,"meta":{"revision":0,"created":1547531151665,"version":0},"$loki":35},{"_id":"5c3d65bd3525a329e0c0d342","address":"1150 N State Rte 89","location":{"type":"Point","coordinates":[-112.45410002768,34.7623839091461]},"isApproved":true,"items":[],"keys":["Italian","American (Traditional)"],"lastUpdated":1547527612546,"name":"Pasghetti’s Pasta Joint","phone":"(928) 636-2921","price":"","reviewCount":43,"reviewScore":4,"meta":{"revision":0,"created":1547531151665,"version":0},"$loki":36},{"_id":"5c3d65bd3525a329e0c01c22","address":"3235 W Hwy 89A","location":{"type":"Point","coordinates":[-112.454165886151,34.7618607985292]},"isApproved":true,"items":[],"keys":["Barbeque","Food Trucks"],"lastUpdated":1547527612258,"name":"BBQ Outlaw","phone":"","price":"$","reviewCount":7,"reviewScore":4.5,"meta":{"revision":0,"created":1547531151665,"version":0},"$loki":37},{"_id":"5c3d65bd3525a329e0c06f3e","address":"127 Plaza Dr","location":{"type":"Point","coordinates":[-112.453,34.7618]},"isApproved":true,"items":[],"keys":["Pizza","Bowling","Pubs"],"lastUpdated":1547527612388,"name":"Plaza Bowl","phone":"(928) 445-8300","price":"$$","reviewCount":10,"reviewScore":3.5,"meta":{"revision":0,"created":1547531151665,"version":0},"$loki":38},{"_id":"5c3d65bd3525a329e0c1570e","address":"7840 E Hwy 69","location":{"type":"Point","coordinates":[-112.453063,34.761784]},"isApproved":true,"items":[],"keys":["Pizza"],"lastUpdated":1547527612746,"name":"Little Caesars Pizza","phone":"(928) 772-7372","price":"$","reviewCount":1,"reviewScore":4,"meta":{"revision":0,"created":1547531151665,"version":0},"$loki":39},{"_id":"5c3d65bd3525a329e0c02d41","address":"990 N Hwy 89","location":{"type":"Point","coordinates":[-112.454316951334,34.7598680265963]},"isApproved":true,"items":[],"keys":["Cafes","Breakfast & Brunch"],"lastUpdated":1547527612294,"name":"Chino Valley’s Skillets Cafe","phone":"(928) 237-5235","price":"$","reviewCount":31,"reviewScore":4.5,"meta":{"revision":0,"created":1547531151665,"version":0},"$loki":40},{"_id":"5c3d65bd3525a329e0c155e2","address":"7000 Hwy 179","location":{"type":"Point","coordinates":[-112.453773498535,34.7575187683105]},"isApproved":true,"items":[],"keys":["Cafes","Art Galleries","Accessories"],"lastUpdated":1547527612746,"name":"The Collective Sedona","phone":"(928) 255-0900","price":"$$$","reviewCount":5,"reviewScore":3.5,"meta":{"revision":0,"created":1547531151665,"version":0},"$loki":41},{"_id":"5c3d65bd3525a329e0c091e2","address":"1030 Sandretto Dr","location":{"type":"Point","coordinates":[-112.4542532,34.7322961]},"isApproved":true,"items":[],"keys":["Delis","Sandwiches"],"lastUpdated":1547527612451,"name":"Speed’s Hangar Deli","phone":"(928) 759-7253","price":"$$","reviewCount":81,"reviewScore":4,"meta":{"revision":0,"created":1547531151665,"version":0},"$loki":42},{"_id":"5c3d65bd3525a329e0c0d522","address":"400 Main St","location":{"type":"Point","coordinates":[-112.4545136,34.7434159]},"isApproved":true,"items":[],"keys":["Desserts","Food Stands"],"lastUpdated":1547527612547,"name":"Bordello Sweets","phone":"(602) 741-4008","price":"","reviewCount":5,"reviewScore":5,"meta":{"revision":0,"created":1547531151665,"version":0},"$loki":43},{"_id":"5c3d65bd3525a329e0c02ddf","address":"743 E Rd 2 N","location":{"type":"Point","coordinates":[-112.4520855,34.759897]},"isApproved":true,"items":[],"keys":["Hot Dogs"],"lastUpdated":1547527612294,"name":"Lucky Dog’s","phone":"(928) 710-3810","price":"$","reviewCount":8,"reviewScore":4.5,"meta":{"revision":0,"created":1547531151665,"version":0},"$loki":44},{"_id":"5c3d65bd3525a329e0c168c5","address":"1948 N Hwy 89","location":{"type":"Point","coordinates":[-112.451896,34.7605808]},"isApproved":true,"items":[],"keys":["Burgers","Fast Food","Coffee & Tea"],"lastUpdated":1547527612772,"name":"McDonald’s","phone":"(928) 636-5847","price":"$","reviewCount":13,"reviewScore":2.5,"meta":{"revision":0,"created":1547531151665,"version":0},"$loki":45},{"_id":"5c3d65bd3525a329e0c104ea","address":"206 N State Rt 89A","location":{"type":"Point","coordinates":[-112.45201125741,34.7605863858169]},"isApproved":true,"items":[],"keys":["Coffee & Tea","Breakfast & Brunch","Sandwiches"],"lastUpdated":1547527612618,"name":"Pink Java Cafe","phone":"(928) 282-0249","price":"$","reviewCount":75,"reviewScore":3.5,"meta":{"revision":0,"created":1547531151665,"version":0},"$loki":46},{"_id":"5c3d65bd3525a329e0c00749","address":"1021 N Ste Hwy 89","location":{"type":"Point","coordinates":[-112.452168501914,34.760247314433]},"isApproved":true,"items":[],"keys":["Chinese"],"lastUpdated":1547527612227,"name":"Beijing Delight","phone":"(928) 636-6888","price":"$$","reviewCount":29,"reviewScore":3.5,"meta":{"revision":0,"created":1547531151665,"version":0},"$loki":47},{"_id":"5c3d65bd3525a329e0c0ff04","address":"2879 Arizona Trl","location":{"type":"Point","coordinates":[-112.4364339,34.7877479]},"isApproved":true,"items":[],"keys":["Mexican","Steakhouses","Burgers"],"lastUpdated":1547527612609,"name":"El Charro Norte","phone":"(928) 460-5869","price":"$$","reviewCount":40,"reviewScore":3,"meta":{"revision":0,"created":1547531151665,"version":0},"$loki":48},{"_id":"5c3d65bd3525a329e0c1a5a1","address":"1911 E State Rt 69","location":{"type":"Point","coordinates":[-112.4540588,34.7688202]},"isApproved":true,"items":[],"keys":["Pizza","Chicken Wings","Buffets"],"lastUpdated":1547527612860,"name":"Peter Piper Pizza","phone":"(928) 778-9000","price":"$","reviewCount":12,"reviewScore":3.5,"meta":{"revision":0,"created":1547531151665,"version":0},"$loki":49},{"_id":"5c3d65bd3525a329e0c019d1","address":"443 W Butterfield Rd","location":{"type":"Point","coordinates":[-112.4558521,34.7719275]},"isApproved":true,"items":[],"keys":["Mexican"],"lastUpdated":1547527612257,"name":"Casa Grande","phone":"(928) 636-7275","price":"$$","reviewCount":45,"reviewScore":3.5,"meta":{"revision":0,"created":1547531151665,"version":0},"$loki":50},{"_id":"5c3d65bd3525a329e0bff6ff","address":"380 Butterfield Rd","location":{"type":"Point","coordinates":[-112.455108642578,34.7721900939941]},"isApproved":true,"items":[],"keys":["Barbeque"],"lastUpdated":1547527612217,"name":"Big Daddy E’s Smokin BBQ","phone":"(928) 515-2344","price":"$$","reviewCount":52,"reviewScore":4.5,"meta":{"revision":0,"created":1547531151665,"version":0},"$loki":51},{"_id":"5c3d65bd3525a329e0c154e6","address":"1781 E State Rte 69","location":{"type":"Point","coordinates":[-112.453590407968,34.7714593443926]},"isApproved":true,"items":[],"keys":["American (Traditional)"],"lastUpdated":1547527612745,"name":"Zeke’s Eatin Place","phone":"(928) 776-4602","price":"$$","reviewCount":95,"reviewScore":4,"meta":{"revision":0,"created":1547531151665,"version":0},"$loki":52},{"_id":"5c3d65bd3525a329e0c0af96","address":"1459 W Gurley St","location":{"type":"Point","coordinates":[-112.453663,34.7714657]},"isApproved":true,"items":[],"keys":["Mexican"],"lastUpdated":1547527612491,"name":"Casa Sanchez","phone":"(928) 771-9505","price":"$$","reviewCount":60,"reviewScore":3.5,"meta":{"revision":0,"created":1547531151665,"version":0},"$loki":53},{"_id":"5c3d65bd3525a329e0c1475d","address":"1920 N US Hwy 89","location":{"type":"Point","coordinates":[-112.454429,34.773602]},"isApproved":true,"items":[],"keys":["Mexican"],"lastUpdated":1547527612721,"name":"Alfonso’s Mexican Food","phone":"(928) 636-5082","price":"$","reviewCount":27,"reviewScore":3.5,"meta":{"revision":0,"created":1547531151665,"version":0},"$loki":54},{"_id":"5c3d65bd3525a329e0c16012","address":"102 S Main St","location":{"type":"Point","coordinates":[-112.453346,34.774316]},"isApproved":true,"items":[],"keys":["Ice Cream & Frozen Yogurt","Fast Food"],"lastUpdated":1547527612756,"name":"Dairy Queen","phone":"(928) 634-5355","price":"$","reviewCount":14,"reviewScore":2.5,"meta":{"revision":0,"created":1547531151665,"version":0},"$loki":55},{"_id":"5c3d65bd3525a329e0c18fb5","address":"8028 E Valley Rd","location":{"type":"Point","coordinates":[-112.452481,34.7893749]},"isApproved":true,"items":[],"keys":["Mexican","Bars"],"lastUpdated":1547527612832,"name":"Taqueria Guadalajara","phone":"(928) 775-4805","price":"$","reviewCount":108,"reviewScore":4,"meta":{"revision":0,"created":1547531151665,"version":0},"$loki":56}],"idIndex":[1,2,3,4,5,6,7,8,9,10,11,12,13,14,15,16,17,18,19,20,21,22,23,24,25,26,27,28,29,30,31,32,33,34,35,36,37,38,39,40,41,42,43,44,45,46,47,48,49,50,51,52,53,54,55,56],"binaryIndices":{},"constraints":null,"uniqueNames":[],"transforms":{},"objType":"restaurants","dirty":true,"cachedIndex":null,"cachedBinaryIndex":null,"cachedData":null,"adaptiveBinaryIndices":true,"transactional":false,"cloneObjects":false,"cloneMethod":"parse-stringify","asyncListeners":false,"disableMeta":false,"disableChangesApi":true,"disableDeltaChangesApi":true,"autoupdate":false,"serializableIndices":true,"ttl":null,"maxId":56,"DynamicViews":[],"events":{"insert":[],"update":[],"pre-insert":[],"pre-update":[],"close":[],"flushbuffer":[],"error":[],"delete":[null],"warning":[null]},"changes":[]}],"databaseVersion":1.5,"engineVersion":1.5,"autosave":false,"autosaveInterval":5000,"autosaveHandle":null,"throttledSaves":true,"options":{"serializationMethod":"normal","destructureDelimiter":"$<\n"},"persistenceMethod":"fs","persistenceAdapter":null,"verbose":false,"events":{"init":[null],"loaded":[],"flushChanges":[],"close":[],"changes":[],"warning":[]},"ENV":"NODEJS"}