{"filename":"-112.75-33.5","collections":[{"name":"restaurants","data":[{"_id":"5c3d65bd3525a329e0c0fb41","address":"2221 W Deer Valley Rd","location":{"type":"Point","coordinates":[-112.881131,33.718629]},"isApproved":true,"items":[],"keys":["Street Vendors","Food Stands"],"lastUpdated":1547527612601,"name":"Carreta Las Delicias","phone":"(602) 577-7944","price":"","reviewCount":1,"reviewScore":5,"meta":{"revision":0,"created":1547531149766,"version":0},"$loki":1},{"_id":"5c3d65bd3525a329e0c10308","address":"530 E. Wickenburg Way","location":{"type":"Point","coordinates":[-112.6231706,33.6659131]},"isApproved":true,"items":[],"keys":["Mexican"],"lastUpdated":1547527612617,"name":"Filiberto’s Mexican Food","phone":"(928) 684-3515","price":"$","reviewCount":22,"reviewScore":3.5,"meta":{"revision":0,"created":1547531149766,"version":0},"$loki":2},{"_id":"5c3d65bd3525a329e0c065b5","address":"16840 N 83rd Ave","location":{"type":"Point","coordinates":[-112.392598818951,33.6078713038515]},"isApproved":true,"items":[],"keys":["Korean","Barbeque"],"lastUpdated":1547527612377,"name":"Manna BBQ","phone":"(623) 878-5007","price":"","reviewCount":68,"reviewScore":4,"meta":{"revision":0,"created":1547531149766,"version":0},"$loki":3},{"_id":"5c3d65bd3525a329e0c08388","address":"15332 W Bell Rd","location":{"type":"Point","coordinates":[-112.414446463632,33.6252846267463]},"isApproved":true,"items":[],"keys":["Vietnamese"],"lastUpdated":1547527612420,"name":"VNam Pho","phone":"(623) 594-2696","price":"$","reviewCount":139,"reviewScore":4,"meta":{"revision":0,"created":1547531149766,"version":0},"$loki":4},{"_id":"5c3d65bd3525a329e0c1168e","address":"6915 N 95th Ave","location":{"type":"Point","coordinates":[-112.4143796,33.6252317]},"isApproved":true,"items":[],"keys":["American (New)","Breweries","Bars"],"lastUpdated":1547527612649,"name":"Gordon Biersch Brewery Restaurant","phone":"(623) 877-4300","price":"$$","reviewCount":304,"reviewScore":3.5,"meta":{"revision":0,"created":1547531149766,"version":0},"$loki":5},{"_id":"5c3d65bd3525a329e0c033c6","address":"13760 W Camelback Rd","location":{"type":"Point","coordinates":[-112.4158286,33.6257455]},"isApproved":true,"items":[],"keys":["Pizza","Italian","Sandwiches"],"lastUpdated":1547527612302,"name":"Times Square","phone":"(623) 322-7437","price":"$$","reviewCount":126,"reviewScore":3.5,"meta":{"revision":0,"created":1547531149766,"version":0},"$loki":6},{"_id":"5c3d65bd3525a329e0c0679c","address":"17674 N Litchfield Rd","location":{"type":"Point","coordinates":[-112.424331665039,33.6236534118652]},"isApproved":true,"items":[],"keys":["Buffets"],"lastUpdated":1547527612378,"name":"Golden Corral","phone":"(623) 544-0900","price":"$$","reviewCount":78,"reviewScore":3,"meta":{"revision":0,"created":1547531149766,"version":0},"$loki":7},{"_id":"5c3d65bd3525a329e0c070dd","address":"7350 West Bell Rd","location":{"type":"Point","coordinates":[-112.424706586028,33.623660105428]},"isApproved":true,"items":[],"keys":["Mongolian","Asian Fusion","Chinese"],"lastUpdated":1547527612389,"name":"Genghis Grill","phone":"(623) 334-2695","price":"$$","reviewCount":264,"reviewScore":3.5,"meta":{"revision":0,"created":1547531149766,"version":0},"$loki":8},{"_id":"5c3d65bd3525a329e0c18181","address":"","location":{"type":"Point","coordinates":[-112.4285527,33.623803]},"isApproved":true,"items":[],"keys":["Gluten-Free","Bakeries","Desserts"],"lastUpdated":1547527612809,"name":"Bear And The Honey Specialty Bakery","phone":"(480) 688-2649","price":"$","reviewCount":7,"reviewScore":5,"meta":{"revision":0,"created":1547531149766,"version":0},"$loki":9},{"_id":"5c3d65bd3525a329e0c07202","address":"15170 West Bell Rd","location":{"type":"Point","coordinates":[-112.427177429199,33.5410308837891]},"isApproved":true,"items":[],"keys":["Mediterranean"],"lastUpdated":1547527612398,"name":"Pita Wraps","phone":"(623) 266-2520","price":"$","reviewCount":70,"reviewScore":4,"meta":{"revision":0,"created":1547531149766,"version":0},"$loki":10},{"_id":"5c3d65bd3525a329e0c08988","address":"17191 N Litchfield Rd","location":{"type":"Point","coordinates":[-112.410581,33.550211]},"isApproved":true,"items":[],"keys":["Sushi Bars"],"lastUpdated":1547527612429,"name":"Uni Sushi & Steak","phone":"(623) 546-7669","price":"$$","reviewCount":265,"reviewScore":4,"meta":{"revision":0,"created":1547531149766,"version":0},"$loki":11},{"_id":"5c3d65bd3525a329e0c034a7","address":"12005 NW Grand Ave","location":{"type":"Point","coordinates":[-112.511910952504,33.5131742392804]},"isApproved":true,"items":[],"keys":["Mexican","Meat Shops"],"lastUpdated":1547527612302,"name":"Carniceria Y Panaderia El Oaxaqueno","phone":"(623) 977-4380","price":"","reviewCount":3,"reviewScore":5,"meta":{"revision":0,"created":1547531149766,"version":0},"$loki":12},{"_id":"5c3d65bd3525a329e0c0debf","address":"4356 W Thunderbird Rd","location":{"type":"Point","coordinates":[-112.434173,33.639667]},"isApproved":true,"items":[],"keys":["Mediterranean"],"lastUpdated":1547527612564,"name":"Greek Palace Mediterranean","phone":"(602) 595-1522","price":"","reviewCount":23,"reviewScore":4.5,"meta":{"revision":0,"created":1547531149766,"version":0},"$loki":13},{"_id":"5c3d65bd3525a329e0c042cd","address":"7280 West Bell Rd","location":{"type":"Point","coordinates":[-112.4259385,33.6404695]},"isApproved":true,"items":[],"keys":["Seafood","Salad","Mexican"],"lastUpdated":1547527612321,"name":"Slapfish","phone":"(623) 334-9350","price":"","reviewCount":37,"reviewScore":4,"meta":{"revision":0,"created":1547531149766,"version":0},"$loki":14},{"_id":"5c3d65bd3525a329e0c1022a","address":"17014 W Bell Rd","location":{"type":"Point","coordinates":[-112.4268982,33.6404954]},"isApproved":true,"items":[],"keys":["Chinese"],"lastUpdated":1547527612611,"name":"Golden Wei","phone":"(623) 584-8911","price":"$","reviewCount":100,"reviewScore":3,"meta":{"revision":0,"created":1547531149766,"version":0},"$loki":15},{"_id":"5c3d65bd3525a329e0c0526d","address":"4273 W Thunderbird Rd","location":{"type":"Point","coordinates":[-112.4230463,33.6394331]},"isApproved":true,"items":[],"keys":["Ice Cream & Frozen Yogurt","Juice Bars & Smoothies","Vegan"],"lastUpdated":1547527612346,"name":"Desert Swirl Frozen Yogurt","phone":"(602) 548-0979","price":"$","reviewCount":63,"reviewScore":4,"meta":{"revision":0,"created":1547531149766,"version":0},"$loki":16},{"_id":"5c3d65bd3525a329e0c053b4","address":"9098 W Pinnacle Peak Rd","location":{"type":"Point","coordinates":[-112.4155026,33.6382133]},"isApproved":true,"items":[],"keys":["American (Traditional)","Breakfast & Brunch"],"lastUpdated":1547527612346,"name":"JD Campbell’s","phone":"(623) 825-9500","price":"$$","reviewCount":179,"reviewScore":3.5,"meta":{"revision":0,"created":1547531149766,"version":0},"$loki":17},{"_id":"5c3d65bd3525a329e0bff511","address":"7541 W Bell Rd","location":{"type":"Point","coordinates":[-112.413964338832,33.6373912719783]},"isApproved":true,"items":[],"keys":["Noodles"],"lastUpdated":1547527612216,"name":"Noodles & Company","phone":"(623) 979-9477","price":"$$","reviewCount":74,"reviewScore":3.5,"meta":{"revision":0,"created":1547531149766,"version":0},"$loki":18},{"_id":"5c3d65bd3525a329e0c10f83","address":"15414 N 19th Ave","location":{"type":"Point","coordinates":[-112.412288,33.638333]},"isApproved":true,"items":[],"keys":["Asian Fusion","New Mexican Cuisine"],"lastUpdated":1547527612640,"name":"Chino Bandido","phone":"(602) 375-3639","price":"$","reviewCount":1611,"reviewScore":4,"meta":{"revision":0,"created":1547531149766,"version":0},"$loki":19},{"_id":"5c3d65bd3525a329e0c08218","address":"12418 N 28th Dr","location":{"type":"Point","coordinates":[-112.4066783,33.6383013]},"isApproved":true,"items":[],"keys":["Italian","Pizza"],"lastUpdated":1547527612420,"name":"Anzios Italian Restaurant","phone":"(602) 375-1221","price":"$$","reviewCount":400,"reviewScore":4,"meta":{"revision":0,"created":1547531149766,"version":0},"$loki":20}],"idIndex":[1,2,3,4,5,6,7,8,9,10,11,12,13,14,15,16,17,18,19,20],"binaryIndices":{},"constraints":null,"uniqueNames":[],"transforms":{},"objType":"restaurants","dirty":true,"cachedIndex":null,"cachedBinaryIndex":null,"cachedData":null,"adaptiveBinaryIndices":true,"transactional":false,"cloneObjects":false,"cloneMethod":"parse-stringify","asyncListeners":false,"disableMeta":false,"disableChangesApi":true,"disableDeltaChangesApi":true,"autoupdate":false,"serializableIndices":true,"ttl":null,"maxId":20,"DynamicViews":[],"events":{"insert":[],"update":[],"pre-insert":[],"pre-update":[],"close":[],"flushbuffer":[],"error":[],"delete":[null],"warning":[null]},"changes":[]}],"databaseVersion":1.5,"engineVersion":1.5,"autosave":false,"autosaveInterval":5000,"autosaveHandle":null,"throttledSaves":true,"options":{"serializationMethod":"normal","destructureDelimiter":"$<\n"},"persistenceMethod":"fs","persistenceAdapter":null,"verbose":false,"events":{"init":[null],"loaded":[],"flushChanges":[],"close":[],"changes":[],"warning":[]},"ENV":"NODEJS"}