{"filename":"-114.75-34.75","collections":[{"name":"restaurants","data":[{"_id":"5c3d65bd3525a329e0c19472","address":"2900 S Casino Dr","location":{"type":"Point","coordinates":[-114.481428880951,34.7819061787328]},"isApproved":true,"items":[],"keys":["Mexican","Salad"],"lastUpdated":1547527612840,"name":"Guy Fieri’s El Burro Borracho","phone":"(702) 298-6898","price":"$$","reviewCount":529,"reviewScore":3.5,"meta":{"revision":0,"created":1547531150397,"version":0},"$loki":1},{"_id":"5c3d65bd3525a329e0c0fe94","address":"10000 Aha Macav Pkwy","location":{"type":"Point","coordinates":[-114.481837,34.779264]},"isApproved":true,"items":[],"keys":["Cafes","Breakfast & Brunch","Waffles"],"lastUpdated":1547527612609,"name":"Feathers Cafe","phone":"(702) 535-5555","price":"$$","reviewCount":58,"reviewScore":3,"meta":{"revision":0,"created":1547531150397,"version":0},"$loki":2},{"_id":"5c3d65bd3525a329e0c08b9e","address":"12970 Oatman Hwy","location":{"type":"Point","coordinates":[-114.480525282296,34.7800966413908]},"isApproved":true,"items":[],"keys":["Desserts","Breakfast & Brunch","Sandwiches"],"lastUpdated":1547527612436,"name":"Mama’s Café","phone":"(928) 788-3824","price":"$","reviewCount":1,"reviewScore":5,"meta":{"revision":0,"created":1547531150397,"version":0},"$loki":3},{"_id":"5c3d65bd3525a329e0c163ce","address":"10420 Harbor Ave","location":{"type":"Point","coordinates":[-114.6065345,34.8547834]},"isApproved":true,"items":[],"keys":["Restaurants"],"lastUpdated":1547527612764,"name":"Chuillitos Taco Shop","phone":"(928) 788-3320","price":"$","reviewCount":3,"reviewScore":4.5,"meta":{"revision":0,"created":1547531150397,"version":0},"$loki":4},{"_id":"5c3d65bd3525a329e0c11bdd","address":"1595 Mohave Dr","location":{"type":"Point","coordinates":[-114.606359861791,34.8549001278414]},"isApproved":true,"items":[],"keys":["American (Traditional)","Bars"],"lastUpdated":1547527612659,"name":"Black Mountain Bistro and Bar","phone":"(928) 219-5911","price":"$$","reviewCount":64,"reviewScore":4.5,"meta":{"revision":0,"created":1547531150397,"version":0},"$loki":5},{"_id":"5c3d65bd3525a329e0c0abea","address":"5100 Arizona 95","location":{"type":"Point","coordinates":[-114.604141235352,34.8604354858398]},"isApproved":true,"items":[],"keys":["Barbeque"],"lastUpdated":1547527612490,"name":"Roadhouse 95 Grill","phone":"(928) 788-4500","price":"$","reviewCount":10,"reviewScore":4,"meta":{"revision":0,"created":1547531150397,"version":0},"$loki":6},{"_id":"5c3d65bd3525a329e0c00048","address":"14999 Historic Rte 66","location":{"type":"Point","coordinates":[-114.610723460029,34.8488602186854]},"isApproved":true,"items":[],"keys":["American (Traditional)","Bars","Men's Clothing"],"lastUpdated":1547527612223,"name":"Topock 66","phone":"(928) 768-2325","price":"$$","reviewCount":190,"reviewScore":3.5,"meta":{"revision":0,"created":1547531150397,"version":0},"$loki":7},{"_id":"5c3d65bd3525a329e0c1033b","address":"10197 Harbor Ave","location":{"type":"Point","coordinates":[-114.6165618,34.8486069]},"isApproved":true,"items":[],"keys":["Mexican"],"lastUpdated":1547527612617,"name":"Valdez Mexican Grill","phone":"(928) 768-8050","price":"$","reviewCount":24,"reviewScore":4.5,"meta":{"revision":0,"created":1547531150397,"version":0},"$loki":8},{"_id":"5c3d65bd3525a329e0c13ab0","address":"1901 Needles Hwy","location":{"type":"Point","coordinates":[-114.6167614,34.8482969]},"isApproved":true,"items":[],"keys":["Pizza","Salad","Beer Bar"],"lastUpdated":1547527612699,"name":"River City Pizza","phone":"(760) 326-9191","price":"$$","reviewCount":63,"reviewScore":3.5,"meta":{"revision":0,"created":1547531150397,"version":0},"$loki":9},{"_id":"5c3d65bd3525a329e0c09d49","address":"851 Hancock Rd","location":{"type":"Point","coordinates":[-114.610243,34.8404931]},"isApproved":true,"items":[],"keys":["Mexican"],"lastUpdated":1547527612465,"name":"Chullito’s Mexican Food","phone":"(928) 704-0292","price":"","reviewCount":1,"reviewScore":5,"meta":{"revision":0,"created":1547531150397,"version":0},"$loki":10},{"_id":"5c3d65bd3525a329e0c1a121","address":"1201 3rd St","location":{"type":"Point","coordinates":[-114.610064327717,34.8393924382291]},"isApproved":true,"items":[],"keys":["Burgers","Fast Food","Coffee & Tea"],"lastUpdated":1547527612857,"name":"McDonald’s","phone":"(760) 326-5188","price":"$","reviewCount":31,"reviewScore":2,"meta":{"revision":0,"created":1547531150397,"version":0},"$loki":11},{"_id":"5c3d65bd3525a329e0c044a7","address":"224 Chestnut St","location":{"type":"Point","coordinates":[-114.6126645,34.8471067]},"isApproved":true,"items":[],"keys":["Mexican"],"lastUpdated":1547527612322,"name":"Valenzuela’s Cafe","phone":"(760) 326-2345","price":"$","reviewCount":8,"reviewScore":4,"meta":{"revision":0,"created":1547531150397,"version":0},"$loki":12},{"_id":"5c3d65bd3525a329e0c08652","address":"8892 Hwy 95","location":{"type":"Point","coordinates":[-114.6060821,34.8464057]},"isApproved":true,"items":[],"keys":["Mexican"],"lastUpdated":1547527612427,"name":"Los Amigos","phone":"(928) 768-1333","price":"$","reviewCount":22,"reviewScore":4,"meta":{"revision":0,"created":1547531150397,"version":0},"$loki":13},{"_id":"5c3d65bd3525a329e0c116d9","address":"181 Main St","location":{"type":"Point","coordinates":[-114.6048612,34.8397005]},"isApproved":true,"items":[],"keys":["American (Traditional)"],"lastUpdated":1547527612650,"name":"Oatman Hotel","phone":"(928) 768-4408","price":"$","reviewCount":64,"reviewScore":4,"meta":{"revision":0,"created":1547531150397,"version":0},"$loki":14},{"_id":"5c3d65bd3525a329e0c126f4","address":"5413 AZ-95","location":{"type":"Point","coordinates":[-114.6045039,34.8396853]},"isApproved":true,"items":[],"keys":["Sandwiches","Soup","Burgers"],"lastUpdated":1547527612671,"name":"The Hut Fort Mojave","phone":"(928) 404-3868","price":"","reviewCount":1,"reviewScore":5,"meta":{"revision":0,"created":1547531150397,"version":0},"$loki":15},{"_id":"5c3d65bd3525a329e0c0421a","address":"1900 Needles Hwy","location":{"type":"Point","coordinates":[-114.595924410368,34.8256697845757]},"isApproved":true,"items":[],"keys":["Bars","Barbeque"],"lastUpdated":1547527612321,"name":"Porky’s BBQ & 66 Bar","phone":"(760) 326-2277","price":"$","reviewCount":25,"reviewScore":3.5,"meta":{"revision":0,"created":1547531150397,"version":0},"$loki":16},{"_id":"5c3d65bd3525a329e0c0aba1","address":"5031 E Powell Lake Rd","location":{"type":"Point","coordinates":[-114.594838,34.824563]},"isApproved":true,"items":[],"keys":["Delis"],"lastUpdated":1547527612489,"name":"Golden Shores Deli","phone":"(928) 768-1444","price":"","reviewCount":1,"reviewScore":3,"meta":{"revision":0,"created":1547531150397,"version":0},"$loki":17},{"_id":"5c3d65bd3525a329e0c17bdb","address":"1004 E Broadway St","location":{"type":"Point","coordinates":[-114.6214704,34.8486893]},"isApproved":true,"items":[],"keys":["Indian","Buffets"],"lastUpdated":1547527612800,"name":"Flavor Of India","phone":"(760) 326-3000","price":"$$","reviewCount":27,"reviewScore":4.5,"meta":{"revision":0,"created":1547531150397,"version":0},"$loki":18},{"_id":"5c3d65bd3525a329e0c04313","address":"829 Front St","location":{"type":"Point","coordinates":[-114.6231017,34.8510507]},"isApproved":true,"items":[],"keys":["Mexican"],"lastUpdated":1547527612321,"name":"Munchy’s","phone":"(760) 326-1000","price":"$","reviewCount":55,"reviewScore":4.5,"meta":{"revision":0,"created":1547531150397,"version":0},"$loki":19},{"_id":"5c3d65bd3525a329e0c10868","address":"3520 Needles Hwy","location":{"type":"Point","coordinates":[-114.6233261,34.8499915]},"isApproved":true,"items":[],"keys":["Pizza","American (Traditional)","Salad"],"lastUpdated":1547527612620,"name":"The River Front Cafe","phone":"(760) 326-5226","price":"$","reviewCount":124,"reviewScore":4.5,"meta":{"revision":0,"created":1547531150397,"version":0},"$loki":20},{"_id":"5c3d65bd3525a329e0c135f0","address":"318 E Oak St","location":{"type":"Point","coordinates":[-114.623957286955,34.8508177289969]},"isApproved":true,"items":[],"keys":["Italian"],"lastUpdated":1547527612696,"name":"Mattina’s Ristorante Italiano","phone":"(928) 753-7504","price":"$$$","reviewCount":86,"reviewScore":4,"meta":{"revision":0,"created":1547531150397,"version":0},"$loki":21},{"_id":"5c3d65bd3525a329e0c15e79","address":"2451 Needles Hwy","location":{"type":"Point","coordinates":[-114.624166905542,34.8507956210263]},"isApproved":true,"items":[],"keys":["Sandwiches","Fast Food"],"lastUpdated":1547527612755,"name":"Subway","phone":"","price":"$","reviewCount":12,"reviewScore":3,"meta":{"revision":0,"created":1547531150397,"version":0},"$loki":22},{"_id":"5c3d65bd3525a329e0c101be","address":"2085 S Casino Dr","location":{"type":"Point","coordinates":[-114.625703351689,34.8510963501243]},"isApproved":true,"items":[],"keys":["Fast Food","Burgers"],"lastUpdated":1547527612610,"name":"In-N-Out Burger","phone":"(800) 786-1000","price":"$","reviewCount":147,"reviewScore":4.5,"meta":{"revision":0,"created":1547531150397,"version":0},"$loki":23},{"_id":"5c3d65bd3525a329e0c10ace","address":"10200 Aha Macav Pkwy","location":{"type":"Point","coordinates":[-114.6451367,35.0157872]},"isApproved":true,"items":[],"keys":["Mexican"],"lastUpdated":1547527612631,"name":"Pancho Villa’s Taco Shop","phone":"(702) 535-4400","price":"$","reviewCount":42,"reviewScore":4,"meta":{"revision":0,"created":1547531150397,"version":0},"$loki":24},{"_id":"5c3d65bd3525a329e0c0cdf2","address":"10000 Aha Macav Pkwy","location":{"type":"Point","coordinates":[-114.6414579,35.0153316]},"isApproved":true,"items":[],"keys":["Chinese","Fast Food"],"lastUpdated":1547527612534,"name":"Panda Express","phone":"(702) 535-4863","price":"$$","reviewCount":9,"reviewScore":3,"meta":{"revision":0,"created":1547531150397,"version":0},"$loki":25},{"_id":"5c3d65bd3525a329e0c09012","address":"10000 Aha Machav Pkwy","location":{"type":"Point","coordinates":[-114.6411554,35.0156781]},"isApproved":true,"items":[],"keys":["Steakhouses","Seafood"],"lastUpdated":1547527612439,"name":"Moonshadow Grille","phone":"(702) 535-5555","price":"$$$","reviewCount":66,"reviewScore":4,"meta":{"revision":0,"created":1547531150397,"version":0},"$loki":26},{"_id":"5c3d65bd3525a329e0c13392","address":"10000 Aha Macav Pkwy","location":{"type":"Point","coordinates":[-114.640607,35.015812]},"isApproved":true,"items":[],"keys":["Fast Food","Pizza","Italian"],"lastUpdated":1547527612689,"name":"Sbarro","phone":"(702) 535-4915","price":"","reviewCount":7,"reviewScore":3,"meta":{"revision":0,"created":1547531150397,"version":0},"$loki":27},{"_id":"5c3d65bd3525a329e0c189e4","address":"10000 Aha Macav Pkwy","location":{"type":"Point","coordinates":[-114.640605,35.015834]},"isApproved":true,"items":[],"keys":["Buffets"],"lastUpdated":1547527612823,"name":"Native Harvest Buffet","phone":"(702) 535-5555","price":"$$","reviewCount":59,"reviewScore":2.5,"meta":{"revision":0,"created":1547531150397,"version":0},"$loki":28},{"_id":"5c3d65bd3525a329e0c02ec5","address":"2019 Hwy 95","location":{"type":"Point","coordinates":[-114.634062,34.868765]},"isApproved":true,"items":[],"keys":["Sushi Bars","Japanese","Steakhouses"],"lastUpdated":1547527612294,"name":"Samurai Japanese Steakhouse & Sushi","phone":"(928) 704-3777","price":"$$","reviewCount":170,"reviewScore":4,"meta":{"revision":0,"created":1547531150397,"version":0},"$loki":29},{"_id":"5c3d65bd3525a329e0c077c8","address":"221 J St","location":{"type":"Point","coordinates":[-114.634062,34.868765]},"isApproved":true,"items":[],"keys":["Fast Food"],"lastUpdated":1547527612408,"name":"Jack In the Box","phone":"(760) 326-4746","price":"$","reviewCount":12,"reviewScore":3,"meta":{"revision":0,"created":1547531150397,"version":0},"$loki":30},{"_id":"5c3d65bd3525a329e0c09a0e","address":"2411 W Broadway","location":{"type":"Point","coordinates":[-114.634062,34.868765]},"isApproved":true,"items":[],"keys":["Breakfast & Brunch","Cafes","Diners"],"lastUpdated":1547527612463,"name":"Giggling Cactus","phone":"(760) 326-2233","price":"$","reviewCount":136,"reviewScore":4.5,"meta":{"revision":0,"created":1547531150397,"version":0},"$loki":31},{"_id":"5c3d65bd3525a329e0c1328f","address":"3300 E Andy Devine Ave","location":{"type":"Point","coordinates":[-114.634062,34.868765]},"isApproved":true,"items":[],"keys":["Diners","American (Traditional)","Breakfast & Brunch"],"lastUpdated":1547527612689,"name":"Denny’s","phone":"(928) 681-4983","price":"$$","reviewCount":16,"reviewScore":3.5,"meta":{"revision":0,"created":1547531150397,"version":0},"$loki":32},{"_id":"5c3d65bd3525a329e0c05e86","address":"8496 Hwy 95","location":{"type":"Point","coordinates":[-114.5971451,34.9102726]},"isApproved":true,"items":[],"keys":["American (Traditional)","Breakfast & Brunch","Pizza"],"lastUpdated":1547527612362,"name":"Hunter’s Grill","phone":"(928) 346-1200","price":"$","reviewCount":33,"reviewScore":3,"meta":{"revision":0,"created":1547531150397,"version":0},"$loki":33},{"_id":"5c3d65bd3525a329e0c01cfa","address":"8555 S Hwy 95","location":{"type":"Point","coordinates":[-114.598969,34.9075792]},"isApproved":true,"items":[],"keys":["Mexican","Burgers","Sandwiches"],"lastUpdated":1547527612259,"name":"Mesquite Grill","phone":"(928) 346-2000","price":"","reviewCount":3,"reviewScore":3.5,"meta":{"revision":0,"created":1547531150397,"version":0},"$loki":34},{"_id":"5c3d65bd3525a329e0c1993a","address":"811 Front St","location":{"type":"Point","coordinates":[-114.5975307,34.9008849]},"isApproved":true,"items":[],"keys":["Mexican"],"lastUpdated":1547527612843,"name":"Lucy’s Mexican Restaurant","phone":"(760) 326-4461","price":"$","reviewCount":19,"reviewScore":4,"meta":{"revision":0,"created":1547531150397,"version":0},"$loki":35},{"_id":"5c3d65bd3525a329e0c0f2c8","address":"1950 S Casino Dr","location":{"type":"Point","coordinates":[-114.597248,34.898306]},"isApproved":true,"items":[],"keys":["Burgers","American (Traditional)","Breakfast & Brunch"],"lastUpdated":1547527612591,"name":"Chuckwagon Restaurant On The River","phone":"","price":"$","reviewCount":225,"reviewScore":4,"meta":{"revision":0,"created":1547531150397,"version":0},"$loki":36},{"_id":"5c3d65bd3525a329e0bffb66","address":"5575 Hwy 95","location":{"type":"Point","coordinates":[-114.59854,34.9955488]},"isApproved":true,"items":[],"keys":["American (New)"],"lastUpdated":1547527612220,"name":"Hooch’s 95 Bar & Grill","phone":"(928) 768-3663","price":"$$","reviewCount":68,"reviewScore":3,"meta":{"revision":0,"created":1547531150397,"version":0},"$loki":37},{"_id":"5c3d65bd3525a329e0c0c80d","address":"14750 S Hwy 95","location":{"type":"Point","coordinates":[-114.597445632962,34.9978948140858]},"isApproved":true,"items":[],"keys":["Burgers","Fast Food","Salad"],"lastUpdated":1547527612526,"name":"Wendy’s","phone":"(928) 764-3030","price":"$","reviewCount":11,"reviewScore":2.5,"meta":{"revision":0,"created":1547531150397,"version":0},"$loki":38},{"_id":"5c3d65bd3525a329e0c0e15a","address":"12421 S Frontage Rd","location":{"type":"Point","coordinates":[-114.5992009,34.9994905]},"isApproved":true,"items":[],"keys":["Burgers","Fish & Chips","Breakfast & Brunch"],"lastUpdated":1547527612565,"name":"R Burger Joint","phone":"(928) 766-2550","price":"$","reviewCount":17,"reviewScore":4.5,"meta":{"revision":0,"created":1547531150397,"version":0},"$loki":39},{"_id":"5c3d65bd3525a329e0c0c599","address":"5230 Highway 95","location":{"type":"Point","coordinates":[-114.5971595,35.0045393]},"isApproved":true,"items":[],"keys":["Nightlife","Restaurants"],"lastUpdated":1547527612524,"name":"El Palacio & Casa Serrano Mexican Restaurants","phone":"(928) 768-1881","price":"$$","reviewCount":10,"reviewScore":2.5,"meta":{"revision":0,"created":1547531150397,"version":0},"$loki":40},{"_id":"5c3d65bd3525a329e0c110c3","address":"5230 Hwy 95","location":{"type":"Point","coordinates":[-114.5971595,35.0045393]},"isApproved":true,"items":[],"keys":["Bars","Mexican"],"lastUpdated":1547527612641,"name":"Casa Serrano Mexican Restaurant","phone":"(928) 768-1881","price":"$$","reviewCount":125,"reviewScore":3,"meta":{"revision":0,"created":1547531150397,"version":0},"$loki":41},{"_id":"5c3d65bd3525a329e0c0f8da","address":"10420 Harbor Ave","location":{"type":"Point","coordinates":[-114.597462,35.009347]},"isApproved":true,"items":[],"keys":["Mexican"],"lastUpdated":1547527612600,"name":"Pancho Villas","phone":"(928) 788-3320","price":"$","reviewCount":46,"reviewScore":4.5,"meta":{"revision":0,"created":1547531150397,"version":0},"$loki":42},{"_id":"5c3d65bd3525a329e0c05a8a","address":"4978 S Highway 95","location":{"type":"Point","coordinates":[-114.59797,35.01121]},"isApproved":true,"items":[],"keys":["Mexican","Tex-Mex","Fast Food"],"lastUpdated":1547527612356,"name":"Taco Bell","phone":"(928) 763-8080","price":"$","reviewCount":14,"reviewScore":2.5,"meta":{"revision":0,"created":1547531150397,"version":0},"$loki":43},{"_id":"5c3d65bd3525a329e0c119bb","address":"4978 S Hwy 95","location":{"type":"Point","coordinates":[-114.5976235,35.0119601]},"isApproved":true,"items":[],"keys":["Seafood","Fast Food"],"lastUpdated":1547527612651,"name":"Long John Silver’s","phone":"(928) 763-8080","price":"","reviewCount":2,"reviewScore":2.5,"meta":{"revision":0,"created":1547531150397,"version":0},"$loki":44},{"_id":"5c3d65bd3525a329e0c0c2e6","address":"2840 Hwy 95","location":{"type":"Point","coordinates":[-114.598890064557,35.0163867414372]},"isApproved":true,"items":[],"keys":["Burgers","Fast Food","Coffee & Tea"],"lastUpdated":1547527612518,"name":"McDonald’s","phone":"(928) 763-8222","price":"","reviewCount":6,"reviewScore":1,"meta":{"revision":0,"created":1547531150397,"version":0},"$loki":45},{"_id":"5c3d65bd3525a329e0c039ea","address":"1450 E Aztec Rd","location":{"type":"Point","coordinates":[-114.5984614,35.0182679]},"isApproved":true,"items":[],"keys":["Fast Food","Burgers"],"lastUpdated":1547527612311,"name":"Burger King","phone":"(928) 758-4644","price":"$","reviewCount":19,"reviewScore":2.5,"meta":{"revision":0,"created":1547531150397,"version":0},"$loki":46},{"_id":"5c3d65bd3525a329e0c0a91b","address":"4754 S Hwy 95","location":{"type":"Point","coordinates":[-114.597488947911,35.0182407245759]},"isApproved":true,"items":[],"keys":["Fast Food","Burgers","Coffee & Tea"],"lastUpdated":1547527612482,"name":"McDonald’s","phone":"(928) 704-1717","price":"$","reviewCount":11,"reviewScore":1.5,"meta":{"revision":0,"created":1547531150397,"version":0},"$loki":47},{"_id":"5c3d65bd3525a329e0c19922","address":"4821 Hwy 95","location":{"type":"Point","coordinates":[-114.5999,35.017026]},"isApproved":true,"items":[],"keys":["Sandwiches","Fast Food"],"lastUpdated":1547527612843,"name":"Subway","phone":"(928) 704-4425","price":"$","reviewCount":5,"reviewScore":4,"meta":{"revision":0,"created":1547531150397,"version":0},"$loki":48},{"_id":"5c3d65bd3525a329e0c1523a","address":"4821 S Hwy 95","location":{"type":"Point","coordinates":[-114.600146,35.017023]},"isApproved":true,"items":[],"keys":["Mexican"],"lastUpdated":1547527612737,"name":"El Gallito Taco Shop","phone":"(928) 763-9272","price":"$","reviewCount":24,"reviewScore":3.5,"meta":{"revision":0,"created":1547531150397,"version":0},"$loki":49},{"_id":"5c3d65bd3525a329e0c18b70","address":"4723 S Hwy 95","location":{"type":"Point","coordinates":[-114.598617,35.0198263]},"isApproved":true,"items":[],"keys":["Pizza"],"lastUpdated":1547527612824,"name":"Papa Murphy’s","phone":"(928) 330-2630","price":"$$","reviewCount":8,"reviewScore":3.5,"meta":{"revision":0,"created":1547531150397,"version":0},"$loki":50},{"_id":"5c3d65bd3525a329e0c02f6c","address":"4630 S Hwy 95","location":{"type":"Point","coordinates":[-114.597368,35.0222231792418]},"isApproved":true,"items":[],"keys":["Donuts","Bakeries","Delis"],"lastUpdated":1547527612295,"name":"Dandy Donuts & Deli","phone":"(928) 444-1100","price":"$","reviewCount":39,"reviewScore":4.5,"meta":{"revision":0,"created":1547531150397,"version":0},"$loki":51},{"_id":"5c3d65bd3525a329e0c1846a","address":"4610 S Highway 95","location":{"type":"Point","coordinates":[-114.5976027,35.0228493]},"isApproved":true,"items":[],"keys":["Breakfast & Brunch","Cafes"],"lastUpdated":1547527612814,"name":"Bonanza Cafe","phone":"(928) 758-6772","price":"$","reviewCount":82,"reviewScore":4,"meta":{"revision":0,"created":1547531150397,"version":0},"$loki":52},{"_id":"5c3d65bd3525a329e0c0e5c9","address":"2200 S Casino Dr","location":{"type":"Point","coordinates":[-114.597276,35.0269778]},"isApproved":true,"items":[],"keys":["American (Traditional)","Waffles","Breakfast & Brunch"],"lastUpdated":1547527612573,"name":"Bumbleberry Flats","phone":"(800) 634-3469","price":"$$","reviewCount":835,"reviewScore":4,"meta":{"revision":0,"created":1547531150397,"version":0},"$loki":53},{"_id":"5c3d65bd3525a329e0c17fdb","address":"4508 Hwy 95","location":{"type":"Point","coordinates":[-114.597068019211,35.0259511758288]},"isApproved":true,"items":[],"keys":["Mexican"],"lastUpdated":1547527612802,"name":"Humberto’s Mexican Food","phone":"(928) 299-5008","price":"","reviewCount":2,"reviewScore":4,"meta":{"revision":0,"created":1547531150397,"version":0},"$loki":54},{"_id":"5c3d65bd3525a329e0c170dd","address":"4508 S Highway 95","location":{"type":"Point","coordinates":[-114.597348,35.0256929]},"isApproved":true,"items":[],"keys":["Chicken Wings","Pizza","Sandwiches"],"lastUpdated":1547527612782,"name":"Domino’s Pizza","phone":"(928) 704-4700","price":"","reviewCount":13,"reviewScore":3,"meta":{"revision":0,"created":1547531150397,"version":0},"$loki":55},{"_id":"5c3d65bd3525a329e0c1a957","address":"4360 S Hwy 95","location":{"type":"Point","coordinates":[-114.597388,35.030187]},"isApproved":true,"items":[],"keys":["Chinese"],"lastUpdated":1547527612867,"name":"Red Dragon","phone":"(928) 763-6885","price":"$$","reviewCount":58,"reviewScore":3.5,"meta":{"revision":0,"created":1547531150397,"version":0},"$loki":56},{"_id":"5c3d65bd3525a329e0c1a63a","address":"2101 Hwy 95","location":{"type":"Point","coordinates":[-114.597544,35.031316]},"isApproved":true,"items":[],"keys":["Mexican","Seafood"],"lastUpdated":1547527612860,"name":"El Charro Mexican Restaurant","phone":"(928) 763-9331","price":"$$","reviewCount":344,"reviewScore":4,"meta":{"revision":0,"created":1547531150397,"version":0},"$loki":57},{"_id":"5c3d65bd3525a329e0c16c8d","address":"2829 E Beverly Ave","location":{"type":"Point","coordinates":[-114.5974971,35.0324069]},"isApproved":true,"items":[],"keys":["Dive Bars","American (Traditional)"],"lastUpdated":1547527612774,"name":"Tack Shed","phone":"(928) 377-3726","price":"$","reviewCount":29,"reviewScore":4.5,"meta":{"revision":0,"created":1547531150397,"version":0},"$loki":58},{"_id":"5c3d65bd3525a329e0c0c921","address":"","location":{"type":"Point","coordinates":[-114.484502529886,34.7191908052344]},"isApproved":true,"items":[],"keys":["Nightlife","American (Traditional)"],"lastUpdated":1547527612526,"name":"Olive Oatman Restaurant & Saloon","phone":"(928) 768-1891","price":"$","reviewCount":41,"reviewScore":3.5,"meta":{"revision":0,"created":1547531150397,"version":0},"$loki":59}],"idIndex":[1,2,3,4,5,6,7,8,9,10,11,12,13,14,15,16,17,18,19,20,21,22,23,24,25,26,27,28,29,30,31,32,33,34,35,36,37,38,39,40,41,42,43,44,45,46,47,48,49,50,51,52,53,54,55,56,57,58,59],"binaryIndices":{},"constraints":null,"uniqueNames":[],"transforms":{},"objType":"restaurants","dirty":true,"cachedIndex":null,"cachedBinaryIndex":null,"cachedData":null,"adaptiveBinaryIndices":true,"transactional":false,"cloneObjects":false,"cloneMethod":"parse-stringify","asyncListeners":false,"disableMeta":false,"disableChangesApi":true,"disableDeltaChangesApi":true,"autoupdate":false,"serializableIndices":true,"ttl":null,"maxId":59,"DynamicViews":[],"events":{"insert":[],"update":[],"pre-insert":[],"pre-update":[],"close":[],"flushbuffer":[],"error":[],"delete":[null],"warning":[null]},"changes":[]}],"databaseVersion":1.5,"engineVersion":1.5,"autosave":false,"autosaveInterval":5000,"autosaveHandle":null,"throttledSaves":true,"options":{"serializationMethod":"normal","destructureDelimiter":"$<\n"},"persistenceMethod":"fs","persistenceAdapter":null,"verbose":false,"events":{"init":[null],"loaded":[],"flushChanges":[],"close":[],"changes":[],"warning":[]},"ENV":"NODEJS"}