{"filename":"-115.25-47.5","collections":[{"name":"restaurants","data":[{"_id":"5c3d65bd3525a329e0c12b5a","address":"2944 Mt Hwy 200","location":{"type":"Point","coordinates":[-115.514021637841,47.4113112532111]},"isApproved":true,"items":[],"keys":["American (Traditional)"],"lastUpdated":1547527612680,"name":"Wayside Bar","phone":"(406) 827-9996","price":"$$","reviewCount":3,"reviewScore":3.5,"meta":{"revision":0,"created":1547531149085,"version":0},"$loki":1},{"_id":"5c3d65bd3525a329e0c063a7","address":"610 Bunker Ave","location":{"type":"Point","coordinates":[-115.3995938,47.3832632]},"isApproved":true,"items":[],"keys":["Pizza"],"lastUpdated":1547527612370,"name":"Wildcat Pizza","phone":"(208) 784-1957","price":"$","reviewCount":23,"reviewScore":3,"meta":{"revision":0,"created":1547531149085,"version":0},"$loki":2},{"_id":"5c3d65bd3525a329e0c03cfc","address":"229 Main St","location":{"type":"Point","coordinates":[-115.326365,47.365302]},"isApproved":true,"items":[],"keys":["Ice Cream & Frozen Yogurt","Sandwiches"],"lastUpdated":1547527612313,"name":"Little Bear Ice Cream","phone":"(406) 827-3060","price":"$","reviewCount":7,"reviewScore":5,"meta":{"revision":0,"created":1547531149085,"version":0},"$loki":3},{"_id":"5c3d65bd3525a329e0c174ae","address":"115 Anchor Way","location":{"type":"Point","coordinates":[-115.100351,47.297899]},"isApproved":true,"items":[],"keys":["Barbeque","Vegetarian","Burgers"],"lastUpdated":1547527612790,"name":"The Roaming Buffalo Smokin’ BBQ","phone":"(406) 471-0923","price":"$$","reviewCount":9,"reviewScore":4,"meta":{"revision":0,"created":1547531149085,"version":0},"$loki":4},{"_id":"5c3d65bd3525a329e0c0c4f2","address":"55 Mullan Gulch Rd","location":{"type":"Point","coordinates":[-115.1003511,47.2978862]},"isApproved":true,"items":[],"keys":["Gift Shops","American (Traditional)"],"lastUpdated":1547527612524,"name":"St Regis Travel Center","phone":"(406) 649-2407","price":"$","reviewCount":50,"reviewScore":4,"meta":{"revision":0,"created":1547531149085,"version":0},"$loki":5},{"_id":"5c3d65bd3525a329e0c01f23","address":"100 Mullan Rd","location":{"type":"Point","coordinates":[-115.1006018,47.2982455]},"isApproved":true,"items":[],"keys":["American (Traditional)"],"lastUpdated":1547527612261,"name":"Huckleberry Patch","phone":"(406) 649-2407","price":"$","reviewCount":3,"reviewScore":3.5,"meta":{"revision":0,"created":1547531149085,"version":0},"$loki":6},{"_id":"5c3d65bd3525a329e0c134f6","address":"31 Highway 135","location":{"type":"Point","coordinates":[-115.093984,47.3024875]},"isApproved":true,"items":[],"keys":["Casinos","Cafes"],"lastUpdated":1547527612695,"name":"Ok Cafe","phone":"(406) 649-2742","price":"$","reviewCount":17,"reviewScore":4,"meta":{"revision":0,"created":1547531149085,"version":0},"$loki":7},{"_id":"5c3d65bd3525a329e0c11f17","address":"20 Mullan Rd W","location":{"type":"Point","coordinates":[-115.0072931,47.2362493]},"isApproved":true,"items":[],"keys":["Bars","Cafes","Pizza"],"lastUpdated":1547527612662,"name":"Four Aces Bar","phone":"(406) 822-3273","price":"$$","reviewCount":4,"reviewScore":4,"meta":{"revision":0,"created":1547531149085,"version":0},"$loki":8},{"_id":"5c3d65bd3525a329e0c001fc","address":"116 E Railroad Ave","location":{"type":"Point","coordinates":[-114.881401956082,47.4585937833178]},"isApproved":true,"items":[],"keys":["Coffee & Tea","Bagels","Breakfast & Brunch"],"lastUpdated":1547527612225,"name":"Dog Hill Bistro","phone":"(406) 826-3562","price":"$","reviewCount":7,"reviewScore":4.5,"meta":{"revision":0,"created":1547531149085,"version":0},"$loki":9},{"_id":"5c3d65bd3525a329e0c0a5e6","address":"315 E Railroad Ave","location":{"type":"Point","coordinates":[-114.877963,47.4556013]},"isApproved":true,"items":[],"keys":["Bakeries","Delis"],"lastUpdated":1547527612481,"name":"The Butcher’s Nook","phone":"(406) 826-0100","price":"$$","reviewCount":13,"reviewScore":4.5,"meta":{"revision":0,"created":1547531149085,"version":0},"$loki":10},{"_id":"5c3d65bd3525a329e0c0bd03","address":"310 E Railroad Ave","location":{"type":"Point","coordinates":[-114.8780733,47.4561026]},"isApproved":true,"items":[],"keys":["Ice Cream & Frozen Yogurt","American (New)","Pizza"],"lastUpdated":1547527612510,"name":"Ripples Ice Cream Parlor","phone":"(406) 826-4037","price":"$","reviewCount":13,"reviewScore":5,"meta":{"revision":0,"created":1547531149085,"version":0},"$loki":11},{"_id":"5c3d65bd3525a329e0c0f5ad","address":"103 N Central","location":{"type":"Point","coordinates":[-114.898017,47.462267]},"isApproved":true,"items":[],"keys":["American (Traditional)"],"lastUpdated":1547527612598,"name":"Circle Drive In","phone":"(406) 826-8888","price":"$","reviewCount":9,"reviewScore":4,"meta":{"revision":0,"created":1547531149085,"version":0},"$loki":12},{"_id":"5c3d65bd3525a329e0c10037","address":"203 S Division St","location":{"type":"Point","coordinates":[-115.3411418,47.592965]},"isApproved":true,"items":[],"keys":["American (Traditional)","Hot Dogs","Ice Cream & Frozen Yogurt"],"lastUpdated":1547527612609,"name":"Tall Pine Drive-In","phone":"(208) 682-4294","price":"$","reviewCount":6,"reviewScore":3.5,"meta":{"revision":0,"created":1547531149085,"version":0},"$loki":13},{"_id":"5c3d65bd3525a329e0c08206","address":"Hwy 200","location":{"type":"Point","coordinates":[-115.340645739395,47.5929523994012]},"isApproved":true,"items":[],"keys":["Restaurants"],"lastUpdated":1547527612420,"name":"We Are The Branches","phone":"","price":"$","reviewCount":1,"reviewScore":5,"meta":{"revision":0,"created":1547531149085,"version":0},"$loki":14},{"_id":"5c3d65bd3525a329e0c13e8a","address":"9 Frontage Rd","location":{"type":"Point","coordinates":[-115.34647,47.594178]},"isApproved":true,"items":[],"keys":["Bars","American (Traditional)"],"lastUpdated":1547527612706,"name":"O Aces","phone":"(406) 678-0090","price":"$$","reviewCount":7,"reviewScore":4,"meta":{"revision":0,"created":1547531149085,"version":0},"$loki":15},{"_id":"5c3d65bd3525a329e0c0b1c7","address":"","location":{"type":"Point","coordinates":[-115.346377,47.594082]},"isApproved":true,"items":[],"keys":["Bars","Diners"],"lastUpdated":1547527612497,"name":"50,000 Silver Dollar Bar","phone":"(406) 678-4242","price":"$$","reviewCount":55,"reviewScore":3,"meta":{"revision":0,"created":1547531149085,"version":0},"$loki":16},{"_id":"5c3d65bd3525a329e0c07fc2","address":"12 Emerson Ln","location":{"type":"Point","coordinates":[-115.347604,47.594422]},"isApproved":true,"items":[],"keys":["Diners","American (Traditional)","Seafood"],"lastUpdated":1547527612418,"name":"Moose Creek Grill","phone":"(208) 783-2625","price":"$$$","reviewCount":64,"reviewScore":4.5,"meta":{"revision":0,"created":1547531149085,"version":0},"$loki":17},{"_id":"5c3d65bd3525a329e0c06a60","address":"516 Bank St","location":{"type":"Point","coordinates":[-115.3723477,47.6039313]},"isApproved":true,"items":[],"keys":["Wine Bars","American (New)"],"lastUpdated":1547527612379,"name":"The Fainting Goat a Wine Bar - Temp. CLOSED","phone":"(208) 556-5655","price":"$$","reviewCount":54,"reviewScore":4.5,"meta":{"revision":0,"created":1547531149085,"version":0},"$loki":18},{"_id":"5c3d65bd3525a329e0c1a45d","address":"4946 Mt Hwy 200","location":{"type":"Point","coordinates":[-115.339974537492,47.6210884084558]},"isApproved":true,"items":[],"keys":["Hotels","Restaurants","RV Parks"],"lastUpdated":1547527612859,"name":"Rimrock Lodge & RV Park Montana","phone":"(406) 827-3536","price":"$$","reviewCount":10,"reviewScore":3.5,"meta":{"revision":0,"created":1547531149085,"version":0},"$loki":19},{"_id":"5c3d65bd3525a329e0c0b3b8","address":"809 Main","location":{"type":"Point","coordinates":[-115.715887298828,47.4444631436257]},"isApproved":true,"items":[],"keys":["Nightlife","Restaurants","Casinos"],"lastUpdated":1547527612498,"name":"Mother Lode Restaurant & Lounge","phone":"(406) 827-9994","price":"","reviewCount":1,"reviewScore":4,"meta":{"revision":0,"created":1547531149085,"version":0},"$loki":20}],"idIndex":[1,2,3,4,5,6,7,8,9,10,11,12,13,14,15,16,17,18,19,20],"binaryIndices":{},"constraints":null,"uniqueNames":[],"transforms":{},"objType":"restaurants","dirty":true,"cachedIndex":null,"cachedBinaryIndex":null,"cachedData":null,"adaptiveBinaryIndices":true,"transactional":false,"cloneObjects":false,"cloneMethod":"parse-stringify","asyncListeners":false,"disableMeta":false,"disableChangesApi":true,"disableDeltaChangesApi":true,"autoupdate":false,"serializableIndices":true,"ttl":null,"maxId":20,"DynamicViews":[],"events":{"insert":[],"update":[],"pre-insert":[],"pre-update":[],"close":[],"flushbuffer":[],"error":[],"delete":[null],"warning":[null]},"changes":[]}],"databaseVersion":1.5,"engineVersion":1.5,"autosave":false,"autosaveInterval":5000,"autosaveHandle":null,"throttledSaves":true,"options":{"serializationMethod":"normal","destructureDelimiter":"$<\n"},"persistenceMethod":"fs","persistenceAdapter":null,"verbose":false,"events":{"init":[null],"loaded":[],"flushChanges":[],"close":[],"changes":[],"warning":[]},"ENV":"NODEJS"}