{"filename":"-117.5-34.75","collections":[{"name":"restaurants","data":[{"_id":"5c3d65bd3525a329e0c0826c","address":"2171 E Huntington Dr","location":{"type":"Point","coordinates":[-117.825607300474,34.5999682806814]},"isApproved":true,"items":[],"keys":["Mexican"],"lastUpdated":1547527612420,"name":"Tacos Ensenada","phone":"(626) 359-4959","price":"$","reviewCount":640,"reviewScore":4,"meta":{"revision":0,"created":1547531152877,"version":0},"$loki":1},{"_id":"5c3d65bd3525a329e0c10d4a","address":"5715 N Figueroa St","location":{"type":"Point","coordinates":[-117.826236113906,34.6108874979615]},"isApproved":true,"items":[],"keys":["Sandwiches","Delis","American (Traditional)"],"lastUpdated":1547527612633,"name":"Dave’s Chillin and Grillin","phone":"(323) 490-0988","price":"$","reviewCount":523,"reviewScore":4.5,"meta":{"revision":0,"created":1547531152877,"version":0},"$loki":2},{"_id":"5c3d65bd3525a329e0c04e06","address":"206 W Colorado St","location":{"type":"Point","coordinates":[-117.8250442,34.6161308]},"isApproved":true,"items":[],"keys":["Diners","American (Traditional)","Breakfast & Brunch"],"lastUpdated":1547527612338,"name":"Foxy’s Restaurant","phone":"(818) 246-0244","price":"$$","reviewCount":1934,"reviewScore":4,"meta":{"revision":0,"created":1547531152877,"version":0},"$loki":3},{"_id":"5c3d65bd3525a329e0c114ce","address":"17051 E Ave O","location":{"type":"Point","coordinates":[-117.8256881,34.6165283]},"isApproved":true,"items":[],"keys":["Mexican"],"lastUpdated":1547527612643,"name":"Los Chiles Mexican Restaurant","phone":"(661) 264-2975","price":"$","reviewCount":44,"reviewScore":3.5,"meta":{"revision":0,"created":1547531152877,"version":0},"$loki":4},{"_id":"5c3d65bd3525a329e0c14825","address":"34112 County Line Rd","location":{"type":"Point","coordinates":[-117.191129,34.5729435]},"isApproved":true,"items":[],"keys":["Chicken Shop"],"lastUpdated":1547527612727,"name":"Maria Pollo","phone":"(909) 446-0422","price":"$","reviewCount":21,"reviewScore":4,"meta":{"revision":0,"created":1547531152877,"version":0},"$loki":5},{"_id":"5c3d65bd3525a329e0c13770","address":"18375 Outer US Hwy 18","location":{"type":"Point","coordinates":[-117.2632448,34.5394337]},"isApproved":true,"items":[],"keys":["Vegan","Mediterranean","Halal"],"lastUpdated":1547527612697,"name":"Mu’s Doner & Kabob","phone":"(760) 694-8402","price":"","reviewCount":7,"reviewScore":4.5,"meta":{"revision":0,"created":1547531152877,"version":0},"$loki":6},{"_id":"5c3d65bd3525a329e0c04123","address":"116 W Ramsey St","location":{"type":"Point","coordinates":[-117.254478,34.538783]},"isApproved":true,"items":[],"keys":["Chinese","American (Traditional)"],"lastUpdated":1547527612320,"name":"Wing’s Garden Cafe","phone":"(951) 849-2914","price":"$$","reviewCount":74,"reviewScore":4,"meta":{"revision":0,"created":1547531152877,"version":0},"$loki":7},{"_id":"5c3d65bd3525a329e0c0da76","address":"17014 Smoke Tree St","location":{"type":"Point","coordinates":[-117.22321,34.529163]},"isApproved":true,"items":[],"keys":["Mexican"],"lastUpdated":1547527612556,"name":"Taqueria Zacatecas","phone":"(760) 998-2977","price":"$","reviewCount":28,"reviewScore":4,"meta":{"revision":0,"created":1547531152877,"version":0},"$loki":8},{"_id":"5c3d65bd3525a329e0c192e5","address":"20162 US Hwy 18","location":{"type":"Point","coordinates":[-117.223810211639,34.5287830496895]},"isApproved":true,"items":[],"keys":["Juice Bars & Smoothies","Tea Rooms","Asian Fusion"],"lastUpdated":1547527612833,"name":"Organic Fusion Teahouse & Cafe","phone":"(760) 242-9239","price":"$","reviewCount":263,"reviewScore":5,"meta":{"revision":0,"created":1547531152877,"version":0},"$loki":9},{"_id":"5c3d65bd3525a329e0c167ec","address":"","location":{"type":"Point","coordinates":[-117.306688,34.523104]},"isApproved":true,"items":[],"keys":["Pizza"],"lastUpdated":1547527612772,"name":"WTF Gourmet Wood-fired Pizza","phone":"(760) 983-1414","price":"$","reviewCount":12,"reviewScore":4.5,"meta":{"revision":0,"created":1547531152877,"version":0},"$loki":10},{"_id":"5c3d65bd3525a329e0bffb63","address":"5771 Mission Blvd","location":{"type":"Point","coordinates":[-117.305315,34.5214995]},"isApproved":true,"items":[],"keys":["Donuts","Sandwiches","Bubble Tea"],"lastUpdated":1547527612220,"name":"L & A Donuts","phone":"(951) 680-9810","price":"","reviewCount":1,"reviewScore":5,"meta":{"revision":0,"created":1547531152877,"version":0},"$loki":11},{"_id":"5c3d65bd3525a329e0c17183","address":"17928 Wika Rd","location":{"type":"Point","coordinates":[-117.272939845065,34.54047464755]},"isApproved":true,"items":[],"keys":["Mexican"],"lastUpdated":1547527612782,"name":"Salsero Loco","phone":"(760) 242-7533","price":"","reviewCount":5,"reviewScore":4.5,"meta":{"revision":0,"created":1547531152877,"version":0},"$loki":12},{"_id":"5c3d65bd3525a329e0c0b2a8","address":"34636 County Line Rd","location":{"type":"Point","coordinates":[-117.273899875581,34.541900186189]},"isApproved":true,"items":[],"keys":["Mexican"],"lastUpdated":1547527612498,"name":"Casa Trejo Mexican Restaurant","phone":"(909) 795-2880","price":"$$","reviewCount":228,"reviewScore":3.5,"meta":{"revision":0,"created":1547531152877,"version":0},"$loki":13},{"_id":"5c3d65bd3525a329e0c0d60a","address":"34993 Yucaipa Blvd","location":{"type":"Point","coordinates":[-117.346306443214,34.527494418701]},"isApproved":true,"items":[],"keys":["Cafes"],"lastUpdated":1547527612548,"name":"Beach Cafe","phone":"","price":"","reviewCount":1,"reviewScore":4,"meta":{"revision":0,"created":1547531152877,"version":0},"$loki":14},{"_id":"5c3d65bd3525a329e0c06fd2","address":"56093 29 Palms Hwy","location":{"type":"Point","coordinates":[-117.324403,34.5211823]},"isApproved":true,"items":[],"keys":["Mexican"],"lastUpdated":1547527612388,"name":"L’s Salsas","phone":"(760) 853-0025","price":"","reviewCount":8,"reviewScore":4,"meta":{"revision":0,"created":1547531152877,"version":0},"$loki":15},{"_id":"5c3d65bd3525a329e0c17b8c","address":"651 N Waterman Ave","location":{"type":"Point","coordinates":[-117.3347912,34.5064061]},"isApproved":true,"items":[],"keys":["Meat Shops","Sandwiches"],"lastUpdated":1547527612800,"name":"Frank’s Wholesale Meat","phone":"(909) 885-5422","price":"$$","reviewCount":89,"reviewScore":4,"meta":{"revision":0,"created":1547531152877,"version":0},"$loki":16},{"_id":"5c3d65bd3525a329e0c052c4","address":"501 Forest Shade Rd","location":{"type":"Point","coordinates":[-117.318916903068,34.5134863299979]},"isApproved":true,"items":[],"keys":["Burgers"],"lastUpdated":1547527612346,"name":"A Burger","phone":"","price":"$","reviewCount":16,"reviewScore":3,"meta":{"revision":0,"created":1547531152877,"version":0},"$loki":17},{"_id":"5c3d65bd3525a329e0c062ad","address":"889 E Valley Blvd","location":{"type":"Point","coordinates":[-117.316469214857,34.5140633076067]},"isApproved":true,"items":[],"keys":["Mexican","Seafood"],"lastUpdated":1547527612369,"name":"Guadalajara Restaurant","phone":"(909) 872-0068","price":"","reviewCount":2,"reviewScore":3,"meta":{"revision":0,"created":1547531152877,"version":0},"$loki":18},{"_id":"5c3d65bd3525a329e0c0cf79","address":"1874 Mentone Blvd","location":{"type":"Point","coordinates":[-117.3169691,34.514028]},"isApproved":true,"items":[],"keys":["Steakhouses","Barbeque","Seafood"],"lastUpdated":1547527612539,"name":"Mill Creek Cattle Company & Diamond Jims Saloon","phone":"(909) 389-0706","price":"$$","reviewCount":314,"reviewScore":3,"meta":{"revision":0,"created":1547531152877,"version":0},"$loki":19},{"_id":"5c3d65bd3525a329e0c0ee27","address":"14303 7th St","location":{"type":"Point","coordinates":[-117.3182065,34.5107102]},"isApproved":true,"items":[],"keys":["Middle Eastern","Mediterranean"],"lastUpdated":1547527612583,"name":"Ala’ Al-Deen","phone":"(760) 241-1136","price":"$$","reviewCount":512,"reviewScore":4.5,"meta":{"revision":0,"created":1547531152877,"version":0},"$loki":20},{"_id":"5c3d65bd3525a329e0c048a1","address":"765 Blaine St","location":{"type":"Point","coordinates":[-117.324385,34.505015]},"isApproved":true,"items":[],"keys":["Mexican"],"lastUpdated":1547527612330,"name":"El Fogon","phone":"(951) 782-8959","price":"$","reviewCount":323,"reviewScore":4,"meta":{"revision":0,"created":1547531152877,"version":0},"$loki":21},{"_id":"5c3d65bd3525a329e0c0ba17","address":"22320 Barton Rd","location":{"type":"Point","coordinates":[-117.324464544654,34.5052533604729]},"isApproved":true,"items":[],"keys":["Italian","Pasta Shops"],"lastUpdated":1547527612507,"name":"La Pasta Italia","phone":"(909) 783-6835","price":"$","reviewCount":111,"reviewScore":4.5,"meta":{"revision":0,"created":1547531152877,"version":0},"$loki":22},{"_id":"5c3d65bd3525a329e0c07ef5","address":"168 S E St","location":{"type":"Point","coordinates":[-117.3191808,34.5088902]},"isApproved":true,"items":[],"keys":["Mexican","Seafood","Bars"],"lastUpdated":1547527612417,"name":"Las Conchitas","phone":"(909) 387-0906","price":"$$","reviewCount":160,"reviewScore":3.5,"meta":{"revision":0,"created":1547531152877,"version":0},"$loki":23},{"_id":"5c3d65bd3525a329e0c0df6e","address":"14480 7th St","location":{"type":"Point","coordinates":[-117.3277208,34.5055487]},"isApproved":true,"items":[],"keys":["Mexican"],"lastUpdated":1547527612564,"name":"Miguel’s Baja Grill","phone":"(760) 241-3838","price":"$$","reviewCount":173,"reviewScore":4.5,"meta":{"revision":0,"created":1547531152877,"version":0},"$loki":24},{"_id":"5c3d65bd3525a329e0c045f3","address":"1205 W Renaissance Pkwy","location":{"type":"Point","coordinates":[-117.3382346,34.4823034]},"isApproved":true,"items":[],"keys":["Salad","Burgers","Sandwiches"],"lastUpdated":1547527612328,"name":"The Habit Burger Grill","phone":"(909) 990-1565","price":"","reviewCount":27,"reviewScore":3.5,"meta":{"revision":0,"created":1547531152877,"version":0},"$loki":25},{"_id":"5c3d65bd3525a329e0c16509","address":"14120 Bear Valley Rd","location":{"type":"Point","coordinates":[-117.3549453,34.4708994]},"isApproved":true,"items":[],"keys":["Mediterranean"],"lastUpdated":1547527612764,"name":"Pita Barn","phone":"(760) 269-0470","price":"$$","reviewCount":93,"reviewScore":4,"meta":{"revision":0,"created":1547531152877,"version":0},"$loki":26},{"_id":"5c3d65bd3525a329e0c195ca","address":"33490 Oak Glen Rd","location":{"type":"Point","coordinates":[-117.3549453,34.4708994]},"isApproved":true,"items":[],"keys":["Mexican"],"lastUpdated":1547527612841,"name":"Taco Village","phone":"(909) 797-1582","price":"$","reviewCount":80,"reviewScore":4,"meta":{"revision":0,"created":1547531152877,"version":0},"$loki":27},{"_id":"5c3d65bd3525a329e0c02570","address":"24541 Alessandro Blvd","location":{"type":"Point","coordinates":[-117.3535367,34.4624029]},"isApproved":true,"items":[],"keys":["Donuts","Bagels","Sandwiches"],"lastUpdated":1547527612278,"name":"Moreno Family Donuts","phone":"(951) 247-2613","price":"$","reviewCount":46,"reviewScore":4.5,"meta":{"revision":0,"created":1547531152877,"version":0},"$loki":28},{"_id":"5c3d65bd3525a329e0c145d4","address":"25020 Filaree Ave","location":{"type":"Point","coordinates":[-117.3531549,34.4627181]},"isApproved":true,"items":[],"keys":["American (Traditional)","Bars"],"lastUpdated":1547527612715,"name":"Rene’s Bar and Grill","phone":"(951) 242-2914","price":"$$","reviewCount":54,"reviewScore":4,"meta":{"revision":0,"created":1547531152877,"version":0},"$loki":29},{"_id":"5c3d65bd3525a329e0c1740a","address":"25155 Sunnymead Blvd","location":{"type":"Point","coordinates":[-117.349299453199,34.4678639960289]},"isApproved":true,"items":[],"keys":["Mongolian","Barbeque"],"lastUpdated":1547527612789,"name":"Mongolian BBQ","phone":"(951) 485-9100","price":"$","reviewCount":224,"reviewScore":4,"meta":{"revision":0,"created":1547531152877,"version":0},"$loki":30},{"_id":"5c3d65bd3525a329e0c12f9e","address":"449 N Waterman Ave","location":{"type":"Point","coordinates":[-117.3488833,34.4699686]},"isApproved":true,"items":[],"keys":["Mexican"],"lastUpdated":1547527612688,"name":"Super Burrito King Size","phone":"(909) 889-7512","price":"$","reviewCount":109,"reviewScore":4,"meta":{"revision":0,"created":1547531152877,"version":0},"$loki":31},{"_id":"5c3d65bd3525a329e0c02aec","address":"22448 Barton Rd","location":{"type":"Point","coordinates":[-117.3413794,34.4699066]},"isApproved":true,"items":[],"keys":["Mexican"],"lastUpdated":1547527612286,"name":"Odaberto’s Mexican Food","phone":"(909) 533-4747","price":"$","reviewCount":51,"reviewScore":4,"meta":{"revision":0,"created":1547531152877,"version":0},"$loki":32},{"_id":"5c3d65bd3525a329e0c12862","address":"1200 E Highland Ave","location":{"type":"Point","coordinates":[-117.3390946,34.4699391]},"isApproved":true,"items":[],"keys":["Mexican"],"lastUpdated":1547527612678,"name":"Casa Fresca Tacos","phone":"(909) 713-2370","price":"$","reviewCount":34,"reviewScore":4,"meta":{"revision":0,"created":1547531152877,"version":0},"$loki":33},{"_id":"5c3d65bd3525a329e0c13427","address":"25578 Base Line St","location":{"type":"Point","coordinates":[-117.3399047,34.4724954]},"isApproved":true,"items":[],"keys":["Burgers"],"lastUpdated":1547527612690,"name":"Baseline Burgers","phone":"(909) 884-7458","price":"$","reviewCount":94,"reviewScore":4.5,"meta":{"revision":0,"created":1547531152877,"version":0},"$loki":34},{"_id":"5c3d65bd3525a329e0c19072","address":"1111 Beaumont Ave","location":{"type":"Point","coordinates":[-117.339932508767,34.4731812471126]},"isApproved":true,"items":[],"keys":["Mexican"],"lastUpdated":1547527612832,"name":"Fiesta Tacos","phone":"(951) 845-4332","price":"$","reviewCount":19,"reviewScore":4.5,"meta":{"revision":0,"created":1547531152877,"version":0},"$loki":35},{"_id":"5c3d65bd3525a329e0c076a6","address":"2585 Canyon Springs Pkwy","location":{"type":"Point","coordinates":[-117.3371692,34.4717083]},"isApproved":true,"items":[],"keys":["Burgers"],"lastUpdated":1547527612402,"name":"Burger Boss","phone":"(951) 656-6500","price":"$$","reviewCount":832,"reviewScore":4.5,"meta":{"revision":0,"created":1547531152877,"version":0},"$loki":36},{"_id":"5c3d65bd3525a329e0c0ced8","address":"15024 Bear Valley Rd","location":{"type":"Point","coordinates":[-117.337351217866,34.4716906156374]},"isApproved":true,"items":[],"keys":["Juice Bars & Smoothies","Mexican","Ice Cream & Frozen Yogurt"],"lastUpdated":1547527612535,"name":"The Monarch Michoacana","phone":"(442) 327-9525","price":"","reviewCount":1,"reviewScore":5,"meta":{"revision":0,"created":1547531152877,"version":0},"$loki":37},{"_id":"5c3d65bd3525a329e0c08dd4","address":"13156 Palm Dr","location":{"type":"Point","coordinates":[-117.3351356,34.4699304]},"isApproved":true,"items":[],"keys":["Mexican"],"lastUpdated":1547527612437,"name":"Taqueria El Guero","phone":"(760) 288-0539","price":"$","reviewCount":18,"reviewScore":4.5,"meta":{"revision":0,"created":1547531152877,"version":0},"$loki":38},{"_id":"5c3d65bd3525a329e0c03b2d","address":"15188 Main St","location":{"type":"Point","coordinates":[-117.294781,34.501714]},"isApproved":true,"items":[],"keys":["Mexican"],"lastUpdated":1547527612312,"name":"Tacos Choix","phone":"(760) 998-2160","price":"$","reviewCount":25,"reviewScore":4,"meta":{"revision":0,"created":1547531152877,"version":0},"$loki":39},{"_id":"5c3d65bd3525a329e0c06ed4","address":"1720 W Redlands Blvd","location":{"type":"Point","coordinates":[-117.2681168,34.4924251]},"isApproved":true,"items":[],"keys":["Grocery","Delis","Meat Shops"],"lastUpdated":1547527612388,"name":"Smart & Final","phone":"(909) 792-1528","price":"$$","reviewCount":13,"reviewScore":3,"meta":{"revision":0,"created":1547531152877,"version":0},"$loki":40},{"_id":"5c3d65bd3525a329e0c14533","address":"25069 Redlands Blvd","location":{"type":"Point","coordinates":[-117.402315326035,34.5350453425226]},"isApproved":true,"items":[],"keys":["Thai","Salad"],"lastUpdated":1547527612715,"name":"Thai Bowl Cafe","phone":"(909) 478-5609","price":"$","reviewCount":195,"reviewScore":4,"meta":{"revision":0,"created":1547531152877,"version":0},"$loki":41},{"_id":"5c3d65bd3525a329e0c09777","address":"825 W Highland Ave","location":{"type":"Point","coordinates":[-117.4010991,34.5726524]},"isApproved":true,"items":[],"keys":["Mexican"],"lastUpdated":1547527612461,"name":"Rosemary’s Place","phone":"","price":"$","reviewCount":12,"reviewScore":3.5,"meta":{"revision":0,"created":1547531152877,"version":0},"$loki":42},{"_id":"5c3d65bd3525a329e0c0340d","address":"330 N 6th St","location":{"type":"Point","coordinates":[-117.4153263,34.5867254]},"isApproved":true,"items":[],"keys":["Pizza"],"lastUpdated":1547527612302,"name":"Strongman Pizza","phone":"(909) 793-5696","price":"$","reviewCount":261,"reviewScore":4.5,"meta":{"revision":0,"created":1547531152877,"version":0},"$loki":43}],"idIndex":[1,2,3,4,5,6,7,8,9,10,11,12,13,14,15,16,17,18,19,20,21,22,23,24,25,26,27,28,29,30,31,32,33,34,35,36,37,38,39,40,41,42,43],"binaryIndices":{},"constraints":null,"uniqueNames":[],"transforms":{},"objType":"restaurants","dirty":true,"cachedIndex":null,"cachedBinaryIndex":null,"cachedData":null,"adaptiveBinaryIndices":true,"transactional":false,"cloneObjects":false,"cloneMethod":"parse-stringify","asyncListeners":false,"disableMeta":false,"disableChangesApi":true,"disableDeltaChangesApi":true,"autoupdate":false,"serializableIndices":true,"ttl":null,"maxId":43,"DynamicViews":[],"events":{"insert":[],"update":[],"pre-insert":[],"pre-update":[],"close":[],"flushbuffer":[],"error":[],"delete":[null],"warning":[null]},"changes":[]}],"databaseVersion":1.5,"engineVersion":1.5,"autosave":false,"autosaveInterval":5000,"autosaveHandle":null,"throttledSaves":true,"options":{"serializationMethod":"normal","destructureDelimiter":"$<\n"},"persistenceMethod":"fs","persistenceAdapter":null,"verbose":false,"events":{"init":[null],"loaded":[],"flushChanges":[],"close":[],"changes":[],"warning":[]},"ENV":"NODEJS"}