{"filename":"-117.25-34.25","collections":[{"name":"restaurants","data":[{"_id":"5c3d65bd3525a329e0c0230c","address":"41 W Huntington Dr","location":{"type":"Point","coordinates":[-117.5739464,34.4249606]},"isApproved":true,"items":[],"keys":["Diners","American (Traditional)","Breakfast & Brunch"],"lastUpdated":1547527612276,"name":"Rod’s Grill","phone":"(626) 447-7515","price":"$","reviewCount":258,"reviewScore":4,"meta":{"revision":0,"created":1547531155493,"version":0},"$loki":1},{"_id":"5c3d65bd3525a329e0bff9d2","address":"553 Sierra Hwy","location":{"type":"Point","coordinates":[-117.573669925332,34.4267399870698]},"isApproved":true,"items":[],"keys":["Music Venues","American (New)","Wine Bars"],"lastUpdated":1547527612219,"name":"Vincent Hill Station Restaurant & Saloon","phone":"(661) 272-4799","price":"$$","reviewCount":182,"reviewScore":4,"meta":{"revision":0,"created":1547531155493,"version":0},"$loki":2},{"_id":"5c3d65bd3525a329e0c15fc6","address":"11669 Sherman Way","location":{"type":"Point","coordinates":[-117.5668734,34.4256502]},"isApproved":true,"items":[],"keys":["Mexican","Beer Bar"],"lastUpdated":1547527612756,"name":"Salsa & Beer","phone":"(747) 248-5633","price":"$$","reviewCount":2802,"reviewScore":4,"meta":{"revision":0,"created":1547531155493,"version":0},"$loki":3},{"_id":"5c3d65bd3525a329e0c012f4","address":"7637 Hwy 138","location":{"type":"Point","coordinates":[-117.575226,34.390201]},"isApproved":true,"items":[],"keys":["American (Traditional)"],"lastUpdated":1547527612240,"name":"Mountain Top Cafe","phone":"(760) 249-4811","price":"$$","reviewCount":163,"reviewScore":4.5,"meta":{"revision":0,"created":1547531155493,"version":0},"$loki":4},{"_id":"5c3d65bd3525a329e0c16dbb","address":"69 W Green St","location":{"type":"Point","coordinates":[-117.61074911803,34.27431307275]},"isApproved":true,"items":[],"keys":["American (New)","Breakfast & Brunch","Mediterranean"],"lastUpdated":1547527612780,"name":"Green Street Tavern","phone":"(626) 229-9961","price":"$$","reviewCount":1231,"reviewScore":4,"meta":{"revision":0,"created":1547531155493,"version":0},"$loki":5},{"_id":"5c3d65bd3525a329e0c19b6a","address":"42124 Big Bear Blvd","location":{"type":"Point","coordinates":[-117.4120173,34.3824936]},"isApproved":true,"items":[],"keys":["Fast Food","Sandwiches"],"lastUpdated":1547527612849,"name":"Subway","phone":"(909) 878-4000","price":"$","reviewCount":53,"reviewScore":2,"meta":{"revision":0,"created":1547531155493,"version":0},"$loki":6},{"_id":"5c3d65bd3525a329e0c0f060","address":"32999 Yucaipa Blvd","location":{"type":"Point","coordinates":[-117.3851496,34.3811299]},"isApproved":true,"items":[],"keys":["Mexican"],"lastUpdated":1547527612590,"name":"La Tortas","phone":"(909) 790-5057","price":"$","reviewCount":35,"reviewScore":4,"meta":{"revision":0,"created":1547531155493,"version":0},"$loki":7},{"_id":"5c3d65bd3525a329e0c01895","address":"2150 S Waterman Ave","location":{"type":"Point","coordinates":[-117.4715473,34.0917428]},"isApproved":true,"items":[],"keys":["Vegan","Vegetarian","Chinese"],"lastUpdated":1547527612251,"name":"Happy Family Vegetarian","phone":"(909) 783-8928","price":"$$","reviewCount":319,"reviewScore":4.5,"meta":{"revision":0,"created":1547531155493,"version":0},"$loki":8},{"_id":"5c3d65bd3525a329e0c07e0c","address":"15034 Foothill Blvd","location":{"type":"Point","coordinates":[-117.4776392,34.1069228]},"isApproved":true,"items":[],"keys":["Mexican","Comfort Food"],"lastUpdated":1547527612416,"name":"The Hot Spot","phone":"(909) 320-2768","price":"$$","reviewCount":555,"reviewScore":4,"meta":{"revision":0,"created":1547531155493,"version":0},"$loki":9},{"_id":"5c3d65bd3525a329e0c067a2","address":"California Hwy 173","location":{"type":"Point","coordinates":[-117.4884195,34.1009564]},"isApproved":true,"items":[],"keys":["Grocery","Delis","Seafood Markets"],"lastUpdated":1547527612378,"name":"Jensen’s Foods","phone":"(909) 337-3500","price":"$$","reviewCount":10,"reviewScore":4,"meta":{"revision":0,"created":1547531155493,"version":0},"$loki":10},{"_id":"5c3d65bd3525a329e0c1232d","address":"16575 Smoke Tree St","location":{"type":"Point","coordinates":[-117.455022622976,34.1209742868987]},"isApproved":true,"items":[],"keys":["Breakfast & Brunch","American (Traditional)","Burgers"],"lastUpdated":1547527612669,"name":"Molly Brown’s Country Cafe","phone":"(760) 949-1212","price":"$","reviewCount":156,"reviewScore":4.5,"meta":{"revision":0,"created":1547531155493,"version":0},"$loki":11},{"_id":"5c3d65bd3525a329e0c06b5e","address":"33561 Yucaipa Blvd","location":{"type":"Point","coordinates":[-117.4323105,34.1293528]},"isApproved":true,"items":[],"keys":["Chicken Wings"],"lastUpdated":1547527612385,"name":"Wingstop","phone":"(909) 797-5544","price":"$$","reviewCount":53,"reviewScore":3,"meta":{"revision":0,"created":1547531155493,"version":0},"$loki":12},{"_id":"5c3d65bd3525a329e0c033a6","address":"690 S Arrowhead Ave","location":{"type":"Point","coordinates":[-117.4405105,34.1383834]},"isApproved":true,"items":[],"keys":["Delis"],"lastUpdated":1547527612302,"name":"The Grove Deli","phone":"(909) 693-7265","price":"","reviewCount":1,"reviewScore":5,"meta":{"revision":0,"created":1547531155493,"version":0},"$loki":13},{"_id":"5c3d65bd3525a329e0c03805","address":"704 E 6th St","location":{"type":"Point","coordinates":[-117.4344855,34.1391096]},"isApproved":true,"items":[],"keys":["Breakfast & Brunch","American (Traditional)"],"lastUpdated":1547527612304,"name":"Country Junction Restaurant","phone":"(951) 769-1180","price":"$","reviewCount":230,"reviewScore":4,"meta":{"revision":0,"created":1547531155493,"version":0},"$loki":14},{"_id":"5c3d65bd3525a329e0c146f8","address":"1 E State St","location":{"type":"Point","coordinates":[-117.4354033,34.0907308]},"isApproved":true,"items":[],"keys":["Sandwiches","Burgers"],"lastUpdated":1547527612716,"name":"Darby’s American Cantina","phone":"(909) 792-2119","price":"$$","reviewCount":343,"reviewScore":3.5,"meta":{"revision":0,"created":1547531155493,"version":0},"$loki":15},{"_id":"5c3d65bd3525a329e0c00eef","address":"15776 Main St","location":{"type":"Point","coordinates":[-117.453138504588,34.0773128467557]},"isApproved":true,"items":[],"keys":["Sandwiches","Burgers","Fast Food"],"lastUpdated":1547527612237,"name":"Philly’s Steak & Sub","phone":"(760) 949-5122","price":"$","reviewCount":100,"reviewScore":4.5,"meta":{"revision":0,"created":1547531155493,"version":0},"$loki":16},{"_id":"5c3d65bd3525a329e0c1b3ec","address":"14515 Mojave Dr","location":{"type":"Point","coordinates":[-117.4326041,34.0641056]},"isApproved":true,"items":[],"keys":["Salad","Seafood","American (New)"],"lastUpdated":1547527612885,"name":"Grill Town","phone":"(760) 955-6800","price":"$","reviewCount":50,"reviewScore":4.5,"meta":{"revision":0,"created":1547531155493,"version":0},"$loki":17},{"_id":"5c3d65bd3525a329e0c14591","address":"17490 Arrow Blvd","location":{"type":"Point","coordinates":[-117.423163,34.099952]},"isApproved":true,"items":[],"keys":["Mexican"],"lastUpdated":1547527612715,"name":"La Tapatia Mexican Grill","phone":"(909) 371-3010","price":"$","reviewCount":482,"reviewScore":4.5,"meta":{"revision":0,"created":1547531155493,"version":0},"$loki":18},{"_id":"5c3d65bd3525a329e0c0f0e7","address":"7750 Palm Ave","location":{"type":"Point","coordinates":[-117.3985539,34.1082701]},"isApproved":true,"items":[],"keys":["Diners","Breakfast & Brunch"],"lastUpdated":1547527612590,"name":"Jenny’s Diner","phone":"(909) 864-2480","price":"$","reviewCount":146,"reviewScore":3.5,"meta":{"revision":0,"created":1547531155493,"version":0},"$loki":19},{"_id":"5c3d65bd3525a329e0c12a28","address":"13373 Perris Blvd","location":{"type":"Point","coordinates":[-117.3969937,34.070271]},"isApproved":true,"items":[],"keys":["Mexican"],"lastUpdated":1547527612679,"name":"Taqueria 2 Potrillos","phone":"(951) 601-6501","price":"$","reviewCount":141,"reviewScore":4,"meta":{"revision":0,"created":1547531155493,"version":0},"$loki":20},{"_id":"5c3d65bd3525a329e0c03010","address":"1566 Orange St","location":{"type":"Point","coordinates":[-117.370400158566,34.0899450479779]},"isApproved":true,"items":[],"keys":["Cajun/Creole","Soul Food"],"lastUpdated":1547527612295,"name":"Stuffed Cajun and Soul Food","phone":"(909) 335-5895","price":"$$","reviewCount":19,"reviewScore":3.5,"meta":{"revision":0,"created":1547531155493,"version":0},"$loki":21},{"_id":"5c3d65bd3525a329e0c04bc9","address":"23962 Alessandro Blvd","location":{"type":"Point","coordinates":[-117.3695389,34.090258]},"isApproved":true,"items":[],"keys":["Mexican","Tex-Mex"],"lastUpdated":1547527612337,"name":"Sonora Grill","phone":"(951) 697-0028","price":"$","reviewCount":482,"reviewScore":4.5,"meta":{"revision":0,"created":1547531155493,"version":0},"$loki":22},{"_id":"5c3d65bd3525a329e0c0a1b8","address":"36211 Champions Dr","location":{"type":"Point","coordinates":[-117.368707,34.091149]},"isApproved":true,"items":[],"keys":["Bars","Sandwiches","American (Traditional)"],"lastUpdated":1547527612473,"name":"Tukwet Canyon Bar and Grill","phone":"(951) 845-0014","price":"$$","reviewCount":38,"reviewScore":3.5,"meta":{"revision":0,"created":1547531155493,"version":0},"$loki":23},{"_id":"5c3d65bd3525a329e0c0ae0c","address":"403 S Riverside Ave","location":{"type":"Point","coordinates":[-117.3700688,34.0939514]},"isApproved":true,"items":[],"keys":["Korean","Barbeque"],"lastUpdated":1547527612491,"name":"Red Castle","phone":"(909) 874-7878","price":"","reviewCount":66,"reviewScore":4.5,"meta":{"revision":0,"created":1547531155493,"version":0},"$loki":24},{"_id":"5c3d65bd3525a329e0c0a65a","address":"18768 US Hwy 18","location":{"type":"Point","coordinates":[-117.362899,34.107309]},"isApproved":true,"items":[],"keys":["Pizza"],"lastUpdated":1547527612481,"name":"Pasco’s Pizza Apple Valley","phone":"(760) 503-9113","price":"","reviewCount":15,"reviewScore":4,"meta":{"revision":0,"created":1547531155493,"version":0},"$loki":25},{"_id":"5c3d65bd3525a329e0c125c5","address":"12218 Apple Valley Rd","location":{"type":"Point","coordinates":[-117.3657089,34.1062045]},"isApproved":true,"items":[],"keys":["Seafood","Tacos","Fish & Chips"],"lastUpdated":1547527612671,"name":"The Galley Fish Tacos","phone":"(760) 881-8847","price":"$","reviewCount":242,"reviewScore":4.5,"meta":{"revision":0,"created":1547531155493,"version":0},"$loki":26},{"_id":"5c3d65bd3525a329e0c07c76","address":"383 E 6th St","location":{"type":"Point","coordinates":[-117.367734,34.1070808]},"isApproved":true,"items":[],"keys":["Chinese","Buffets"],"lastUpdated":1547527612410,"name":"East Wall Chinese Restaurant","phone":"(951) 845-9228","price":"$","reviewCount":52,"reviewScore":4,"meta":{"revision":0,"created":1547531155493,"version":0},"$loki":27},{"_id":"5c3d65bd3525a329e0c16208","address":"777 San Manuel Blvd","location":{"type":"Point","coordinates":[-117.3691988,34.1070092]},"isApproved":true,"items":[],"keys":["Ice Cream & Frozen Yogurt","Sandwiches","Desserts"],"lastUpdated":1547527612763,"name":"Grab & Go","phone":"(800) 359-2464","price":"$","reviewCount":1,"reviewScore":5,"meta":{"revision":0,"created":1547531155493,"version":0},"$loki":28},{"_id":"5c3d65bd3525a329e0c0c752","address":"","location":{"type":"Point","coordinates":[-117.3703235,34.1064001]},"isApproved":true,"items":[],"keys":["Caterers","Mexican"],"lastUpdated":1547527612525,"name":"Tacos De Los Muertos","phone":"(310) 505-0752","price":"","reviewCount":3,"reviewScore":5,"meta":{"revision":0,"created":1547531155493,"version":0},"$loki":29},{"_id":"5c3d65bd3525a329e0c13694","address":"55692 29 Palms Hwy","location":{"type":"Point","coordinates":[-117.3703235,34.1064001]},"isApproved":true,"items":[],"keys":["Burgers"],"lastUpdated":1547527612696,"name":"All Star Burgers Cafe","phone":"(760) 418-5671","price":"$","reviewCount":56,"reviewScore":4,"meta":{"revision":0,"created":1547531155493,"version":0},"$loki":30},{"_id":"5c3d65bd3525a329e0c00e19","address":"261 S Palm Ave","location":{"type":"Point","coordinates":[-117.3728711,34.096877]},"isApproved":true,"items":[],"keys":["New Mexican Cuisine","Breakfast & Brunch","Ice Cream & Frozen Yogurt"],"lastUpdated":1547527612237,"name":"The Forum Blues Café","phone":"(909) 562-7542","price":"","reviewCount":25,"reviewScore":4,"meta":{"revision":0,"created":1547531155493,"version":0},"$loki":31},{"_id":"5c3d65bd3525a329e0c0f7d9","address":"34247 Yucaipa Blvd","location":{"type":"Point","coordinates":[-117.378069069839,34.1066853875187]},"isApproved":true,"items":[],"keys":["Burgers","Fast Food"],"lastUpdated":1547527612600,"name":"Tam’s Burger","phone":"(909) 790-7791","price":"$","reviewCount":127,"reviewScore":3.5,"meta":{"revision":0,"created":1547531155493,"version":0},"$loki":32},{"_id":"5c3d65bd3525a329e0c186f6","address":"1140 Beaumont Ave","location":{"type":"Point","coordinates":[-117.370048,34.1211001]},"isApproved":true,"items":[],"keys":["Filipino","Asian Fusion","Hawaiian"],"lastUpdated":1547527612815,"name":"Banana Leaf Asian Fusion","phone":"(951) 267-1608","price":"$","reviewCount":23,"reviewScore":3.5,"meta":{"revision":0,"created":1547531155493,"version":0},"$loki":33},{"_id":"5c3d65bd3525a329e0c0274b","address":"14875 Bear Valley Rd","location":{"type":"Point","coordinates":[-117.382161,34.121835]},"isApproved":true,"items":[],"keys":["Steakhouses","Sandwiches"],"lastUpdated":1547527612284,"name":"Philly Steak Sub","phone":"(760) 244-3555","price":"$","reviewCount":90,"reviewScore":4.5,"meta":{"revision":0,"created":1547531155493,"version":0},"$loki":34},{"_id":"5c3d65bd3525a329e0c04590","address":"7070 Summit Valley Rd","location":{"type":"Point","coordinates":[-117.374502179349,34.1215615560959]},"isApproved":true,"items":[],"keys":["Cafes","Burgers","Beer Bar"],"lastUpdated":1547527612328,"name":"The Aviator Cafe","phone":"(442) 267-5220","price":"$","reviewCount":78,"reviewScore":4,"meta":{"revision":0,"created":1547531155493,"version":0},"$loki":35},{"_id":"5c3d65bd3525a329e0c19259","address":"617 W State St","location":{"type":"Point","coordinates":[-117.395341,34.134761]},"isApproved":true,"items":[],"keys":["Delis","Italian","Sandwiches"],"lastUpdated":1547527612833,"name":"Saverino’s Italian Deli & Market","phone":"(909) 335-6000","price":"$","reviewCount":580,"reviewScore":4.5,"meta":{"revision":0,"created":1547531155493,"version":0},"$loki":36},{"_id":"5c3d65bd3525a329e0c1475e","address":"601 N Mount Vernon Ave","location":{"type":"Point","coordinates":[-117.3952362,34.134274]},"isApproved":true,"items":[],"keys":["Mexican"],"lastUpdated":1547527612721,"name":"Birrieria Guadalajara","phone":"(909) 885-5998","price":"$","reviewCount":146,"reviewScore":4.5,"meta":{"revision":0,"created":1547531155493,"version":0},"$loki":37},{"_id":"5c3d65bd3525a329e0c0cce6","address":"291 E Valley Blvd","location":{"type":"Point","coordinates":[-117.3950698,34.1342203]},"isApproved":true,"items":[],"keys":["Sushi Bars","Japanese"],"lastUpdated":1547527612534,"name":"Sushi Miguel’s Style","phone":"(909) 777-0012","price":"$$","reviewCount":418,"reviewScore":3.5,"meta":{"revision":0,"created":1547531155493,"version":0},"$loki":38},{"_id":"5c3d65bd3525a329e0c1068a","address":"1185 W Renaissance Pkwy","location":{"type":"Point","coordinates":[-117.3950698,34.1342203]},"isApproved":true,"items":[],"keys":["Seafood","Fish & Chips"],"lastUpdated":1547527612619,"name":"California Fish Grill","phone":"(909) 340-4434","price":"","reviewCount":68,"reviewScore":4.5,"meta":{"revision":0,"created":1547531155493,"version":0},"$loki":39},{"_id":"5c3d65bd3525a329e0c17bc1","address":"15075 Palmdale Rd","location":{"type":"Point","coordinates":[-117.3974771,34.1352127]},"isApproved":true,"items":[],"keys":["Mexican"],"lastUpdated":1547527612800,"name":"Raul’s Mexican Food","phone":"(760) 951-9697","price":"$$","reviewCount":168,"reviewScore":4,"meta":{"revision":0,"created":1547531155493,"version":0},"$loki":40},{"_id":"5c3d65bd3525a329e0c0dbbd","address":"1155 W Renaissance Pkwy","location":{"type":"Point","coordinates":[-117.3972075,34.1350929]},"isApproved":true,"items":[],"keys":["Salad","Fast Food","Pizza"],"lastUpdated":1547527612556,"name":"Blaze Fast-Fire’d Pizza","phone":"(909) 546-5637","price":"","reviewCount":22,"reviewScore":4,"meta":{"revision":0,"created":1547531155493,"version":0},"$loki":41},{"_id":"5c3d65bd3525a329e0c07fd6","address":"6108 Linden Ave","location":{"type":"Point","coordinates":[-117.40128,34.1429106]},"isApproved":true,"items":[],"keys":["Beer, Wine & Spirits","Burgers","Delis"],"lastUpdated":1547527612418,"name":"Rosa’s Market & Deli","phone":"(909) 829-8855","price":"$","reviewCount":41,"reviewScore":4.5,"meta":{"revision":0,"created":1547531155493,"version":0},"$loki":42},{"_id":"5c3d65bd3525a329e0c045bc","address":"1035 S Mt Vernon Ave","location":{"type":"Point","coordinates":[-117.372748665512,34.1374652570695]},"isApproved":true,"items":[],"keys":["Mexican","Seafood"],"lastUpdated":1547527612328,"name":"Playa Papagayos","phone":"(909) 370-3691","price":"$$","reviewCount":50,"reviewScore":4,"meta":{"revision":0,"created":1547531155493,"version":0},"$loki":43},{"_id":"5c3d65bd3525a329e0c15151","address":"18169 Cajon Blvd","location":{"type":"Point","coordinates":[-117.405669,34.222291]},"isApproved":true,"items":[],"keys":["Bars","American (New)"],"lastUpdated":1547527612737,"name":"Screaming Chicken Saloon","phone":"(909) 880-0056","price":"$","reviewCount":26,"reviewScore":4.5,"meta":{"revision":0,"created":1547531155493,"version":0},"$loki":44},{"_id":"5c3d65bd3525a329e0c12bc9","address":"21749 US Hwy 18","location":{"type":"Point","coordinates":[-117.4053306,34.2222088]},"isApproved":true,"items":[],"keys":["Mexican"],"lastUpdated":1547527612680,"name":"Chevo’s Mexican Restaurant & Seafood","phone":"(760) 961-2770","price":"$","reviewCount":192,"reviewScore":3.5,"meta":{"revision":0,"created":1547531155493,"version":0},"$loki":45},{"_id":"5c3d65bd3525a329e0c141f8","address":"25 E State St","location":{"type":"Point","coordinates":[-117.275396,34.2436424]},"isApproved":true,"items":[],"keys":["Fondue","Steakhouses","Bars"],"lastUpdated":1547527612713,"name":"Rok N Fondue","phone":"(909) 793-1919","price":"$$","reviewCount":639,"reviewScore":4,"meta":{"revision":0,"created":1547531155493,"version":0},"$loki":46},{"_id":"5c3d65bd3525a329e0c15720","address":"34471 Yucaipa Blvd","location":{"type":"Point","coordinates":[-117.2778301,34.2434652]},"isApproved":true,"items":[],"keys":["Mexican","Seafood","Steakhouses"],"lastUpdated":1547527612746,"name":"Del Mar Grill","phone":"(909) 797-1221","price":"$$","reviewCount":113,"reviewScore":4,"meta":{"revision":0,"created":1547531155493,"version":0},"$loki":47},{"_id":"5c3d65bd3525a329e0c10c90","address":"374 E Ramsey St","location":{"type":"Point","coordinates":[-117.2776004,34.2431185]},"isApproved":true,"items":[],"keys":["Mexican","Burgers","Breakfast & Brunch"],"lastUpdated":1547527612633,"name":"La Villa Burgers","phone":"(951) 849-9995","price":"$","reviewCount":32,"reviewScore":4.5,"meta":{"revision":0,"created":1547531155493,"version":0},"$loki":48},{"_id":"5c3d65bd3525a329e0c188d7","address":"23991 Lake Dr","location":{"type":"Point","coordinates":[-117.2780529,34.2435451]},"isApproved":true,"items":[],"keys":["Pizza","Bowling","Sports Bars"],"lastUpdated":1547527612822,"name":"Giuseppe’s Italian Pizzeria","phone":"(909) 338-5550","price":"","reviewCount":5,"reviewScore":4,"meta":{"revision":0,"created":1547531155493,"version":0},"$loki":49},{"_id":"5c3d65bd3525a329e0c180fa","address":"34084 County Line Rd","location":{"type":"Point","coordinates":[-117.2807922,34.2430158]},"isApproved":true,"items":[],"keys":["Pizza"],"lastUpdated":1547527612808,"name":"Domenick Pizza","phone":"(909) 446-8500","price":"","reviewCount":10,"reviewScore":4,"meta":{"revision":0,"created":1547531155493,"version":0},"$loki":50},{"_id":"5c3d65bd3525a329e0c0be62","address":"891 Harriman Pl","location":{"type":"Point","coordinates":[-117.2794604,34.2430541]},"isApproved":true,"items":[],"keys":["Poke","Sushi Bars","Hawaiian"],"lastUpdated":1547527612515,"name":"Poke Bar","phone":"(909) 381-2777","price":"$$","reviewCount":138,"reviewScore":4.5,"meta":{"revision":0,"created":1547531155493,"version":0},"$loki":51},{"_id":"5c3d65bd3525a329e0bfff77","address":"410 W San Rafael Dr","location":{"type":"Point","coordinates":[-117.279846668243,34.2436922888692]},"isApproved":true,"items":[],"keys":["Soul Food","Barbeque"],"lastUpdated":1547527612223,"name":"Brown’s BBQ and Soul Food","phone":"(760) 832-6985","price":"$$","reviewCount":190,"reviewScore":4.5,"meta":{"revision":0,"created":1547531155493,"version":0},"$loki":52},{"_id":"5c3d65bd3525a329e0c0a270","address":"23881 Lake Dr","location":{"type":"Point","coordinates":[-117.2822388,34.2429701]},"isApproved":true,"items":[],"keys":["Pubs","Barbeque"],"lastUpdated":1547527612473,"name":"Stockade Grub & Whiskey","phone":"(909) 338-2465","price":"$$","reviewCount":156,"reviewScore":3.5,"meta":{"revision":0,"created":1547531155493,"version":0},"$loki":53},{"_id":"5c3d65bd3525a329e0c02f81","address":"633 Forest Shade Rd","location":{"type":"Point","coordinates":[-117.2775086,34.241895]},"isApproved":true,"items":[],"keys":["Mexican"],"lastUpdated":1547527612295,"name":"La Casita","phone":"(909) 338-9196","price":"$$","reviewCount":87,"reviewScore":4,"meta":{"revision":0,"created":1547531155493,"version":0},"$loki":54},{"_id":"5c3d65bd3525a329e0c06868","address":"285 E Hospitality Ln","location":{"type":"Point","coordinates":[-117.292368462983,34.2387361665658]},"isApproved":true,"items":[],"keys":["American (New)","Comfort Food","Bars"],"lastUpdated":1547527612378,"name":"The Cutting Board","phone":"(909) 889-0133","price":"$$","reviewCount":100,"reviewScore":4,"meta":{"revision":0,"created":1547531155493,"version":0},"$loki":55},{"_id":"5c3d65bd3525a329e0c19198","address":"13188 Main St","location":{"type":"Point","coordinates":[-117.330335,34.177175]},"isApproved":true,"items":[],"keys":["Mexican"],"lastUpdated":1547527612833,"name":"Mija’s Mexican Food","phone":"(760) 983-1982","price":"$$","reviewCount":16,"reviewScore":4,"meta":{"revision":0,"created":1547531155493,"version":0},"$loki":56},{"_id":"5c3d65bd3525a329e0bff4f8","address":"16082 Main St","location":{"type":"Point","coordinates":[-117.330993652344,34.1757392883301]},"isApproved":true,"items":[],"keys":["Mexican","Salvadoran"],"lastUpdated":1547527612216,"name":"Panchos Mexican Restuarant","phone":"(760) 949-3336","price":"$$","reviewCount":66,"reviewScore":4,"meta":{"revision":0,"created":1547531155493,"version":0},"$loki":57},{"_id":"5c3d65bd3525a329e0c0f89c","address":"22010 US Hwy 18","location":{"type":"Point","coordinates":[-117.330432,34.175171]},"isApproved":true,"items":[],"keys":["Pizza","Italian","Sandwiches"],"lastUpdated":1547527612600,"name":"Mama Carpino’s Italian","phone":"(760) 240-9664","price":"$$","reviewCount":388,"reviewScore":4.5,"meta":{"revision":0,"created":1547531155493,"version":0},"$loki":58},{"_id":"5c3d65bd3525a329e0c1ad10","address":"1689 Kendall Dr","location":{"type":"Point","coordinates":[-117.3303378,34.1752251]},"isApproved":true,"items":[],"keys":["Thai"],"lastUpdated":1547527612875,"name":"Thai Place","phone":"(909) 887-7644","price":"$","reviewCount":196,"reviewScore":3.5,"meta":{"revision":0,"created":1547531155493,"version":0},"$loki":59},{"_id":"5c3d65bd3525a329e0c1b05f","address":"10370 Beaumont Ave","location":{"type":"Point","coordinates":[-117.3303378,34.1752251]},"isApproved":true,"items":[],"keys":["Sushi Bars","Japanese"],"lastUpdated":1547527612877,"name":"City Sushi & Grill","phone":"(951) 769-8866","price":"$$","reviewCount":216,"reviewScore":4,"meta":{"revision":0,"created":1547531155493,"version":0},"$loki":60},{"_id":"5c3d65bd3525a329e0c0b50c","address":"21290 Bear Valley Rd","location":{"type":"Point","coordinates":[-117.330750732923,34.1756244745547]},"isApproved":true,"items":[],"keys":["Seafood","Mexican"],"lastUpdated":1547527612499,"name":"Los Magueyes","phone":"(760) 810-0061","price":"","reviewCount":9,"reviewScore":3.5,"meta":{"revision":0,"created":1547531155493,"version":0},"$loki":61},{"_id":"5c3d65bd3525a329e0c0f886","address":"1888 Golf Club Dr","location":{"type":"Point","coordinates":[-117.3236345,34.1812562]},"isApproved":true,"items":[],"keys":["American (New)"],"lastUpdated":1547527612600,"name":"Oak Valley Golf Club Restaurant","phone":"(951) 769-9771","price":"$","reviewCount":7,"reviewScore":3.5,"meta":{"revision":0,"created":1547531155493,"version":0},"$loki":62},{"_id":"5c3d65bd3525a329e0c082c4","address":"1150 Brookside Ave","location":{"type":"Point","coordinates":[-117.3573324,34.1891528]},"isApproved":true,"items":[],"keys":["Sushi Bars"],"lastUpdated":1547527612420,"name":"Kiyora Sushi","phone":"(909) 793-1600","price":"$$","reviewCount":138,"reviewScore":5,"meta":{"revision":0,"created":1547531155493,"version":0},"$loki":63},{"_id":"5c3d65bd3525a329e0c00368","address":"16020 Apple Valley Rd","location":{"type":"Point","coordinates":[-117.356811,34.188532]},"isApproved":true,"items":[],"keys":["Breakfast & Brunch","American (Traditional)","Soup"],"lastUpdated":1547527612225,"name":"Spirit River Cafe","phone":"(760) 242-1400","price":"$","reviewCount":258,"reviewScore":4.5,"meta":{"revision":0,"created":1547531155493,"version":0},"$loki":64},{"_id":"5c3d65bd3525a329e0c0f43f","address":"16922 Main St","location":{"type":"Point","coordinates":[-117.3154846,34.1684403]},"isApproved":true,"items":[],"keys":["Mexican"],"lastUpdated":1547527612592,"name":"El Charro","phone":"(760) 947-2408","price":"$","reviewCount":20,"reviewScore":4,"meta":{"revision":0,"created":1547531155493,"version":0},"$loki":65},{"_id":"5c3d65bd3525a329e0c1b02a","address":"1620 E 1st St","location":{"type":"Point","coordinates":[-117.32558,34.136621]},"isApproved":true,"items":[],"keys":["Bagels","Sandwiches"],"lastUpdated":1547527612876,"name":"Panera Bread","phone":"","price":"","reviewCount":31,"reviewScore":2.5,"meta":{"revision":0,"created":1547531155493,"version":0},"$loki":66},{"_id":"5c3d65bd3525a329e0c1510d","address":"350 N D St","location":{"type":"Point","coordinates":[-117.322267,34.136388]},"isApproved":true,"items":[],"keys":["Diners"],"lastUpdated":1547527612737,"name":"Molly’s Cafe","phone":"(909) 888-1778","price":"$","reviewCount":165,"reviewScore":3.5,"meta":{"revision":0,"created":1547531155493,"version":0},"$loki":67},{"_id":"5c3d65bd3525a329e0c1ac4a","address":"2181 W Highland Ave","location":{"type":"Point","coordinates":[-117.33887432266,34.135712540395]},"isApproved":true,"items":[],"keys":["Soul Food"],"lastUpdated":1547527612869,"name":"Ms Coco’s Kitchen","phone":"(909) 316-9566","price":"","reviewCount":1,"reviewScore":5,"meta":{"revision":0,"created":1547531155493,"version":0},"$loki":68},{"_id":"5c3d65bd3525a329e0c01657","address":"201 E Valley Blvd","location":{"type":"Point","coordinates":[-117.348770387471,34.10642496541]},"isApproved":true,"items":[],"keys":["Diners","French","Breakfast & Brunch"],"lastUpdated":1547527612250,"name":"Le Rendez-Vous Cafe","phone":"(909) 424-0355","price":"$$","reviewCount":398,"reviewScore":4.5,"meta":{"revision":0,"created":1547531155493,"version":0},"$loki":69},{"_id":"5c3d65bd3525a329e0c18a01","address":"14464 7th St","location":{"type":"Point","coordinates":[-117.349427,34.106089]},"isApproved":true,"items":[],"keys":["Japanese","Sushi Bars","Breakfast & Brunch"],"lastUpdated":1547527612823,"name":"Samurai Sushi","phone":"(760) 843-5858","price":"$$","reviewCount":524,"reviewScore":4.5,"meta":{"revision":0,"created":1547531155493,"version":0},"$loki":70},{"_id":"5c3d65bd3525a329e0c002b4","address":"1001 Park Ave","location":{"type":"Point","coordinates":[-117.353642192982,34.1056485164524]},"isApproved":true,"items":[],"keys":["Thai"],"lastUpdated":1547527612225,"name":"Benjarong Thai Cuisine","phone":"(909) 792-3235","price":"$$","reviewCount":404,"reviewScore":3.5,"meta":{"revision":0,"created":1547531155493,"version":0},"$loki":71},{"_id":"5c3d65bd3525a329e0c15cc4","address":"15550 Main St","location":{"type":"Point","coordinates":[-117.353365097281,34.1063504]},"isApproved":true,"items":[],"keys":["Cuban"],"lastUpdated":1547527612755,"name":"Havanazucar Cuban Restaurant","phone":"(760) 949-0070","price":"$$","reviewCount":133,"reviewScore":4.5,"meta":{"revision":0,"created":1547531155493,"version":0},"$loki":72},{"_id":"5c3d65bd3525a329e0c0a74e","address":"892 E Highland Ave","location":{"type":"Point","coordinates":[-117.355159006044,34.1069419226263]},"isApproved":true,"items":[],"keys":["Mexican"],"lastUpdated":1547527612481,"name":"The Mexico Cafe","phone":"(909) 882-3000","price":"$$","reviewCount":444,"reviewScore":3.5,"meta":{"revision":0,"created":1547531155493,"version":0},"$loki":73},{"_id":"5c3d65bd3525a329e0c09993","address":"70065 Dillon Rd","location":{"type":"Point","coordinates":[-117.356233298779,34.1063994254902]},"isApproved":true,"items":[],"keys":["American (New)"],"lastUpdated":1547527612463,"name":"All Star Burgers","phone":"(760) 329-9900","price":"$","reviewCount":64,"reviewScore":4,"meta":{"revision":0,"created":1547531155493,"version":0},"$loki":74},{"_id":"5c3d65bd3525a329e0c010c0","address":"7750 Palm Ave","location":{"type":"Point","coordinates":[-117.3593462,34.1064675]},"isApproved":true,"items":[],"keys":["Thai"],"lastUpdated":1547527612239,"name":"Thai Spoon Restaurant","phone":"(909) 862-8811","price":"$","reviewCount":263,"reviewScore":4.5,"meta":{"revision":0,"created":1547531155493,"version":0},"$loki":75},{"_id":"5c3d65bd3525a329e0c02331","address":"251 W Base Line St","location":{"type":"Point","coordinates":[-117.313450655582,34.1128455725908]},"isApproved":true,"items":[],"keys":["Pizza","Italian","Sandwiches"],"lastUpdated":1547527612276,"name":"Alfredo’s Pizza & Pasta","phone":"(909) 885-0218","price":"$$","reviewCount":522,"reviewScore":4,"meta":{"revision":0,"created":1547531155493,"version":0},"$loki":76},{"_id":"5c3d65bd3525a329e0c00388","address":"1131 S E St","location":{"type":"Point","coordinates":[-117.313602,34.1104954]},"isApproved":true,"items":[],"keys":["American (Traditional)","Desserts","Salad"],"lastUpdated":1547527612225,"name":"Sundowners Family Restaurant","phone":"(909) 884-3510","price":"$","reviewCount":178,"reviewScore":4,"meta":{"revision":0,"created":1547531155493,"version":0},"$loki":77},{"_id":"5c3d65bd3525a329e0c08f73","address":"12625 Frederick St","location":{"type":"Point","coordinates":[-117.3096073,34.1023686]},"isApproved":true,"items":[],"keys":["Barbeque","Fast Food"],"lastUpdated":1547527612438,"name":"Hoggs Gourmet Grill","phone":"(951) 653-1353","price":"$$","reviewCount":709,"reviewScore":4.5,"meta":{"revision":0,"created":1547531155493,"version":0},"$loki":78},{"_id":"5c3d65bd3525a329e0c19bc2","address":"23639 Sunnymead Blvd","location":{"type":"Point","coordinates":[-117.31157561156,34.1033045675516]},"isApproved":true,"items":[],"keys":["Seafood"],"lastUpdated":1547527612850,"name":"Big Fish Market","phone":"(951) 488-1200","price":"$","reviewCount":314,"reviewScore":4.5,"meta":{"revision":0,"created":1547531155493,"version":0},"$loki":79},{"_id":"5c3d65bd3525a329e0c06863","address":"2715 W Foothill Blvd","location":{"type":"Point","coordinates":[-117.3140142,34.0939898]},"isApproved":true,"items":[],"keys":["Mexican"],"lastUpdated":1547527612378,"name":"Tacos Unicos","phone":"(909) 421-2951","price":"$","reviewCount":91,"reviewScore":3.5,"meta":{"revision":0,"created":1547531155493,"version":0},"$loki":80},{"_id":"5c3d65bd3525a329e0c0d129","address":"19 E Citrus Ave","location":{"type":"Point","coordinates":[-117.3140737,34.0929182]},"isApproved":true,"items":[],"keys":["Pubs","Karaoke","American (Traditional)"],"lastUpdated":1547527612545,"name":"The Redlands Underground Restaurant and Bar","phone":"(909) 894-4805","price":"$$","reviewCount":126,"reviewScore":3.5,"meta":{"revision":0,"created":1547531155493,"version":0},"$loki":81},{"_id":"5c3d65bd3525a329e0c01522","address":"1398 E Highland Ave","location":{"type":"Point","coordinates":[-117.2948444,34.098926]},"isApproved":true,"items":[],"keys":["Burgers"],"lastUpdated":1547527612249,"name":"Tom’s Original Burgers","phone":"(909) 883-9126","price":"$","reviewCount":23,"reviewScore":3.5,"meta":{"revision":0,"created":1547531155493,"version":0},"$loki":82},{"_id":"5c3d65bd3525a329e0c184d7","address":"25566 Barton Rd","location":{"type":"Point","coordinates":[-117.293689,34.101545]},"isApproved":true,"items":[],"keys":["Hawaiian","Poke"],"lastUpdated":1547527612814,"name":"The Low-Key Poke Joint","phone":"(909) 478-0661","price":"$$","reviewCount":321,"reviewScore":4,"meta":{"revision":0,"created":1547531155493,"version":0},"$loki":83},{"_id":"5c3d65bd3525a329e0c0fc40","address":"28928 Greenspot Rd","location":{"type":"Point","coordinates":[-117.2921809,34.1056796]},"isApproved":true,"items":[],"keys":["Pizza"],"lastUpdated":1547527612607,"name":"Antonio’s Pizza","phone":"(909) 862-7778","price":"$","reviewCount":67,"reviewScore":3.5,"meta":{"revision":0,"created":1547531155493,"version":0},"$loki":84},{"_id":"5c3d65bd3525a329e0c06952","address":"31465 Ave E","location":{"type":"Point","coordinates":[-117.2916155,34.1090893]},"isApproved":true,"items":[],"keys":["Fast Food","Burgers"],"lastUpdated":1547527612379,"name":"In-N-Out Burger","phone":"(800) 786-1000","price":"$","reviewCount":80,"reviewScore":4,"meta":{"revision":0,"created":1547531155493,"version":0},"$loki":85},{"_id":"5c3d65bd3525a329e0c120d9","address":"23943 Lake Dr","location":{"type":"Point","coordinates":[-117.2915622,34.1099985]},"isApproved":true,"items":[],"keys":["American (Traditional)","Breakfast & Brunch"],"lastUpdated":1547527612663,"name":"Crestline Cafe","phone":"(909) 338-4128","price":"$$","reviewCount":202,"reviewScore":4,"meta":{"revision":0,"created":1547531155493,"version":0},"$loki":86},{"_id":"5c3d65bd3525a329e0c16df6","address":"104 E State St","location":{"type":"Point","coordinates":[-117.289779558778,34.1083615351317]},"isApproved":true,"items":[],"keys":["American (New)","Mediterranean","Vegetarian"],"lastUpdated":1547527612780,"name":"Caprice Cafe","phone":"(909) 793-8787","price":"$$","reviewCount":309,"reviewScore":4,"meta":{"revision":0,"created":1547531155493,"version":0},"$loki":87},{"_id":"5c3d65bd3525a329e0c11651","address":"18150 Arrow Blvd","location":{"type":"Point","coordinates":[-117.2910329,34.1061558]},"isApproved":true,"items":[],"keys":["Mexican"],"lastUpdated":1547527612649,"name":"La Sexy Michelada","phone":"(909) 346-0179","price":"$$","reviewCount":142,"reviewScore":4.5,"meta":{"revision":0,"created":1547531155493,"version":0},"$loki":88},{"_id":"5c3d65bd3525a329e0c143d4","address":"144 S Arrowhead Ave","location":{"type":"Point","coordinates":[-117.289910316467,34.0992654354286]},"isApproved":true,"items":[],"keys":["Mexican"],"lastUpdated":1547527612714,"name":"El Tepeyac Mexican Food","phone":"(909) 888-0174","price":"$","reviewCount":47,"reviewScore":4,"meta":{"revision":0,"created":1547531155493,"version":0},"$loki":89},{"_id":"5c3d65bd3525a329e0c135aa","address":"1764 E Lugonia Ave","location":{"type":"Point","coordinates":[-117.2785189,34.1072415]},"isApproved":true,"items":[],"keys":["Thai"],"lastUpdated":1547527612696,"name":"Garden Thai Restaurant","phone":"(909) 389-9890","price":"$$","reviewCount":109,"reviewScore":4,"meta":{"revision":0,"created":1547531155493,"version":0},"$loki":90},{"_id":"5c3d65bd3525a329e0c057bf","address":"5623 Mission Blvd","location":{"type":"Point","coordinates":[-117.2783952,34.1033139]},"isApproved":true,"items":[],"keys":["Mexican"],"lastUpdated":1547527612349,"name":"Keriko Pollos y Tacos","phone":"(951) 289-9928","price":"","reviewCount":14,"reviewScore":3.5,"meta":{"revision":0,"created":1547531155493,"version":0},"$loki":91},{"_id":"5c3d65bd3525a329e0c1205a","address":"1231 W Ramsey St","location":{"type":"Point","coordinates":[-117.278553895573,34.115295523434]},"isApproved":true,"items":[],"keys":["Japanese","Thai"],"lastUpdated":1547527612663,"name":"Zen Japanese Thai Cuisine","phone":"(951) 849-2255","price":"$$","reviewCount":196,"reviewScore":3.5,"meta":{"revision":0,"created":1547531155493,"version":0},"$loki":92},{"_id":"5c3d65bd3525a329e0c0646c","address":"","location":{"type":"Point","coordinates":[-117.2793158,34.1149497]},"isApproved":true,"items":[],"keys":["Food Stands","German"],"lastUpdated":1547527612371,"name":"West Coast Hofbrau","phone":"(951) 663-2817","price":"","reviewCount":3,"reviewScore":5,"meta":{"revision":0,"created":1547531155493,"version":0},"$loki":93},{"_id":"5c3d65bd3525a329e0c0612c","address":"27500 Lugonia Ave","location":{"type":"Point","coordinates":[-117.2777612,34.1152484]},"isApproved":true,"items":[],"keys":["Barbeque","American (Traditional)","Comfort Food"],"lastUpdated":1547527612368,"name":"Famous Dave’s Bar-B-Que","phone":"(909) 792-4151","price":"$$","reviewCount":346,"reviewScore":3.5,"meta":{"revision":0,"created":1547531155493,"version":0},"$loki":94},{"_id":"5c3d65bd3525a329e0c18587","address":"196 W Highland Ave","location":{"type":"Point","coordinates":[-117.2766131,34.1172533]},"isApproved":true,"items":[],"keys":["Grocery","Mexican","Meat Shops"],"lastUpdated":1547527612815,"name":"M T & H Food Market","phone":"(909) 883-5100","price":"$$","reviewCount":12,"reviewScore":4.5,"meta":{"revision":0,"created":1547531155493,"version":0},"$loki":95},{"_id":"5c3d65bd3525a329e0c05a58","address":"56249 29 Palms Hwy","location":{"type":"Point","coordinates":[-117.276519052684,34.1171713128585]},"isApproved":true,"items":[],"keys":["Burgers","American (Traditional)","Breakfast & Brunch"],"lastUpdated":1547527612356,"name":"John’s Place","phone":"(760) 365-0144","price":"$","reviewCount":243,"reviewScore":3.5,"meta":{"revision":0,"created":1547531155493,"version":0},"$loki":96},{"_id":"5c3d65bd3525a329e0c0c7fd","address":"1857 S Tippecanoe Ave","location":{"type":"Point","coordinates":[-117.2792308,34.1179541]},"isApproved":true,"items":[],"keys":["Fast Food"],"lastUpdated":1547527612526,"name":"Raising Cane’s Chicken Fingers","phone":"(909) 478-0001","price":"$","reviewCount":311,"reviewScore":3.5,"meta":{"revision":0,"created":1547531155493,"version":0},"$loki":97},{"_id":"5c3d65bd3525a329e0bfff1c","address":"380 New York St","location":{"type":"Point","coordinates":[-117.26933375001,34.1215104926727]},"isApproved":true,"items":[],"keys":["American (New)","Breakfast & Brunch","Venues & Event Spaces"],"lastUpdated":1547527612223,"name":"ESRI Café","phone":"(909) 307-3110","price":"$","reviewCount":23,"reviewScore":4.5,"meta":{"revision":0,"created":1547531155493,"version":0},"$loki":98},{"_id":"5c3d65bd3525a329e0c1a1c1","address":"28200 Hwy 189","location":{"type":"Point","coordinates":[-117.2803142,34.1216998]},"isApproved":true,"items":[],"keys":["Coffee & Tea","Bakeries","Sandwiches"],"lastUpdated":1547527612858,"name":"The Tea & Coffee Exchange","phone":"(909) 336-5600","price":"$","reviewCount":143,"reviewScore":3.5,"meta":{"revision":0,"created":1547531155493,"version":0},"$loki":99},{"_id":"5c3d65bd3525a329e0c10887","address":"12125 Day St","location":{"type":"Point","coordinates":[-117.281799316406,34.1216462185594]},"isApproved":true,"items":[],"keys":["Creperies"],"lastUpdated":1547527612625,"name":"France House Of Crepes","phone":"(951) 394-8924","price":"$$","reviewCount":205,"reviewScore":4.5,"meta":{"revision":0,"created":1547531155493,"version":0},"$loki":100},{"_id":"5c3d65bd3525a329e0c18f8d","address":"26589 Highland Ave","location":{"type":"Point","coordinates":[-117.2885151,34.1210661]},"isApproved":true,"items":[],"keys":["American (Traditional)","Steakhouses","Diners"],"lastUpdated":1547527612832,"name":"Pepper Steak Restaurant","phone":"(909) 862-8341","price":"$","reviewCount":98,"reviewScore":3.5,"meta":{"revision":0,"created":1547531155493,"version":0},"$loki":101},{"_id":"5c3d65bd3525a329e0c0bbb4","address":"519 W Foothill Blvd","location":{"type":"Point","coordinates":[-117.2870204,34.1361962]},"isApproved":true,"items":[],"keys":["Barbeque"],"lastUpdated":1547527612509,"name":"Westside Pit Barbque","phone":"(909) 440-5783","price":"$$","reviewCount":176,"reviewScore":4,"meta":{"revision":0,"created":1547531155493,"version":0},"$loki":102},{"_id":"5c3d65bd3525a329e0c02218","address":"38989 Oak Glen Rd","location":{"type":"Point","coordinates":[-117.2864637,34.1357514]},"isApproved":true,"items":[],"keys":["Mexican"],"lastUpdated":1547527612276,"name":"El Mexicano II","phone":"(909) 790-9534","price":"$$","reviewCount":54,"reviewScore":2.5,"meta":{"revision":0,"created":1547531155493,"version":0},"$loki":103},{"_id":"5c3d65bd3525a329e0c0a5e4","address":"1089 E Washington St","location":{"type":"Point","coordinates":[-117.2859126,34.1362052]},"isApproved":true,"items":[],"keys":["Mexican"],"lastUpdated":1547527612481,"name":"Cotija’s Taco Shop","phone":"(909) 777-0131","price":"$","reviewCount":252,"reviewScore":3.5,"meta":{"revision":0,"created":1547531155493,"version":0},"$loki":104},{"_id":"5c3d65bd3525a329e0c0505c","address":"32693 Yucaipa Blvd","location":{"type":"Point","coordinates":[-117.2841905,34.1361552]},"isApproved":true,"items":[],"keys":["Pizza","Italian"],"lastUpdated":1547527612340,"name":"Tuscano’s Pizza & Pasta","phone":"(909) 570-4445","price":"$$","reviewCount":233,"reviewScore":4.5,"meta":{"revision":0,"created":1547531155493,"version":0},"$loki":105},{"_id":"5c3d65bd3525a329e0c02151","address":"1752 E Lugonia Ave","location":{"type":"Point","coordinates":[-117.301467895508,34.1357231140137]},"isApproved":true,"items":[],"keys":["Mexican"],"lastUpdated":1547527612275,"name":"Cuca’s Mexican Food","phone":"(909) 389-1235","price":"$$","reviewCount":120,"reviewScore":3.5,"meta":{"revision":0,"created":1547531155493,"version":0},"$loki":106},{"_id":"5c3d65bd3525a329e0c106de","address":"721 Beaumont Ave","location":{"type":"Point","coordinates":[-117.2943412,34.1485012]},"isApproved":true,"items":[],"keys":["Thai"],"lastUpdated":1547527612619,"name":"Thai Air Cuisine","phone":"(951) 845-9200","price":"$","reviewCount":341,"reviewScore":4.5,"meta":{"revision":0,"created":1547531155493,"version":0},"$loki":107},{"_id":"5c3d65bd3525a329e0c09ab6","address":"670 Kendall Dr","location":{"type":"Point","coordinates":[-117.295028,34.160184]},"isApproved":true,"items":[],"keys":["Steakhouses","American (New)","Venues & Event Spaces"],"lastUpdated":1547527612464,"name":"Castaway San Bernadino","phone":"(909) 881-1502","price":"$$$","reviewCount":612,"reviewScore":3,"meta":{"revision":0,"created":1547531155493,"version":0},"$loki":108},{"_id":"5c3d65bd3525a329e0c00ad9","address":"21600 Corwin Rd","location":{"type":"Point","coordinates":[-117.304994389415,34.1628609987289]},"isApproved":true,"items":[],"keys":["Tacos"],"lastUpdated":1547527612230,"name":"3rd Generation Taco","phone":"(442) 242-3375","price":"$","reviewCount":53,"reviewScore":4.5,"meta":{"revision":0,"created":1547531155493,"version":0},"$loki":109},{"_id":"5c3d65bd3525a329e0c1522f","address":"66230 Pierson Blvd","location":{"type":"Point","coordinates":[-117.3043022,34.1641489]},"isApproved":true,"items":[],"keys":["Coffee & Tea","Breakfast & Brunch"],"lastUpdated":1547527612737,"name":"The Cottage Too","phone":"(760) 329-4044","price":"$","reviewCount":165,"reviewScore":4,"meta":{"revision":0,"created":1547531155493,"version":0},"$loki":110},{"_id":"5c3d65bd3525a329e0c0342d","address":"1357 Kendall Dr","location":{"type":"Point","coordinates":[-117.3060253,34.1649565]},"isApproved":true,"items":[],"keys":["Pizza"],"lastUpdated":1547527612302,"name":"Golden Pizza","phone":"(909) 683-6444","price":"$","reviewCount":32,"reviewScore":4.5,"meta":{"revision":0,"created":1547531155493,"version":0},"$loki":111},{"_id":"5c3d65bd3525a329e0c0bef5","address":"1331 Kendall Dr","location":{"type":"Point","coordinates":[-117.3145663,34.1679293]},"isApproved":true,"items":[],"keys":["Mexican"],"lastUpdated":1547527612515,"name":"Taco Shop Mexican Grill","phone":"(909) 887-9951","price":"$","reviewCount":269,"reviewScore":4.5,"meta":{"revision":0,"created":1547531155493,"version":0},"$loki":112},{"_id":"5c3d65bd3525a329e0c01661","address":"33527 Yucaipa Blvd","location":{"type":"Point","coordinates":[-117.2853845,34.1673957]},"isApproved":true,"items":[],"keys":["Mexican"],"lastUpdated":1547527612250,"name":"Jose’s Mexican Food","phone":"(909) 797-9705","price":"$$","reviewCount":160,"reviewScore":3.5,"meta":{"revision":0,"created":1547531155493,"version":0},"$loki":113},{"_id":"5c3d65bd3525a329e0c021a3","address":"14950 Perris Blvd","location":{"type":"Point","coordinates":[-117.285364740556,34.1651723569081]},"isApproved":true,"items":[],"keys":["Steakhouses","American (Traditional)"],"lastUpdated":1547527612275,"name":"Steer’n Stein","phone":"(951) 243-8799","price":"$$","reviewCount":230,"reviewScore":4,"meta":{"revision":0,"created":1547531155493,"version":0},"$loki":114},{"_id":"5c3d65bd3525a329e0c05958","address":"127 W 40th St","location":{"type":"Point","coordinates":[-117.2854698,34.1646329]},"isApproved":true,"items":[],"keys":["Sports Bars","American (Traditional)"],"lastUpdated":1547527612355,"name":"Celebrities Sports Grill","phone":"(909) 565-8800","price":"$$","reviewCount":144,"reviewScore":3,"meta":{"revision":0,"created":1547531155493,"version":0},"$loki":115},{"_id":"5c3d65bd3525a329e0c1639a","address":"1050 Kendall Dr","location":{"type":"Point","coordinates":[-117.28535,34.1640201]},"isApproved":true,"items":[],"keys":["Donuts","Bubble Tea","Sandwiches"],"lastUpdated":1547527612764,"name":"Super Star Donuts","phone":"(909) 883-7571","price":"$","reviewCount":17,"reviewScore":4.5,"meta":{"revision":0,"created":1547531155493,"version":0},"$loki":116},{"_id":"5c3d65bd3525a329e0c173d6","address":"2217 W Ramsey St","location":{"type":"Point","coordinates":[-117.281019,34.164279]},"isApproved":true,"items":[],"keys":["Grocery","Tacos","Meat Shops"],"lastUpdated":1547527612784,"name":"Shopping Basket","phone":"(951) 849-2657","price":"$$","reviewCount":14,"reviewScore":3.5,"meta":{"revision":0,"created":1547531155493,"version":0},"$loki":117},{"_id":"5c3d65bd3525a329e0c1070d","address":"41870 Garstin Dr","location":{"type":"Point","coordinates":[-117.2805199,34.1642323]},"isApproved":true,"items":[],"keys":["Cafeteria"],"lastUpdated":1547527612619,"name":"Bear Valley Community Hospital Cafeteria","phone":"(909) 866-6501","price":"$","reviewCount":1,"reviewScore":4,"meta":{"revision":0,"created":1547531155493,"version":0},"$loki":118},{"_id":"5c3d65bd3525a329e0c0bfeb","address":"1635 Industrial Park Ave","location":{"type":"Point","coordinates":[-117.2804036,34.1652091]},"isApproved":true,"items":[],"keys":["Italian"],"lastUpdated":1547527612516,"name":"The Old Spaghetti Factory","phone":"(909) 798-7774","price":"$$","reviewCount":289,"reviewScore":3.5,"meta":{"revision":0,"created":1547531155493,"version":0},"$loki":119},{"_id":"5c3d65bd3525a329e0c1758b","address":"1458 Industrial Park Ave","location":{"type":"Point","coordinates":[-117.2825837,34.1652835]},"isApproved":true,"items":[],"keys":["Mexican"],"lastUpdated":1547527612790,"name":"El Tepeyac Mexican Restaurant","phone":"(909) 307-0017","price":"$$","reviewCount":139,"reviewScore":4,"meta":{"revision":0,"created":1547531155493,"version":0},"$loki":120},{"_id":"5c3d65bd3525a329e0c076dd","address":"4000 N Sierra Way","location":{"type":"Point","coordinates":[-117.284595650156,34.164511333292]},"isApproved":true,"items":[],"keys":["Mexican","Seafood"],"lastUpdated":1547527612402,"name":"Pappasitos Mexican Grill & Seafood","phone":"(909) 882-8629","price":"$","reviewCount":115,"reviewScore":3.5,"meta":{"revision":0,"created":1547531155493,"version":0},"$loki":121},{"_id":"5c3d65bd3525a329e0c09236","address":"255 E 40th St","location":{"type":"Point","coordinates":[-117.2847882,34.1662034]},"isApproved":true,"items":[],"keys":["Steakhouses","Karaoke","Lounges"],"lastUpdated":1547527612451,"name":"Ye Olde Lamplighter","phone":"(909) 886-4490","price":"$$","reviewCount":148,"reviewScore":4.5,"meta":{"revision":0,"created":1547531155493,"version":0},"$loki":122},{"_id":"5c3d65bd3525a329e0c0dc12","address":"24949 Sunnymead Blvd","location":{"type":"Point","coordinates":[-117.285245560119,34.1669255913445]},"isApproved":true,"items":[],"keys":["Diners","Breakfast & Brunch","Burgers"],"lastUpdated":1547527612556,"name":"Black Bear Diner","phone":"(951) 242-6061","price":"","reviewCount":43,"reviewScore":4.5,"meta":{"revision":0,"created":1547531155493,"version":0},"$loki":123},{"_id":"5c3d65bd3525a329e0c0069e","address":"228 W Hospitality Ln","location":{"type":"Point","coordinates":[-117.2598727,34.1464451]},"isApproved":true,"items":[],"keys":["Sandwiches","Fast Food"],"lastUpdated":1547527612227,"name":"Philly’s Steak Sandwiches","phone":"(909) 888-0681","price":"$","reviewCount":58,"reviewScore":4,"meta":{"revision":0,"created":1547531155493,"version":0},"$loki":124},{"_id":"5c3d65bd3525a329e0c14291","address":"11719 Palm Dr","location":{"type":"Point","coordinates":[-117.2667611,34.1362234]},"isApproved":true,"items":[],"keys":["Mexican","Bars","Seafood"],"lastUpdated":1547527612713,"name":"South of the Border","phone":"(760) 251-4000","price":"$$","reviewCount":179,"reviewScore":4,"meta":{"revision":0,"created":1547531155493,"version":0},"$loki":125},{"_id":"5c3d65bd3525a329e0c13f04","address":"1125 Calimesa Blvd","location":{"type":"Point","coordinates":[-117.2617952,34.1361575]},"isApproved":true,"items":[],"keys":["American (Traditional)","Dive Bars","Sports Bars"],"lastUpdated":1547527612706,"name":"Rumors","phone":"(909) 795-4808","price":"$","reviewCount":14,"reviewScore":4,"meta":{"revision":0,"created":1547531155493,"version":0},"$loki":126},{"_id":"5c3d65bd3525a329e0c022db","address":"1309 W Renaissance Pkwy","location":{"type":"Point","coordinates":[-117.260035866475,34.1360649793059]},"isApproved":true,"items":[],"keys":["Asian Fusion","Fast Food"],"lastUpdated":1547527612276,"name":"WaBa Grill","phone":"(909) 346-0516","price":"","reviewCount":1,"reviewScore":5,"meta":{"revision":0,"created":1547531155493,"version":0},"$loki":127},{"_id":"5c3d65bd3525a329e0c00044","address":"32971 Yucaipa Blvd","location":{"type":"Point","coordinates":[-117.2581675,34.1356722]},"isApproved":true,"items":[],"keys":["Steakhouses","Sports Bars"],"lastUpdated":1547527612223,"name":"Hickory Ranch Steakhouse","phone":"(909) 790-1953","price":"$$","reviewCount":337,"reviewScore":4,"meta":{"revision":0,"created":1547531155493,"version":0},"$loki":128},{"_id":"5c3d65bd3525a329e0c09b0b","address":"1379 E Highland Ave","location":{"type":"Point","coordinates":[-117.256983853876,34.1355121480385]},"isApproved":true,"items":[],"keys":["Sushi Bars"],"lastUpdated":1547527612464,"name":"Meiga Sushi","phone":"(909) 881-1592","price":"$$","reviewCount":464,"reviewScore":4.5,"meta":{"revision":0,"created":1547531155493,"version":0},"$loki":129},{"_id":"5c3d65bd3525a329e0c05818","address":"6951 Flight Rd","location":{"type":"Point","coordinates":[-117.2573123,34.1361045]},"isApproved":true,"items":[],"keys":["Cafes"],"lastUpdated":1547527612349,"name":"The Riverside Airport Cafe","phone":"(951) 688-3337","price":"","reviewCount":8,"reviewScore":5,"meta":{"revision":0,"created":1547531155493,"version":0},"$loki":130},{"_id":"5c3d65bd3525a329e0c11c91","address":"2990 Del Rosa Ave N","location":{"type":"Point","coordinates":[-117.253061320948,34.1455424145324]},"isApproved":true,"items":[],"keys":["Tacos"],"lastUpdated":1547527612660,"name":"Birrieria Y Panaderia El Sol de Jalisco","phone":"(909) 882-7001","price":"$","reviewCount":10,"reviewScore":4.5,"meta":{"revision":0,"created":1547531155493,"version":0},"$loki":131},{"_id":"5c3d65bd3525a329e0c01679","address":"1595 E Date St","location":{"type":"Point","coordinates":[-117.253093663424,34.1411603748134]},"isApproved":true,"items":[],"keys":["Mexican"],"lastUpdated":1547527612250,"name":"La Taquiza Suprema","phone":"(909) 881-8555","price":"$","reviewCount":49,"reviewScore":3.5,"meta":{"revision":0,"created":1547531155493,"version":0},"$loki":132},{"_id":"5c3d65bd3525a329e0c0574b","address":"3375 Iowa Ave","location":{"type":"Point","coordinates":[-117.2527801,34.1361178]},"isApproved":true,"items":[],"keys":["Mexican"],"lastUpdated":1547527612349,"name":"Mariscos Las Reynitas","phone":"(951) 405-8372","price":"$$","reviewCount":16,"reviewScore":5,"meta":{"revision":0,"created":1547531155493,"version":0},"$loki":133},{"_id":"5c3d65bd3525a329e0c15655","address":"256 E 40th St","location":{"type":"Point","coordinates":[-117.2521107,34.1393907]},"isApproved":true,"items":[],"keys":["Burgers","Breakfast & Brunch","Sandwiches"],"lastUpdated":1547527612746,"name":"George’s Burger","phone":"(909) 881-1205","price":"$","reviewCount":77,"reviewScore":3,"meta":{"revision":0,"created":1547531155493,"version":0},"$loki":134},{"_id":"5c3d65bd3525a329e0c0ca7c","address":"34215 Yucaipa Blvd","location":{"type":"Point","coordinates":[-117.2548214,34.1366907]},"isApproved":true,"items":[],"keys":["Sandwiches","Burgers","Breakfast & Brunch"],"lastUpdated":1547527612532,"name":"John’s Philly Steak","phone":"(909) 797-7922","price":"$","reviewCount":80,"reviewScore":3.5,"meta":{"revision":0,"created":1547531155493,"version":0},"$loki":135},{"_id":"5c3d65bd3525a329e0bffbf0","address":"3573 Main St","location":{"type":"Point","coordinates":[-117.2648947,34.1210524]},"isApproved":true,"items":[],"keys":["Delis","Sandwiches"],"lastUpdated":1547527612221,"name":"The Upper Crust Sandwich Shoppe","phone":"(951) 784-3149","price":"$","reviewCount":482,"reviewScore":4.5,"meta":{"revision":0,"created":1547531155493,"version":0},"$loki":136},{"_id":"5c3d65bd3525a329e0c159cc","address":"","location":{"type":"Point","coordinates":[-117.2571859,34.1215408]},"isApproved":true,"items":[],"keys":["Food Trucks","Mexican","Breakfast & Brunch"],"lastUpdated":1547527612747,"name":"Q’s Tacos Food Truck","phone":"(714) 679-1587","price":"","reviewCount":21,"reviewScore":4.5,"meta":{"revision":0,"created":1547531155493,"version":0},"$loki":137},{"_id":"5c3d65bd3525a329e0c19fc0","address":"","location":{"type":"Point","coordinates":[-117.2571859,34.1215408]},"isApproved":true,"items":[],"keys":["Food Trucks","Caterers","Mediterranean"],"lastUpdated":1547527612851,"name":"Street Chef California","phone":"(760) 453-3722","price":"$$","reviewCount":24,"reviewScore":4,"meta":{"revision":0,"created":1547531155493,"version":0},"$loki":138},{"_id":"5c3d65bd3525a329e0c0c160","address":"835 E 3rd St","location":{"type":"Point","coordinates":[-117.2672212,34.104071]},"isApproved":true,"items":[],"keys":["American (Traditional)"],"lastUpdated":1547527612517,"name":"Phil’s Charbroiled Burgers","phone":"(909) 884-0564","price":"$","reviewCount":76,"reviewScore":4,"meta":{"revision":0,"created":1547531155493,"version":0},"$loki":139},{"_id":"5c3d65bd3525a329e0c1a7af","address":"11349 Palm Dr","location":{"type":"Point","coordinates":[-117.2594524,34.1050389]},"isApproved":true,"items":[],"keys":["Mexican"],"lastUpdated":1547527612867,"name":"Las Palmas Mexican Cuisine","phone":"(760) 329-2048","price":"$","reviewCount":70,"reviewScore":4,"meta":{"revision":0,"created":1547531155493,"version":0},"$loki":140},{"_id":"5c3d65bd3525a329e0c018f3","address":"41170 Big Bear Blvd","location":{"type":"Point","coordinates":[-117.2574059,34.1048764]},"isApproved":true,"items":[],"keys":["Fast Food","Tex-Mex","Mexican"],"lastUpdated":1547527612251,"name":"Taco Bell","phone":"(909) 866-7778","price":"$","reviewCount":55,"reviewScore":2,"meta":{"revision":0,"created":1547531155493,"version":0},"$loki":141},{"_id":"5c3d65bd3525a329e0c06148","address":"14466 Main St","location":{"type":"Point","coordinates":[-117.24622,34.121709]},"isApproved":true,"items":[],"keys":["Seafood","Cajun/Creole"],"lastUpdated":1547527612368,"name":"Louisiana Shabang Seafood","phone":"(442) 600-2063","price":"$$","reviewCount":393,"reviewScore":4,"meta":{"revision":0,"created":1547531155493,"version":0},"$loki":142},{"_id":"5c3d65bd3525a329e0c1aec7","address":"3540 9th St","location":{"type":"Point","coordinates":[-117.226353026927,34.1211199672804]},"isApproved":true,"items":[],"keys":["Desserts","Bakeries","Soup"],"lastUpdated":1547527612876,"name":"Just Pastries","phone":"(951) 394-8111","price":"$","reviewCount":126,"reviewScore":4.5,"meta":{"revision":0,"created":1547531155493,"version":0},"$loki":143},{"_id":"5c3d65bd3525a329e0c0b7b9","address":"55792 Twentynine Palms Hwy","location":{"type":"Point","coordinates":[-117.2266579,34.1219064]},"isApproved":true,"items":[],"keys":["Mexican"],"lastUpdated":1547527612505,"name":"Las Palmas Restaurant","phone":"(760) 369-7164","price":"$$","reviewCount":169,"reviewScore":4,"meta":{"revision":0,"created":1547531155493,"version":0},"$loki":144},{"_id":"5c3d65bd3525a329e0c10f63","address":"535 W State St","location":{"type":"Point","coordinates":[-117.2243821,34.13565]},"isApproved":true,"items":[],"keys":["Pizza"],"lastUpdated":1547527612640,"name":"New York Pizzaria","phone":"(909) 798-8389","price":"$","reviewCount":101,"reviewScore":4,"meta":{"revision":0,"created":1547531155493,"version":0},"$loki":145},{"_id":"5c3d65bd3525a329e0c111e9","address":"28200 Hwy 189","location":{"type":"Point","coordinates":[-117.222851,34.1354032]},"isApproved":true,"items":[],"keys":["Pizza","Beer Bar","Burgers"],"lastUpdated":1547527612641,"name":"Lake Arrowhead Pizza","phone":"(909) 337-0723","price":"$$","reviewCount":263,"reviewScore":3.5,"meta":{"revision":0,"created":1547531155493,"version":0},"$loki":146},{"_id":"5c3d65bd3525a329e0c1388c","address":"1626 W Redlands Blvd","location":{"type":"Point","coordinates":[-117.2312354,34.1360898]},"isApproved":true,"items":[],"keys":["Burgers","Fast Food"],"lastUpdated":1547527612698,"name":"Nick’s Burgers","phone":"(909) 798-5428","price":"$","reviewCount":275,"reviewScore":4,"meta":{"revision":0,"created":1547531155493,"version":0},"$loki":147},{"_id":"5c3d65bd3525a329e0c0c76c","address":"48557 Morongo Trl","location":{"type":"Point","coordinates":[-117.241399232124,34.1339369115628]},"isApproved":true,"items":[],"keys":["Mexican","Fast Food"],"lastUpdated":1547527612525,"name":"Chipotle Mexican Grill","phone":"(951) 922-2264","price":"","reviewCount":3,"reviewScore":3.5,"meta":{"revision":0,"created":1547531155493,"version":0},"$loki":148},{"_id":"5c3d65bd3525a329e0c0c68f","address":"500 Beaumont Ave","location":{"type":"Point","coordinates":[-117.24137,34.1344696]},"isApproved":true,"items":[],"keys":["Mexican"],"lastUpdated":1547527612525,"name":"Juan Pollo","phone":"(951) 769-8570","price":"$","reviewCount":44,"reviewScore":4,"meta":{"revision":0,"created":1547531155493,"version":0},"$loki":149},{"_id":"5c3d65bd3525a329e0c03cb2","address":"3605 Market St","location":{"type":"Point","coordinates":[-117.2411743,34.1348888]},"isApproved":true,"items":[],"keys":["Indian"],"lastUpdated":1547527612312,"name":"Masala Mischief","phone":"(951) 595-4526","price":"","reviewCount":23,"reviewScore":4.5,"meta":{"revision":0,"created":1547531155493,"version":0},"$loki":150},{"_id":"5c3d65bd3525a329e0c05549","address":"777 San Manuel Blvd","location":{"type":"Point","coordinates":[-117.2291382,34.1505769]},"isApproved":true,"items":[],"keys":["Steakhouses"],"lastUpdated":1547527612347,"name":"The Pines","phone":"(909) 425-4889","price":"$$$","reviewCount":367,"reviewScore":4,"meta":{"revision":0,"created":1547531155493,"version":0},"$loki":151},{"_id":"5c3d65bd3525a329e0c066ee","address":"26468 Baseline St","location":{"type":"Point","coordinates":[-117.2291382,34.1505769]},"isApproved":true,"items":[],"keys":["Burgers","Tacos","Sandwiches"],"lastUpdated":1547527612378,"name":"Nikkos Burgers","phone":"(909) 862-0468","price":"$","reviewCount":42,"reviewScore":4,"meta":{"revision":0,"created":1547531155493,"version":0},"$loki":152},{"_id":"5c3d65bd3525a329e0c06cef","address":"16975 Sierrra lakes Pkwy","location":{"type":"Point","coordinates":[-117.2291382,34.1505769]},"isApproved":true,"items":[],"keys":["Sandwiches","Delis","Hot Dogs"],"lastUpdated":1547527612387,"name":"The Deli","phone":"(909) 695-1515","price":"$","reviewCount":84,"reviewScore":4,"meta":{"revision":0,"created":1547531155493,"version":0},"$loki":153},{"_id":"5c3d65bd3525a329e0c13222","address":"48555 Morongo Trail","location":{"type":"Point","coordinates":[-117.2291382,34.1505769]},"isApproved":true,"items":[],"keys":["Fast Food","Delis","Sandwiches"],"lastUpdated":1547527612689,"name":"Jersey Mike’s Subs","phone":"(951) 289-7800","price":"","reviewCount":13,"reviewScore":4.5,"meta":{"revision":0,"created":1547531155493,"version":0},"$loki":154},{"_id":"5c3d65bd3525a329e0c13677","address":"1042 W Highland Ave","location":{"type":"Point","coordinates":[-117.2291382,34.1505769]},"isApproved":true,"items":[],"keys":["Chinese","Seafood"],"lastUpdated":1547527612696,"name":"Golden Dragon","phone":"(909) 883-3390","price":"$","reviewCount":124,"reviewScore":4,"meta":{"revision":0,"created":1547531155493,"version":0},"$loki":155},{"_id":"5c3d65bd3525a329e0c1484f","address":"777 San Manuel Blvd","location":{"type":"Point","coordinates":[-117.2291382,34.1505769]},"isApproved":true,"items":[],"keys":["Mexican"],"lastUpdated":1547527612727,"name":"George Lopez’s Chingon Kitchen","phone":"(909) 864-5050","price":"$$","reviewCount":248,"reviewScore":4,"meta":{"revision":0,"created":1547531155493,"version":0},"$loki":156},{"_id":"5c3d65bd3525a329e0c12777","address":"630 W Baseline Rd","location":{"type":"Point","coordinates":[-117.2067494,34.1363319]},"isApproved":true,"items":[],"keys":["Mexican","Burgers"],"lastUpdated":1547527612672,"name":"Mr. Pepe’s Burgers","phone":"(909) 421-4142","price":"$","reviewCount":70,"reviewScore":4,"meta":{"revision":0,"created":1547531155493,"version":0},"$loki":157},{"_id":"5c3d65bd3525a329e0c132d6","address":"4276 N Sierra Way","location":{"type":"Point","coordinates":[-117.217642553151,34.1210139394638]},"isApproved":true,"items":[],"keys":["Mexican"],"lastUpdated":1547527612689,"name":"Moreno’s Rico Taco","phone":"(909) 883-0433","price":"$","reviewCount":7,"reviewScore":4,"meta":{"revision":0,"created":1547531155493,"version":0},"$loki":158},{"_id":"5c3d65bd3525a329e0c03d71","address":"27245 Baseline St","location":{"type":"Point","coordinates":[-117.2099652,34.1209962]},"isApproved":true,"items":[],"keys":["Breakfast & Brunch"],"lastUpdated":1547527612313,"name":"Kay’s Cafe","phone":"(909) 862-1131","price":"$","reviewCount":158,"reviewScore":3.5,"meta":{"revision":0,"created":1547531155493,"version":0},"$loki":159},{"_id":"5c3d65bd3525a329e0c15f57","address":"22 E Vine St","location":{"type":"Point","coordinates":[-117.20965,34.121868]},"isApproved":true,"items":[],"keys":["American (New)","Wine Bars"],"lastUpdated":1547527612756,"name":"D’Vine","phone":"(909) 748-0111","price":"$$","reviewCount":51,"reviewScore":4,"meta":{"revision":0,"created":1547531155493,"version":0},"$loki":160},{"_id":"5c3d65bd3525a329e0c19fda","address":"11201 California St","location":{"type":"Point","coordinates":[-117.2122576,34.1206087]},"isApproved":true,"items":[],"keys":["Mediterranean","Buffets","Middle Eastern"],"lastUpdated":1547527612852,"name":"Mr Kebab","phone":"(909) 335-8881","price":"$$","reviewCount":402,"reviewScore":4,"meta":{"revision":0,"created":1547531155493,"version":0},"$loki":161},{"_id":"5c3d65bd3525a329e0c1454c","address":"1374 E Foothill Blvd","location":{"type":"Point","coordinates":[-117.198243,34.136131]},"isApproved":true,"items":[],"keys":["Asian Fusion","Noodles","Chinese"],"lastUpdated":1547527612715,"name":"Yang Noodle House","phone":"(909) 990-5929","price":"$","reviewCount":55,"reviewScore":4.5,"meta":{"revision":0,"created":1547531155493,"version":0},"$loki":162},{"_id":"5c3d65bd3525a329e0c0ca17","address":"3397 Mission Inn Ave","location":{"type":"Point","coordinates":[-117.196505303762,34.1377009984573]},"isApproved":true,"items":[],"keys":["Sports Bars","Breweries","American (Traditional)"],"lastUpdated":1547527612532,"name":"Heroes Restaurant and Brewery","phone":"(951) 248-0722","price":"$$","reviewCount":1578,"reviewScore":3.5,"meta":{"revision":0,"created":1547531155493,"version":0},"$loki":163},{"_id":"5c3d65bd3525a329e0c01ac3","address":"504 New Jersey St","location":{"type":"Point","coordinates":[-117.1945288,34.1346616]},"isApproved":true,"items":[],"keys":["Delis","American (Traditional)","Juice Bars & Smoothies"],"lastUpdated":1547527612257,"name":"Deli on the Corner","phone":"(909) 307-0447","price":"$$","reviewCount":128,"reviewScore":4.5,"meta":{"revision":0,"created":1547531155493,"version":0},"$loki":164},{"_id":"5c3d65bd3525a329e0c10097","address":"27961 Highland Ave","location":{"type":"Point","coordinates":[-117.1945288,34.1346616]},"isApproved":true,"items":[],"keys":["Mexican"],"lastUpdated":1547527612610,"name":"Mi Cocina","phone":"(909) 425-0393","price":"$$","reviewCount":201,"reviewScore":4,"meta":{"revision":0,"created":1547531155493,"version":0},"$loki":165},{"_id":"5c3d65bd3525a329e0c0be41","address":"27959 Highland Ave","location":{"type":"Point","coordinates":[-117.1943345,34.1337232]},"isApproved":true,"items":[],"keys":["American (New)","Lounges"],"lastUpdated":1547527612515,"name":"Bear Springs Bistro & Lounge","phone":"(833) 258-4745","price":"","reviewCount":8,"reviewScore":5,"meta":{"revision":0,"created":1547531155493,"version":0},"$loki":166},{"_id":"5c3d65bd3525a329e0c1ae98","address":"26848 State Hwy 189","location":{"type":"Point","coordinates":[-117.1950422,34.1234204]},"isApproved":true,"items":[],"keys":["Italian"],"lastUpdated":1547527612876,"name":"Puglia Italian Restaurant","phone":"(909) 744-8859","price":"$$","reviewCount":174,"reviewScore":4,"meta":{"revision":0,"created":1547531155493,"version":0},"$loki":167},{"_id":"5c3d65bd3525a329e0c128ef","address":"7275 Boulder Ave","location":{"type":"Point","coordinates":[-117.1950801,34.1226977]},"isApproved":true,"items":[],"keys":["Mexican"],"lastUpdated":1547527612679,"name":"Rosa Maria’s Mexican Restaurant","phone":"(909) 862-5762","price":"$","reviewCount":180,"reviewScore":3.5,"meta":{"revision":0,"created":1547531155493,"version":0},"$loki":168},{"_id":"5c3d65bd3525a329e0c05a6d","address":"7243 Boulder Ave","location":{"type":"Point","coordinates":[-117.193898364713,34.1223786540291]},"isApproved":true,"items":[],"keys":["Vietnamese"],"lastUpdated":1547527612356,"name":"Kung Fu Pho","phone":"(909) 907-5499","price":"$","reviewCount":71,"reviewScore":4.5,"meta":{"revision":0,"created":1547531155493,"version":0},"$loki":169},{"_id":"5c3d65bd3525a329e0c096d0","address":"8685 US-395","location":{"type":"Point","coordinates":[-117.1938004,34.1232517]},"isApproved":true,"items":[],"keys":["American (Traditional)","Breakfast & Brunch","Cafes"],"lastUpdated":1547527612454,"name":"Outpost Cafe","phone":"(760) 949-0808","price":"$$","reviewCount":314,"reviewScore":4.5,"meta":{"revision":0,"created":1547531155493,"version":0},"$loki":170},{"_id":"5c3d65bd3525a329e0c05de5","address":"28561 State Hwy 18","location":{"type":"Point","coordinates":[-117.1804352,34.2348752]},"isApproved":true,"items":[],"keys":["Pizza"],"lastUpdated":1547527612361,"name":"LouEddie’s Pizza","phone":"(909) 336-4931","price":"$$","reviewCount":770,"reviewScore":4.5,"meta":{"revision":0,"created":1547531155493,"version":0},"$loki":171},{"_id":"5c3d65bd3525a329e0c0ea50","address":"28575 Hwy 18","location":{"type":"Point","coordinates":[-117.1801365,34.235248]},"isApproved":true,"items":[],"keys":["Mexican"],"lastUpdated":1547527612581,"name":"Rosalva’s skyforest","phone":"(909) 337-7733","price":"$$","reviewCount":339,"reviewScore":4,"meta":{"revision":0,"created":1547531155493,"version":0},"$loki":172},{"_id":"5c3d65bd3525a329e0c00718","address":"800 Arrowhead Villa Rd","location":{"type":"Point","coordinates":[-117.1856798,34.2388813]},"isApproved":true,"items":[],"keys":["American (Traditional)","Performing Arts","Venues & Event Spaces"],"lastUpdated":1547527612227,"name":"The Tudor House","phone":"(909) 336-5000","price":"$$","reviewCount":78,"reviewScore":4,"meta":{"revision":0,"created":1547531155493,"version":0},"$loki":173},{"_id":"5c3d65bd3525a329e0c09f63","address":"25187 Hwy 18","location":{"type":"Point","coordinates":[-117.253515422344,34.227162156249]},"isApproved":true,"items":[],"keys":["Mexican"],"lastUpdated":1547527612472,"name":"Hortencias At the Cliffhanger","phone":"(909) 338-4466","price":"$$","reviewCount":326,"reviewScore":4,"meta":{"revision":0,"created":1547531155493,"version":0},"$loki":174},{"_id":"5c3d65bd3525a329e0c0cf76","address":"26599 Pine Ave","location":{"type":"Point","coordinates":[-117.2225524,34.2293199]},"isApproved":true,"items":[],"keys":["Mexican"],"lastUpdated":1547527612539,"name":"Angie’s Mexican Food","phone":"(909) 337-8816","price":"$","reviewCount":24,"reviewScore":3,"meta":{"revision":0,"created":1547531155493,"version":0},"$loki":175},{"_id":"5c3d65bd3525a329e0c089d4","address":"34620 Yucaipa Blvd","location":{"type":"Point","coordinates":[-117.2243209,34.2297208]},"isApproved":true,"items":[],"keys":["Mexican","Burgers","Breakfast & Brunch"],"lastUpdated":1547527612429,"name":"B & C Taco bar And Burger","phone":"(909) 918-0195","price":"","reviewCount":17,"reviewScore":4,"meta":{"revision":0,"created":1547531155493,"version":0},"$loki":176},{"_id":"5c3d65bd3525a329e0c03705","address":"26125 State Hwy 189","location":{"type":"Point","coordinates":[-117.2333703,34.238809]},"isApproved":true,"items":[],"keys":["American (New)","Sushi Bars","Wine Bars"],"lastUpdated":1547527612304,"name":"The Grill At the Antlers Inn","phone":"(909) 336-2600","price":"$$","reviewCount":360,"reviewScore":4.5,"meta":{"revision":0,"created":1547531155493,"version":0},"$loki":177},{"_id":"5c3d65bd3525a329e0c0963b","address":"777 San Manuel Blvd","location":{"type":"Point","coordinates":[-117.2176586,34.2390525]},"isApproved":true,"items":[],"keys":["American (Traditional)","Beer Bar","Music Venues"],"lastUpdated":1547527612454,"name":"Rock & Brews","phone":"(909) 425-4838","price":"$$","reviewCount":399,"reviewScore":3.5,"meta":{"revision":0,"created":1547531155493,"version":0},"$loki":178},{"_id":"5c3d65bd3525a329e0c051c9","address":"26824 State Hwy 189","location":{"type":"Point","coordinates":[-117.218235,34.2372624]},"isApproved":true,"items":[],"keys":["American (New)","French","Southern"],"lastUpdated":1547527612340,"name":"Stone Creek Bistro","phone":"(909) 337-3663","price":"$$","reviewCount":492,"reviewScore":4.5,"meta":{"revision":0,"created":1547531155493,"version":0},"$loki":179},{"_id":"5c3d65bd3525a329e0c0dcf9","address":"12124 California St","location":{"type":"Point","coordinates":[-117.2184587,34.2384443]},"isApproved":true,"items":[],"keys":["Coffee & Tea","Bagels","Waffles"],"lastUpdated":1547527612563,"name":"Chai Coffee Co","phone":"(909) 768-1013","price":"","reviewCount":12,"reviewScore":4.5,"meta":{"revision":0,"created":1547531155493,"version":0},"$loki":180},{"_id":"5c3d65bd3525a329e0c16c35","address":"27159 State Hwy 189","location":{"type":"Point","coordinates":[-117.210703,34.245581]},"isApproved":true,"items":[],"keys":["Mexican"],"lastUpdated":1547527612774,"name":"Arturo’s Restaurant","phone":"(909) 337-5500","price":"$$","reviewCount":157,"reviewScore":2.5,"meta":{"revision":0,"created":1547531155493,"version":0},"$loki":181},{"_id":"5c3d65bd3525a329e0c11bdc","address":"49827 29 Palms Hwy","location":{"type":"Point","coordinates":[-117.2098504,34.2471699]},"isApproved":true,"items":[],"keys":["Bars","American (Traditional)"],"lastUpdated":1547527612659,"name":"Sand to Snow Monument Bar & Grill","phone":"(760) 363-9988","price":"$","reviewCount":14,"reviewScore":5,"meta":{"revision":0,"created":1547531155493,"version":0},"$loki":182},{"_id":"5c3d65bd3525a329e0c0ce53","address":"255 E Olive Ave","location":{"type":"Point","coordinates":[-117.209718,34.246866]},"isApproved":true,"items":[],"keys":["American (New)","Vegetarian","Salad"],"lastUpdated":1547527612534,"name":"Olive & Citrus","phone":"(909) 674-0094","price":"$$$","reviewCount":149,"reviewScore":4,"meta":{"revision":0,"created":1547531155493,"version":0},"$loki":183},{"_id":"5c3d65bd3525a329e0c03a3b","address":"27195 State Hwy 189","location":{"type":"Point","coordinates":[-117.20998628899,34.2462567259537]},"isApproved":true,"items":[],"keys":["American (Traditional)","Breakfast & Brunch","Burgers"],"lastUpdated":1547527612311,"name":"Bill’s Villager","phone":"(909) 337-9069","price":"$$","reviewCount":218,"reviewScore":4,"meta":{"revision":0,"created":1547531155493,"version":0},"$loki":184},{"_id":"5c3d65bd3525a329e0c128c5","address":"15555 Main St","location":{"type":"Point","coordinates":[-117.208827,34.247539]},"isApproved":true,"items":[],"keys":["Breakfast & Brunch"],"lastUpdated":1547527612678,"name":"Jerry’s Cafe","phone":"(760) 995-4167","price":"","reviewCount":7,"reviewScore":5,"meta":{"revision":0,"created":1547531155493,"version":0},"$loki":185},{"_id":"5c3d65bd3525a329e0c00fc6","address":"880 Summit Blvd","location":{"type":"Point","coordinates":[-117.1921857,34.2518958]},"isApproved":true,"items":[],"keys":["American (New)","Breakfast & Brunch"],"lastUpdated":1547527612238,"name":"Oakfire Grill","phone":"(909) 866-5766","price":"","reviewCount":1,"reviewScore":5,"meta":{"revision":0,"created":1547531155493,"version":0},"$loki":186},{"_id":"5c3d65bd3525a329e0c032e8","address":"28200 Hwy 189","location":{"type":"Point","coordinates":[-117.1937018,34.2499659]},"isApproved":true,"items":[],"keys":["Burgers","American (New)","Waffles"],"lastUpdated":1547527612302,"name":"Belgian Waffle Works","phone":"(909) 337-5222","price":"$$","reviewCount":833,"reviewScore":3.5,"meta":{"revision":0,"created":1547531155493,"version":0},"$loki":187},{"_id":"5c3d65bd3525a329e0c1160d","address":"312 State Hwy 173","location":{"type":"Point","coordinates":[-117.190089,34.247908]},"isApproved":true,"items":[],"keys":["American (New)","Barbeque","Sandwiches"],"lastUpdated":1547527612649,"name":"Tasty Chicken-n-Ribs BBQ","phone":"(909) 336-0048","price":"","reviewCount":26,"reviewScore":2,"meta":{"revision":0,"created":1547531155493,"version":0},"$loki":188},{"_id":"5c3d65bd3525a329e0c15307","address":"575 W Ramsey St","location":{"type":"Point","coordinates":[-117.1898609,34.248303]},"isApproved":true,"items":[],"keys":["Thai"],"lastUpdated":1547527612738,"name":"Papaya Bay","phone":"(951) 922-3538","price":"$$","reviewCount":382,"reviewScore":4,"meta":{"revision":0,"created":1547531155493,"version":0},"$loki":189},{"_id":"5c3d65bd3525a329e0c173f5","address":"13910 Hwy 138","location":{"type":"Point","coordinates":[-117.189223,34.250508]},"isApproved":true,"items":[],"keys":["Japanese","Korean"],"lastUpdated":1547527612789,"name":"Silverwood Restaurant Sushi And Grill","phone":"(760) 389-2200","price":"$$","reviewCount":123,"reviewScore":4,"meta":{"revision":0,"created":1547531155493,"version":0},"$loki":190},{"_id":"5c3d65bd3525a329e0c13f65","address":"42173 1/2 Big Bear Blvd","location":{"type":"Point","coordinates":[-117.188868,34.251643]},"isApproved":true,"items":[],"keys":["Pizza"],"lastUpdated":1547527612707,"name":"Red Baron Pizza","phone":"(909) 866-4744","price":"$$","reviewCount":190,"reviewScore":3.5,"meta":{"revision":0,"created":1547531155493,"version":0},"$loki":191},{"_id":"5c3d65bd3525a329e0c12ab2","address":"32866 Old Woman Springs Rd","location":{"type":"Point","coordinates":[-117.188531532884,34.2517931858602]},"isApproved":true,"items":[],"keys":["American (Traditional)","Breakfast & Brunch","Cafes"],"lastUpdated":1547527612679,"name":"Cafe 247","phone":"(760) 248-6088","price":"$","reviewCount":151,"reviewScore":4,"meta":{"revision":0,"created":1547531155493,"version":0},"$loki":192},{"_id":"5c3d65bd3525a329e0c078da","address":"28200 Highway 189","location":{"type":"Point","coordinates":[-117.189147,34.252203]},"isApproved":true,"items":[],"keys":["Bars","Sandwiches","Pretzels"],"lastUpdated":1547527612408,"name":"The Grapevine","phone":"(909) 337-6700","price":"$$","reviewCount":130,"reviewScore":4.5,"meta":{"revision":0,"created":1547531155493,"version":0},"$loki":193},{"_id":"5c3d65bd3525a329e0c159b7","address":"28200 Ca-189","location":{"type":"Point","coordinates":[-117.189456262566,34.2518284195717]},"isApproved":true,"items":[],"keys":["American (New)","Sushi Bars"],"lastUpdated":1547527612747,"name":"The Grill At Lake Arrowhead","phone":"(909) 744-9882","price":"$$","reviewCount":74,"reviewScore":4,"meta":{"revision":0,"created":1547531155493,"version":0},"$loki":194},{"_id":"5c3d65bd3525a329e0c01bb6","address":"34373 Yucaipa Blvd","location":{"type":"Point","coordinates":[-117.190559835908,34.2509419683947]},"isApproved":true,"items":[],"keys":["Breakfast & Brunch"],"lastUpdated":1547527612258,"name":"The Oak House","phone":"(909) 797-4081","price":"$","reviewCount":78,"reviewScore":3,"meta":{"revision":0,"created":1547531155493,"version":0},"$loki":195},{"_id":"5c3d65bd3525a329e0c0bcf3","address":"8922 Beech Ave","location":{"type":"Point","coordinates":[-117.189409231409,34.2521889892108]},"isApproved":true,"items":[],"keys":["Salvadoran","Mexican"],"lastUpdated":1547527612510,"name":"Salvi’s Pupuseria & Resturante","phone":"(909) 695-1021","price":"","reviewCount":25,"reviewScore":4.5,"meta":{"revision":0,"created":1547531155493,"version":0},"$loki":196},{"_id":"5c3d65bd3525a329e0c19f66","address":"12120 Ridgecrest Rd","location":{"type":"Point","coordinates":[-117.3587326,34.3162097]},"isApproved":true,"items":[],"keys":["American (Traditional)"],"lastUpdated":1547527612851,"name":"Down Home Grill","phone":"(760) 241-4663","price":"$","reviewCount":440,"reviewScore":4,"meta":{"revision":0,"created":1547531155493,"version":0},"$loki":197},{"_id":"5c3d65bd3525a329e0c1ad2b","address":"1420 Beaumont Ave","location":{"type":"Point","coordinates":[-117.315817,34.377057]},"isApproved":true,"items":[],"keys":["Chinese"],"lastUpdated":1547527612875,"name":"Little Beijing","phone":"(951) 769-5922","price":"$","reviewCount":62,"reviewScore":4,"meta":{"revision":0,"created":1547531155493,"version":0},"$loki":198},{"_id":"5c3d65bd3525a329e0c139f8","address":"331 E 9th St","location":{"type":"Point","coordinates":[-117.2939719,34.420827]},"isApproved":true,"items":[],"keys":["Barbeque"],"lastUpdated":1547527612698,"name":"Buffalo Wing & Fish Market","phone":"(909) 381-9464","price":"$$","reviewCount":7,"reviewScore":4.5,"meta":{"revision":0,"created":1547531155493,"version":0},"$loki":199},{"_id":"5c3d65bd3525a329e0c19c2c","address":"24 E Redlands Blvd","location":{"type":"Point","coordinates":[-117.2709122,34.4080424]},"isApproved":true,"items":[],"keys":["American (Traditional)","Steakhouses","Cocktail Bars"],"lastUpdated":1547527612850,"name":"Tartan of Redlands","phone":"(909) 792-9919","price":"$$","reviewCount":222,"reviewScore":4,"meta":{"revision":0,"created":1547531155493,"version":0},"$loki":200},{"_id":"5c3d65bd3525a329e0c0e20a","address":"49500 Seminole Dr","location":{"type":"Point","coordinates":[-117.2771967,34.4115704]},"isApproved":true,"items":[],"keys":["Seafood","Steakhouses","Cocktail Bars"],"lastUpdated":1547527612565,"name":"Cielo The Steakhouse at Morongo","phone":"(951) 755-5527","price":"$$$","reviewCount":301,"reviewScore":3.5,"meta":{"revision":0,"created":1547531155493,"version":0},"$loki":201},{"_id":"5c3d65bd3525a329e0c0d1b1","address":"1690 Spruce St","location":{"type":"Point","coordinates":[-117.28629564442,34.419037585093]},"isApproved":true,"items":[],"keys":["Mexican","Bars"],"lastUpdated":1547527612545,"name":"La Casa Ortega Restaurant & Bar","phone":"(951) 781-6682","price":"$$","reviewCount":114,"reviewScore":4.5,"meta":{"revision":0,"created":1547531155493,"version":0},"$loki":202},{"_id":"5c3d65bd3525a329e0c1668f","address":"2999 Kendall Dr","location":{"type":"Point","coordinates":[-117.2885661,34.4199615]},"isApproved":true,"items":[],"keys":["Noodles","Cantonese","Soup"],"lastUpdated":1547527612765,"name":"Yang Noodle House","phone":"(909) 683-6160","price":"$$","reviewCount":255,"reviewScore":4.5,"meta":{"revision":0,"created":1547531155493,"version":0},"$loki":203},{"_id":"5c3d65bd3525a329e0c1ac3e","address":"21920 Bear Valley Rd","location":{"type":"Point","coordinates":[-117.1845129,34.4723333]},"isApproved":true,"items":[],"keys":["Barbeque"],"lastUpdated":1547527612869,"name":"Halleluiah BBQ","phone":"(760) 963-4359","price":"","reviewCount":23,"reviewScore":4.5,"meta":{"revision":0,"created":1547531155493,"version":0},"$loki":204},{"_id":"5c3d65bd3525a329e0c06f7a","address":"17146 Main St","location":{"type":"Point","coordinates":[-117.190491557121,34.4723572985352]},"isApproved":true,"items":[],"keys":["Mexican"],"lastUpdated":1547527612388,"name":"Birrieria Y Carnitas Don Teco","phone":"(951) 213-5082","price":"$","reviewCount":36,"reviewScore":4.5,"meta":{"revision":0,"created":1547531155493,"version":0},"$loki":205},{"_id":"5c3d65bd3525a329e0c145ac","address":"35100 Hwy 18","location":{"type":"Point","coordinates":[-117.1940361,34.4726708]},"isApproved":true,"items":[],"keys":["American (Traditional)"],"lastUpdated":1547527612715,"name":"Deer Meadow Grille","phone":"(909) 867-2751","price":"","reviewCount":4,"reviewScore":4.5,"meta":{"revision":0,"created":1547531155493,"version":0},"$loki":206},{"_id":"5c3d65bd3525a329e0c15708","address":"21530 Bear Valley Rd","location":{"type":"Point","coordinates":[-117.1937297,34.4717467]},"isApproved":true,"items":[],"keys":["Mexican"],"lastUpdated":1547527612746,"name":"Pollos El Compa","phone":"(760) 240-8610","price":"$","reviewCount":38,"reviewScore":4,"meta":{"revision":0,"created":1547531155493,"version":0},"$loki":207},{"_id":"5c3d65bd3525a329e0c07281","address":"890 Oak Valley Pkwy","location":{"type":"Point","coordinates":[-117.1942935,34.4720306]},"isApproved":true,"items":[],"keys":["Sushi Bars","Japanese"],"lastUpdated":1547527612399,"name":"Sugoi Sushi","phone":"(951) 845-1711","price":"$$","reviewCount":181,"reviewScore":4,"meta":{"revision":0,"created":1547531155493,"version":0},"$loki":208},{"_id":"5c3d65bd3525a329e0c11c33","address":"50920 Seminole Dr","location":{"type":"Point","coordinates":[-117.199188050903,34.4720324031591]},"isApproved":true,"items":[],"keys":["Mexican"],"lastUpdated":1547527612660,"name":"Los Victors Mexican Food","phone":"","price":"","reviewCount":5,"reviewScore":3.5,"meta":{"revision":0,"created":1547531155493,"version":0},"$loki":209},{"_id":"5c3d65bd3525a329e0c1871b","address":"1711 W Lugonia Ave","location":{"type":"Point","coordinates":[-117.204515457672,34.471687032485]},"isApproved":true,"items":[],"keys":["Mexican"],"lastUpdated":1547527612821,"name":"Taco Shack","phone":"(909) 307-1916","price":"","reviewCount":14,"reviewScore":4,"meta":{"revision":0,"created":1547531155493,"version":0},"$loki":210},{"_id":"5c3d65bd3525a329e0bfff0c","address":"41799 Big Bear Blvd","location":{"type":"Point","coordinates":[-117.2511178,34.4705403]},"isApproved":true,"items":[],"keys":["Bars","Sandwiches"],"lastUpdated":1547527612223,"name":"Blt’s Diner","phone":"(909) 866-6659","price":"","reviewCount":10,"reviewScore":2.5,"meta":{"revision":0,"created":1547531155493,"version":0},"$loki":211},{"_id":"5c3d65bd3525a329e0c0b425","address":"265 E 40th St","location":{"type":"Point","coordinates":[-117.242868798112,34.4718083168022]},"isApproved":true,"items":[],"keys":["Coffee & Tea","Breakfast & Brunch","Delis"],"lastUpdated":1547527612498,"name":"DJ Coffee Shop","phone":"(909) 882-3917","price":"$","reviewCount":402,"reviewScore":4.5,"meta":{"revision":0,"created":1547531155493,"version":0},"$loki":212},{"_id":"5c3d65bd3525a329e0c1752e","address":"","location":{"type":"Point","coordinates":[-117.243440374732,34.4713428991438]},"isApproved":true,"items":[],"keys":["Food Trucks","Tacos"],"lastUpdated":1547527612790,"name":"Cruzin’ Taco","phone":"(951) 662-4812","price":"","reviewCount":2,"reviewScore":5,"meta":{"revision":0,"created":1547531155493,"version":0},"$loki":213},{"_id":"5c3d65bd3525a329e0c15913","address":"3375 Iowa Ave","location":{"type":"Point","coordinates":[-117.2148343,34.5219718]},"isApproved":true,"items":[],"keys":["Pizza","Ice Cream & Frozen Yogurt"],"lastUpdated":1547527612747,"name":"Food Fusion","phone":"(951) 224-9755","price":"","reviewCount":14,"reviewScore":4.5,"meta":{"revision":0,"created":1547531155493,"version":0},"$loki":214},{"_id":"5c3d65bd3525a329e0c098e1","address":"13663 Navajo Rd","location":{"type":"Point","coordinates":[-117.18838823714,34.4991444749471]},"isApproved":true,"items":[],"keys":["Seafood","Mexican"],"lastUpdated":1547527612463,"name":"Pampa-Rara","phone":"(760) 240-2233","price":"$$","reviewCount":157,"reviewScore":5,"meta":{"revision":0,"created":1547531155493,"version":0},"$loki":215},{"_id":"5c3d65bd3525a329e0c12cda","address":"13261 Spring Valley Pkwy","location":{"type":"Point","coordinates":[-117.188821588955,34.5000345248393]},"isApproved":true,"items":[],"keys":["Sports Bars","Breakfast & Brunch","American (Traditional)"],"lastUpdated":1547527612680,"name":"Republic","phone":"(760) 955-1500","price":"$$","reviewCount":86,"reviewScore":4,"meta":{"revision":0,"created":1547531155493,"version":0},"$loki":216},{"_id":"5c3d65bd3525a329e0c02f80","address":"24984 3rd St","location":{"type":"Point","coordinates":[-117.1858759,34.5008311]},"isApproved":true,"items":[],"keys":["Indonesian","Asian Fusion"],"lastUpdated":1547527612295,"name":"Tempe House Spicy Food","phone":"(909) 889-2222","price":"$","reviewCount":97,"reviewScore":4.5,"meta":{"revision":0,"created":1547531155493,"version":0},"$loki":217},{"_id":"5c3d65bd3525a329e0c16d96","address":"497 E Alessandro Blvd","location":{"type":"Point","coordinates":[-117.185883,34.500636]},"isApproved":true,"items":[],"keys":["Mexican","Seafood","Fast Food"],"lastUpdated":1547527612774,"name":"La Bufadora Baja Grill - Mission Grove","phone":"(951) 776-2881","price":"$","reviewCount":146,"reviewScore":4,"meta":{"revision":0,"created":1547531155493,"version":0},"$loki":218},{"_id":"5c3d65bd3525a329e0c0a00c","address":"13685 John Glenn Rd","location":{"type":"Point","coordinates":[-117.1826751,34.4997973]},"isApproved":true,"items":[],"keys":["Steakhouses","American (Traditional)","Comfort Food"],"lastUpdated":1547527612472,"name":"Rusty Bull Roadhouse","phone":"(760) 961-7979","price":"$$","reviewCount":207,"reviewScore":4.5,"meta":{"revision":0,"created":1547531155493,"version":0},"$loki":219},{"_id":"5c3d65bd3525a329e0c12452","address":"228 W Hospitality Ln","location":{"type":"Point","coordinates":[-117.1836158,34.5009479]},"isApproved":true,"items":[],"keys":["Indian","Buffets"],"lastUpdated":1547527612670,"name":"India’s Clay Oven","phone":"(909) 890-0090","price":"$$","reviewCount":601,"reviewScore":4.5,"meta":{"revision":0,"created":1547531155493,"version":0},"$loki":220},{"_id":"5c3d65bd3525a329e0c0cfc7","address":"10040 Alabama St","location":{"type":"Point","coordinates":[-117.181924779355,34.499994]},"isApproved":true,"items":[],"keys":["Vietnamese","Noodles"],"lastUpdated":1547527612539,"name":"Noodle 21","phone":"(909) 798-1888","price":"$","reviewCount":434,"reviewScore":3,"meta":{"revision":0,"created":1547531155493,"version":0},"$loki":221},{"_id":"5c3d65bd3525a329e0c13770","address":"18375 Outer US Hwy 18","location":{"type":"Point","coordinates":[-117.2632448,34.5394337]},"isApproved":true,"items":[],"keys":["Vegan","Mediterranean","Halal"],"lastUpdated":1547527612697,"name":"Mu’s Doner & Kabob","phone":"(760) 694-8402","price":"","reviewCount":7,"reviewScore":4.5,"meta":{"revision":0,"created":1547531155493,"version":0},"$loki":222},{"_id":"5c3d65bd3525a329e0c04123","address":"116 W Ramsey St","location":{"type":"Point","coordinates":[-117.254478,34.538783]},"isApproved":true,"items":[],"keys":["Chinese","American (Traditional)"],"lastUpdated":1547527612320,"name":"Wing’s Garden Cafe","phone":"(951) 849-2914","price":"$$","reviewCount":74,"reviewScore":4,"meta":{"revision":0,"created":1547531155493,"version":0},"$loki":223},{"_id":"5c3d65bd3525a329e0c0da76","address":"17014 Smoke Tree St","location":{"type":"Point","coordinates":[-117.22321,34.529163]},"isApproved":true,"items":[],"keys":["Mexican"],"lastUpdated":1547527612556,"name":"Taqueria Zacatecas","phone":"(760) 998-2977","price":"$","reviewCount":28,"reviewScore":4,"meta":{"revision":0,"created":1547531155493,"version":0},"$loki":224},{"_id":"5c3d65bd3525a329e0c192e5","address":"20162 US Hwy 18","location":{"type":"Point","coordinates":[-117.223810211639,34.5287830496895]},"isApproved":true,"items":[],"keys":["Juice Bars & Smoothies","Tea Rooms","Asian Fusion"],"lastUpdated":1547527612833,"name":"Organic Fusion Teahouse & Cafe","phone":"(760) 242-9239","price":"$","reviewCount":263,"reviewScore":5,"meta":{"revision":0,"created":1547531155493,"version":0},"$loki":225},{"_id":"5c3d65bd3525a329e0c167ec","address":"","location":{"type":"Point","coordinates":[-117.306688,34.523104]},"isApproved":true,"items":[],"keys":["Pizza"],"lastUpdated":1547527612772,"name":"WTF Gourmet Wood-fired Pizza","phone":"(760) 983-1414","price":"$","reviewCount":12,"reviewScore":4.5,"meta":{"revision":0,"created":1547531155493,"version":0},"$loki":226},{"_id":"5c3d65bd3525a329e0bffb63","address":"5771 Mission Blvd","location":{"type":"Point","coordinates":[-117.305315,34.5214995]},"isApproved":true,"items":[],"keys":["Donuts","Sandwiches","Bubble Tea"],"lastUpdated":1547527612220,"name":"L & A Donuts","phone":"(951) 680-9810","price":"","reviewCount":1,"reviewScore":5,"meta":{"revision":0,"created":1547531155493,"version":0},"$loki":227},{"_id":"5c3d65bd3525a329e0c17183","address":"17928 Wika Rd","location":{"type":"Point","coordinates":[-117.272939845065,34.54047464755]},"isApproved":true,"items":[],"keys":["Mexican"],"lastUpdated":1547527612782,"name":"Salsero Loco","phone":"(760) 242-7533","price":"","reviewCount":5,"reviewScore":4.5,"meta":{"revision":0,"created":1547531155493,"version":0},"$loki":228},{"_id":"5c3d65bd3525a329e0c0b2a8","address":"34636 County Line Rd","location":{"type":"Point","coordinates":[-117.273899875581,34.541900186189]},"isApproved":true,"items":[],"keys":["Mexican"],"lastUpdated":1547527612498,"name":"Casa Trejo Mexican Restaurant","phone":"(909) 795-2880","price":"$$","reviewCount":228,"reviewScore":3.5,"meta":{"revision":0,"created":1547531155493,"version":0},"$loki":229},{"_id":"5c3d65bd3525a329e0c0d60a","address":"34993 Yucaipa Blvd","location":{"type":"Point","coordinates":[-117.346306443214,34.527494418701]},"isApproved":true,"items":[],"keys":["Cafes"],"lastUpdated":1547527612548,"name":"Beach Cafe","phone":"","price":"","reviewCount":1,"reviewScore":4,"meta":{"revision":0,"created":1547531155493,"version":0},"$loki":230},{"_id":"5c3d65bd3525a329e0c06fd2","address":"56093 29 Palms Hwy","location":{"type":"Point","coordinates":[-117.324403,34.5211823]},"isApproved":true,"items":[],"keys":["Mexican"],"lastUpdated":1547527612388,"name":"L’s Salsas","phone":"(760) 853-0025","price":"","reviewCount":8,"reviewScore":4,"meta":{"revision":0,"created":1547531155493,"version":0},"$loki":231},{"_id":"5c3d65bd3525a329e0c17b8c","address":"651 N Waterman Ave","location":{"type":"Point","coordinates":[-117.3347912,34.5064061]},"isApproved":true,"items":[],"keys":["Meat Shops","Sandwiches"],"lastUpdated":1547527612800,"name":"Frank’s Wholesale Meat","phone":"(909) 885-5422","price":"$$","reviewCount":89,"reviewScore":4,"meta":{"revision":0,"created":1547531155493,"version":0},"$loki":232},{"_id":"5c3d65bd3525a329e0c052c4","address":"501 Forest Shade Rd","location":{"type":"Point","coordinates":[-117.318916903068,34.5134863299979]},"isApproved":true,"items":[],"keys":["Burgers"],"lastUpdated":1547527612346,"name":"A Burger","phone":"","price":"$","reviewCount":16,"reviewScore":3,"meta":{"revision":0,"created":1547531155493,"version":0},"$loki":233},{"_id":"5c3d65bd3525a329e0c062ad","address":"889 E Valley Blvd","location":{"type":"Point","coordinates":[-117.316469214857,34.5140633076067]},"isApproved":true,"items":[],"keys":["Mexican","Seafood"],"lastUpdated":1547527612369,"name":"Guadalajara Restaurant","phone":"(909) 872-0068","price":"","reviewCount":2,"reviewScore":3,"meta":{"revision":0,"created":1547531155493,"version":0},"$loki":234},{"_id":"5c3d65bd3525a329e0c0cf79","address":"1874 Mentone Blvd","location":{"type":"Point","coordinates":[-117.3169691,34.514028]},"isApproved":true,"items":[],"keys":["Steakhouses","Barbeque","Seafood"],"lastUpdated":1547527612539,"name":"Mill Creek Cattle Company & Diamond Jims Saloon","phone":"(909) 389-0706","price":"$$","reviewCount":314,"reviewScore":3,"meta":{"revision":0,"created":1547531155493,"version":0},"$loki":235},{"_id":"5c3d65bd3525a329e0c0ee27","address":"14303 7th St","location":{"type":"Point","coordinates":[-117.3182065,34.5107102]},"isApproved":true,"items":[],"keys":["Middle Eastern","Mediterranean"],"lastUpdated":1547527612583,"name":"Ala’ Al-Deen","phone":"(760) 241-1136","price":"$$","reviewCount":512,"reviewScore":4.5,"meta":{"revision":0,"created":1547531155493,"version":0},"$loki":236},{"_id":"5c3d65bd3525a329e0c048a1","address":"765 Blaine St","location":{"type":"Point","coordinates":[-117.324385,34.505015]},"isApproved":true,"items":[],"keys":["Mexican"],"lastUpdated":1547527612330,"name":"El Fogon","phone":"(951) 782-8959","price":"$","reviewCount":323,"reviewScore":4,"meta":{"revision":0,"created":1547531155493,"version":0},"$loki":237},{"_id":"5c3d65bd3525a329e0c0ba17","address":"22320 Barton Rd","location":{"type":"Point","coordinates":[-117.324464544654,34.5052533604729]},"isApproved":true,"items":[],"keys":["Italian","Pasta Shops"],"lastUpdated":1547527612507,"name":"La Pasta Italia","phone":"(909) 783-6835","price":"$","reviewCount":111,"reviewScore":4.5,"meta":{"revision":0,"created":1547531155493,"version":0},"$loki":238},{"_id":"5c3d65bd3525a329e0c07ef5","address":"168 S E St","location":{"type":"Point","coordinates":[-117.3191808,34.5088902]},"isApproved":true,"items":[],"keys":["Mexican","Seafood","Bars"],"lastUpdated":1547527612417,"name":"Las Conchitas","phone":"(909) 387-0906","price":"$$","reviewCount":160,"reviewScore":3.5,"meta":{"revision":0,"created":1547531155493,"version":0},"$loki":239},{"_id":"5c3d65bd3525a329e0c0df6e","address":"14480 7th St","location":{"type":"Point","coordinates":[-117.3277208,34.5055487]},"isApproved":true,"items":[],"keys":["Mexican"],"lastUpdated":1547527612564,"name":"Miguel’s Baja Grill","phone":"(760) 241-3838","price":"$$","reviewCount":173,"reviewScore":4.5,"meta":{"revision":0,"created":1547531155493,"version":0},"$loki":240},{"_id":"5c3d65bd3525a329e0c045f3","address":"1205 W Renaissance Pkwy","location":{"type":"Point","coordinates":[-117.3382346,34.4823034]},"isApproved":true,"items":[],"keys":["Salad","Burgers","Sandwiches"],"lastUpdated":1547527612328,"name":"The Habit Burger Grill","phone":"(909) 990-1565","price":"","reviewCount":27,"reviewScore":3.5,"meta":{"revision":0,"created":1547531155493,"version":0},"$loki":241},{"_id":"5c3d65bd3525a329e0c16509","address":"14120 Bear Valley Rd","location":{"type":"Point","coordinates":[-117.3549453,34.4708994]},"isApproved":true,"items":[],"keys":["Mediterranean"],"lastUpdated":1547527612764,"name":"Pita Barn","phone":"(760) 269-0470","price":"$$","reviewCount":93,"reviewScore":4,"meta":{"revision":0,"created":1547531155493,"version":0},"$loki":242},{"_id":"5c3d65bd3525a329e0c195ca","address":"33490 Oak Glen Rd","location":{"type":"Point","coordinates":[-117.3549453,34.4708994]},"isApproved":true,"items":[],"keys":["Mexican"],"lastUpdated":1547527612841,"name":"Taco Village","phone":"(909) 797-1582","price":"$","reviewCount":80,"reviewScore":4,"meta":{"revision":0,"created":1547531155493,"version":0},"$loki":243},{"_id":"5c3d65bd3525a329e0c02570","address":"24541 Alessandro Blvd","location":{"type":"Point","coordinates":[-117.3535367,34.4624029]},"isApproved":true,"items":[],"keys":["Donuts","Bagels","Sandwiches"],"lastUpdated":1547527612278,"name":"Moreno Family Donuts","phone":"(951) 247-2613","price":"$","reviewCount":46,"reviewScore":4.5,"meta":{"revision":0,"created":1547531155493,"version":0},"$loki":244},{"_id":"5c3d65bd3525a329e0c145d4","address":"25020 Filaree Ave","location":{"type":"Point","coordinates":[-117.3531549,34.4627181]},"isApproved":true,"items":[],"keys":["American (Traditional)","Bars"],"lastUpdated":1547527612715,"name":"Rene’s Bar and Grill","phone":"(951) 242-2914","price":"$$","reviewCount":54,"reviewScore":4,"meta":{"revision":0,"created":1547531155493,"version":0},"$loki":245},{"_id":"5c3d65bd3525a329e0c1740a","address":"25155 Sunnymead Blvd","location":{"type":"Point","coordinates":[-117.349299453199,34.4678639960289]},"isApproved":true,"items":[],"keys":["Mongolian","Barbeque"],"lastUpdated":1547527612789,"name":"Mongolian BBQ","phone":"(951) 485-9100","price":"$","reviewCount":224,"reviewScore":4,"meta":{"revision":0,"created":1547531155493,"version":0},"$loki":246},{"_id":"5c3d65bd3525a329e0c12f9e","address":"449 N Waterman Ave","location":{"type":"Point","coordinates":[-117.3488833,34.4699686]},"isApproved":true,"items":[],"keys":["Mexican"],"lastUpdated":1547527612688,"name":"Super Burrito King Size","phone":"(909) 889-7512","price":"$","reviewCount":109,"reviewScore":4,"meta":{"revision":0,"created":1547531155493,"version":0},"$loki":247},{"_id":"5c3d65bd3525a329e0c02aec","address":"22448 Barton Rd","location":{"type":"Point","coordinates":[-117.3413794,34.4699066]},"isApproved":true,"items":[],"keys":["Mexican"],"lastUpdated":1547527612286,"name":"Odaberto’s Mexican Food","phone":"(909) 533-4747","price":"$","reviewCount":51,"reviewScore":4,"meta":{"revision":0,"created":1547531155493,"version":0},"$loki":248},{"_id":"5c3d65bd3525a329e0c12862","address":"1200 E Highland Ave","location":{"type":"Point","coordinates":[-117.3390946,34.4699391]},"isApproved":true,"items":[],"keys":["Mexican"],"lastUpdated":1547527612678,"name":"Casa Fresca Tacos","phone":"(909) 713-2370","price":"$","reviewCount":34,"reviewScore":4,"meta":{"revision":0,"created":1547531155493,"version":0},"$loki":249},{"_id":"5c3d65bd3525a329e0c13427","address":"25578 Base Line St","location":{"type":"Point","coordinates":[-117.3399047,34.4724954]},"isApproved":true,"items":[],"keys":["Burgers"],"lastUpdated":1547527612690,"name":"Baseline Burgers","phone":"(909) 884-7458","price":"$","reviewCount":94,"reviewScore":4.5,"meta":{"revision":0,"created":1547531155493,"version":0},"$loki":250},{"_id":"5c3d65bd3525a329e0c19072","address":"1111 Beaumont Ave","location":{"type":"Point","coordinates":[-117.339932508767,34.4731812471126]},"isApproved":true,"items":[],"keys":["Mexican"],"lastUpdated":1547527612832,"name":"Fiesta Tacos","phone":"(951) 845-4332","price":"$","reviewCount":19,"reviewScore":4.5,"meta":{"revision":0,"created":1547531155493,"version":0},"$loki":251},{"_id":"5c3d65bd3525a329e0c076a6","address":"2585 Canyon Springs Pkwy","location":{"type":"Point","coordinates":[-117.3371692,34.4717083]},"isApproved":true,"items":[],"keys":["Burgers"],"lastUpdated":1547527612402,"name":"Burger Boss","phone":"(951) 656-6500","price":"$$","reviewCount":832,"reviewScore":4.5,"meta":{"revision":0,"created":1547531155493,"version":0},"$loki":252},{"_id":"5c3d65bd3525a329e0c0ced8","address":"15024 Bear Valley Rd","location":{"type":"Point","coordinates":[-117.337351217866,34.4716906156374]},