{"filename":"-118.5-45.75","collections":[{"name":"restaurants","data":[{"_id":"5c3d65bd3525a329e0c1b074","address":"2750 Duportail St","location":{"type":"Point","coordinates":[-118.3466536,46.0495219]},"isApproved":true,"items":[],"keys":["Hot Dogs","Fast Food","Burgers"],"lastUpdated":1547527612877,"name":"A&W","phone":"(509) 628-0066","price":"","reviewCount":2,"reviewScore":1,"meta":{"revision":0,"created":1547531150200,"version":0},"$loki":1},{"_id":"5c3d65bd3525a329e0c192fa","address":"8021 W Grandridge Blvd","location":{"type":"Point","coordinates":[-118.3456824,46.0495413]},"isApproved":true,"items":[],"keys":["Chinese"],"lastUpdated":1547527612833,"name":"Bamboo Garden","phone":"(509) 737-1688","price":"$$","reviewCount":33,"reviewScore":3.5,"meta":{"revision":0,"created":1547531150200,"version":0},"$loki":2},{"_id":"5c3d65bd3525a329e0c0b3b6","address":"5431 W Van Giesen St","location":{"type":"Point","coordinates":[-118.345820903778,46.0507183867458]},"isApproved":true,"items":[],"keys":["Korean","Japanese","Chinese"],"lastUpdated":1547527612498,"name":"Tri Teriyaki","phone":"(509) 967-0226","price":"$","reviewCount":22,"reviewScore":4,"meta":{"revision":0,"created":1547531150200,"version":0},"$loki":3},{"_id":"5c3d65bd3525a329e0c02061","address":"1200 N Columbia Ctr Blvd","location":{"type":"Point","coordinates":[-118.3464382,46.047944]},"isApproved":true,"items":[],"keys":["American (Traditional)","Comfort Food","Breakfast & Brunch"],"lastUpdated":1547527612275,"name":"Shari’s Cafe & Pies","phone":"(509) 735-7438","price":"$$","reviewCount":57,"reviewScore":2,"meta":{"revision":0,"created":1547531150200,"version":0},"$loki":4},{"_id":"5c3d65bd3525a329e0c18cd1","address":"1321 N Columbia Center Blvd","location":{"type":"Point","coordinates":[-118.3475519,46.0480163]},"isApproved":true,"items":[],"keys":["Chinese","Fast Food"],"lastUpdated":1547527612825,"name":"Panda Express","phone":"(509) 783-7000","price":"$","reviewCount":3,"reviewScore":2.5,"meta":{"revision":0,"created":1547531150200,"version":0},"$loki":5},{"_id":"5c3d65bd3525a329e0c07b58","address":"2718 W Kennewick Ave","location":{"type":"Point","coordinates":[-118.349016,46.048315]},"isApproved":true,"items":[],"keys":["Mexican","Tex-Mex","Fast Food"],"lastUpdated":1547527612410,"name":"Taco Bell","phone":"(509) 783-8649","price":"$","reviewCount":12,"reviewScore":2,"meta":{"revision":0,"created":1547531150200,"version":0},"$loki":6},{"_id":"5c3d65bd3525a329e0c15b45","address":"2210 West Court St","location":{"type":"Point","coordinates":[-118.3446863,46.0389077]},"isApproved":true,"items":[],"keys":["Fast Food","Burgers","Hot Dogs"],"lastUpdated":1547527612753,"name":"A&W","phone":"(509) 547-8825","price":"$","reviewCount":3,"reviewScore":1,"meta":{"revision":0,"created":1547531150200,"version":0},"$loki":7},{"_id":"5c3d65bd3525a329e0c017c8","address":"814 S 9th","location":{"type":"Point","coordinates":[-118.381029651421,46.0341328972728]},"isApproved":true,"items":[],"keys":["Burgers","Fast Food","Coffee & Tea"],"lastUpdated":1547527612250,"name":"McDonald’s","phone":"(509) 525-6553","price":"$","reviewCount":10,"reviewScore":3,"meta":{"revision":0,"created":1547531150200,"version":0},"$loki":8},{"_id":"5c3d65bd3525a329e0c0d07e","address":"595 W Rose St","location":{"type":"Point","coordinates":[-118.3817607,46.0331535]},"isApproved":true,"items":[],"keys":["Fast Food","Chicken Wings","Chicken Shop"],"lastUpdated":1547527612544,"name":"KFC","phone":"(509) 525-2921","price":"","reviewCount":7,"reviewScore":1,"meta":{"revision":0,"created":1547531150200,"version":0},"$loki":9},{"_id":"5c3d65bd3525a329e0c0e31a","address":"345 Boyer Ave","location":{"type":"Point","coordinates":[-118.380109,46.0327521]},"isApproved":true,"items":[],"keys":["Burgers"],"lastUpdated":1547527612572,"name":"Cafe ‘66","phone":"","price":"$","reviewCount":1,"reviewScore":3,"meta":{"revision":0,"created":1547531150200,"version":0},"$loki":10},{"_id":"5c3d65bd3525a329e0c1a75e","address":"1618 Plaza Way","location":{"type":"Point","coordinates":[-118.379752515372,46.0330364807723]},"isApproved":true,"items":[],"keys":["Chinese","Buffets"],"lastUpdated":1547527612866,"name":"China Buffet","phone":"(509) 526-7797","price":"$$","reviewCount":15,"reviewScore":2,"meta":{"revision":0,"created":1547531150200,"version":0},"$loki":11},{"_id":"5c3d65bd3525a329e0c02be6","address":"1186 Wallula Ave","location":{"type":"Point","coordinates":[-118.403879087007,46.0006868532981]},"isApproved":true,"items":[],"keys":["Delis","Mexican"],"lastUpdated":1547527612287,"name":"Dora’s Deli","phone":"(509) 529-3629","price":"$","reviewCount":15,"reviewScore":4.5,"meta":{"revision":0,"created":1547531150200,"version":0},"$loki":12},{"_id":"5c3d65bd3525a329e0c0882a","address":"43 Columbia Point Dr","location":{"type":"Point","coordinates":[-118.387581221759,45.9914515029342]},"isApproved":true,"items":[],"keys":["American (Traditional)","Sports Bars","Burgers"],"lastUpdated":1547527612428,"name":"Applebee’s Grill + Bar","phone":"(509) 942-1513","price":"$$","reviewCount":32,"reviewScore":3.5,"meta":{"revision":0,"created":1547531150200,"version":0},"$loki":13},{"_id":"5c3d65bd3525a329e0c0518c","address":"1102 N Columbia Center Blvd","location":{"type":"Point","coordinates":[-118.3863637,45.9673835]},"isApproved":true,"items":[],"keys":["Mexican","Fast Food"],"lastUpdated":1547527612340,"name":"Chipotle Mexican Grill","phone":"(509) 735-4125","price":"$$","reviewCount":54,"reviewScore":3,"meta":{"revision":0,"created":1547531150200,"version":0},"$loki":14},{"_id":"5c3d65bd3525a329e0c09129","address":"131 N Ely St","location":{"type":"Point","coordinates":[-118.4956807,45.9763825]},"isApproved":true,"items":[],"keys":["Chinese"],"lastUpdated":1547527612446,"name":"China Cafe","phone":"(509) 735-4111","price":"$","reviewCount":41,"reviewScore":3.5,"meta":{"revision":0,"created":1547531150200,"version":0},"$loki":15},{"_id":"5c3d65bd3525a329e0c12d25","address":"6 W Rose St","location":{"type":"Point","coordinates":[-118.4960982,45.9768742]},"isApproved":true,"items":[],"keys":["American (New)","Wine Bars"],"lastUpdated":1547527612681,"name":"The Marc Restaurant","phone":"(509) 525-2200","price":"$$$","reviewCount":76,"reviewScore":3.5,"meta":{"revision":0,"created":1547531150200,"version":0},"$loki":16},{"_id":"5c3d65bd3525a329e0c16aa5","address":"","location":{"type":"Point","coordinates":[-118.400867,46.0568728]},"isApproved":true,"items":[],"keys":["American (New)"],"lastUpdated":1547527612773,"name":"Kennewick Grill","phone":"","price":"$$","reviewCount":1,"reviewScore":4,"meta":{"revision":0,"created":1547531150200,"version":0},"$loki":17},{"_id":"5c3d65bd3525a329e0c192d2","address":"2775 Queensgate Dr","location":{"type":"Point","coordinates":[-118.400867,46.0568728]},"isApproved":true,"items":[],"keys":["American (New)","Burgers","Sports Bars"],"lastUpdated":1547527612833,"name":"Bob’s Burgers & Brew","phone":"(509) 987-1664","price":"$$","reviewCount":115,"reviewScore":3.5,"meta":{"revision":0,"created":1547531150200,"version":0},"$loki":18},{"_id":"5c3d65bd3525a329e0c0e8a1","address":"2632 W Kennewick Ave","location":{"type":"Point","coordinates":[-118.3963276,46.0568446]},"isApproved":true,"items":[],"keys":["Asian Fusion"],"lastUpdated":1547527612575,"name":"J’s Asian Flaming Grill","phone":"(509) 736-3999","price":"$$","reviewCount":68,"reviewScore":4,"meta":{"revision":0,"created":1547531150200,"version":0},"$loki":19},{"_id":"5c3d65bd3525a329e0c17e2a","address":"1415 Plaza Way","location":{"type":"Point","coordinates":[-118.3881976,46.0506757]},"isApproved":true,"items":[],"keys":["Diners","Bars","Comfort Food"],"lastUpdated":1547527612801,"name":"The Brik","phone":"(509) 529-7999","price":"$$","reviewCount":80,"reviewScore":3,"meta":{"revision":0,"created":1547531150200,"version":0},"$loki":20},{"_id":"5c3d65bd3525a329e0c12603","address":"1319 Bergevin Springs Rd","location":{"type":"Point","coordinates":[-118.3699617,46.053042]},"isApproved":true,"items":[],"keys":["Desserts","Tapas/Small Plates","Resorts"],"lastUpdated":1547527612671,"name":"Eritage Resort & Restaurant","phone":"(509) 394-9200","price":"","reviewCount":6,"reviewScore":3,"meta":{"revision":0,"created":1547531150200,"version":0},"$loki":21},{"_id":"5c3d65bd3525a329e0c00e2f","address":"703 The Pkwy","location":{"type":"Point","coordinates":[-118.3696732,46.0582652]},"isApproved":true,"items":[],"keys":["Sandwiches"],"lastUpdated":1547527612237,"name":"Stone Soup","phone":"(509) 943-4542","price":"$","reviewCount":61,"reviewScore":4,"meta":{"revision":0,"created":1547531150200,"version":0},"$loki":22},{"_id":"5c3d65bd3525a329e0c08318","address":"2 Sunridge Ln","location":{"type":"Point","coordinates":[-118.422416,45.504147]},"isApproved":true,"items":[],"keys":["Burgers","American (Traditional)","Sandwiches"],"lastUpdated":1547527612420,"name":"Sumpter Junction Restaurant","phone":"(541) 523-9437","price":"$$","reviewCount":91,"reviewScore":4,"meta":{"revision":0,"created":1547531150200,"version":0},"$loki":23}],"idIndex":[1,2,3,4,5,6,7,8,9,10,11,12,13,14,15,16,17,18,19,20,21,22,23],"binaryIndices":{},"constraints":null,"uniqueNames":[],"transforms":{},"objType":"restaurants","dirty":true,"cachedIndex":null,"cachedBinaryIndex":null,"cachedData":null,"adaptiveBinaryIndices":true,"transactional":false,"cloneObjects":false,"cloneMethod":"parse-stringify","asyncListeners":false,"disableMeta":false,"disableChangesApi":true,"disableDeltaChangesApi":true,"autoupdate":false,"serializableIndices":true,"ttl":null,"maxId":23,"DynamicViews":[],"events":{"insert":[],"update":[],"pre-insert":[],"pre-update":[],"close":[],"flushbuffer":[],"error":[],"delete":[null],"warning":[null]},"changes":[]}],"databaseVersion":1.5,"engineVersion":1.5,"autosave":false,"autosaveInterval":5000,"autosaveHandle":null,"throttledSaves":true,"options":{"serializationMethod":"normal","destructureDelimiter":"$<\n"},"persistenceMethod":"fs","persistenceAdapter":null,"verbose":false,"events":{"init":[null],"loaded":[],"flushChanges":[],"close":[],"changes":[],"warning":[]},"ENV":"NODEJS"}