{"filename":"-118.75-47.25","collections":[{"name":"restaurants","data":[{"_id":"5c3d65bd3525a329e0c037eb","address":"711 N Stratford Rd","location":{"type":"Point","coordinates":[-118.6897969,47.333361]},"isApproved":true,"items":[],"keys":["Mexican"],"lastUpdated":1547527612304,"name":"Tacos Mi Casa","phone":"(509) 361-9120","price":"$","reviewCount":15,"reviewScore":4,"meta":{"revision":0,"created":1547531152628,"version":0},"$loki":1},{"_id":"5c3d65bd3525a329e0c18fa8","address":"11 W 1st","location":{"type":"Point","coordinates":[-118.69142,47.3330356]},"isApproved":true,"items":[],"keys":["German"],"lastUpdated":1547527612832,"name":"Das Kraut Haus","phone":"(509) 982-2701","price":"$","reviewCount":2,"reviewScore":4,"meta":{"revision":0,"created":1547531152628,"version":0},"$loki":2},{"_id":"5c3d65bd3525a329e0c04493","address":"206 W 1st Ave","location":{"type":"Point","coordinates":[-118.6942445,47.3335132]},"isApproved":true,"items":[],"keys":["Restaurants"],"lastUpdated":1547527612322,"name":"Odessa Drive-In","phone":"(509) 982-0111","price":"$","reviewCount":5,"reviewScore":4,"meta":{"revision":0,"created":1547531152628,"version":0},"$loki":3},{"_id":"5c3d65bd3525a329e0c15600","address":"206 W 1st Ave","location":{"type":"Point","coordinates":[-118.6942445,47.3335132]},"isApproved":true,"items":[],"keys":["American (New)"],"lastUpdated":1547527612746,"name":"Tiger Inn Drive Inn","phone":"(509) 982-0111","price":"","reviewCount":3,"reviewScore":4.5,"meta":{"revision":0,"created":1547531152628,"version":0},"$loki":4},{"_id":"5c3d65bd3525a329e0c140dc","address":"13080 Hwy 28","location":{"type":"Point","coordinates":[-118.709607,47.329093]},"isApproved":true,"items":[],"keys":["Cafes","RV Parks","Golf"],"lastUpdated":1547527612707,"name":"Odessa Golf and RV Park","phone":"(509) 982-0093","price":"","reviewCount":4,"reviewScore":5,"meta":{"revision":0,"created":1547531152628,"version":0},"$loki":5},{"_id":"5c3d65bd3525a329e0c14109","address":"2008 N Durry Rd","location":{"type":"Point","coordinates":[-118.366323003183,47.1140836171615]},"isApproved":true,"items":[],"keys":["American (Traditional)","Gas Stations"],"lastUpdated":1547527612707,"name":"Templin’s Country Corner","phone":"(509) 659-0198","price":"","reviewCount":2,"reviewScore":2.5,"meta":{"revision":0,"created":1547531152628,"version":0},"$loki":6},{"_id":"5c3d65bd3525a329e0c17b66","address":"1604 S Smittys Blvd","location":{"type":"Point","coordinates":[-118.3641243,47.1188986]},"isApproved":true,"items":[],"keys":["American (Traditional)","Barbeque","Steakhouses"],"lastUpdated":1547527612799,"name":"The Ritz Roadhouse","phone":"(509) 659-4300","price":"$$","reviewCount":109,"reviewScore":3,"meta":{"revision":0,"created":1547531152628,"version":0},"$loki":7},{"_id":"5c3d65bd3525a329e0c0f0d6","address":"103 Galbreath Way","location":{"type":"Point","coordinates":[-118.3674662,47.1174458]},"isApproved":true,"items":[],"keys":["Mexican"],"lastUpdated":1547527612590,"name":"Taco Del Mar","phone":"(509) 659-1001","price":"$","reviewCount":11,"reviewScore":3.5,"meta":{"revision":0,"created":1547531152628,"version":0},"$loki":8},{"_id":"5c3d65bd3525a329e0c136cc","address":"1611 S Smitty&#39;s Blvd","location":{"type":"Point","coordinates":[-118.362996,47.119605]},"isApproved":true,"items":[],"keys":["Pizza","American (Traditional)","Chocolatiers & Shops"],"lastUpdated":1547527612696,"name":"Cow Creek Mercantile","phone":"(509) 659-0490","price":"$","reviewCount":101,"reviewScore":4.5,"meta":{"revision":0,"created":1547531152628,"version":0},"$loki":9},{"_id":"5c3d65bd3525a329e0c123d6","address":"105 S Washington St","location":{"type":"Point","coordinates":[-118.3785375,47.125613]},"isApproved":true,"items":[],"keys":["Bars","American (Traditional)","Social Clubs"],"lastUpdated":1547527612670,"name":"Eagles Lodge No 2739","phone":"(509) 659-1151","price":"","reviewCount":1,"reviewScore":4,"meta":{"revision":0,"created":1547531152628,"version":0},"$loki":10},{"_id":"5c3d65bd3525a329e0c1472d","address":"119 W Main Ave","location":{"type":"Point","coordinates":[-118.380547,47.126957]},"isApproved":true,"items":[],"keys":["Sports Bars","American (Traditional)"],"lastUpdated":1547527612721,"name":"Pastime Bar & Grill","phone":"(509) 659-0222","price":"","reviewCount":3,"reviewScore":3.5,"meta":{"revision":0,"created":1547531152628,"version":0},"$loki":11},{"_id":"5c3d65bd3525a329e0c10189","address":"632 N Main St","location":{"type":"Point","coordinates":[-118.3815388,47.1265959]},"isApproved":true,"items":[],"keys":["Bakeries","Grocery","Florists","Delis"],"lastUpdated":1547527612610,"name":"Rosauers Food & Drug","phone":"(509) 397-4651","price":"","reviewCount":4,"reviewScore":4.5,"meta":{"revision":0,"created":1547531152628,"version":0},"$loki":12},{"_id":"5c3d65bd3525a329e0c06e71","address":"1604 W 1st Ave","location":{"type":"Point","coordinates":[-118.390570688265,47.116089856861]},"isApproved":true,"items":[],"keys":["American (Traditional)"],"lastUpdated":1547527612387,"name":"Jake’s Cafe","phone":"(509) 659-1961","price":"$","reviewCount":46,"reviewScore":3.5,"meta":{"revision":0,"created":1547531152628,"version":0},"$loki":13}],"idIndex":[1,2,3,4,5,6,7,8,9,10,11,12,13],"binaryIndices":{},"constraints":null,"uniqueNames":[],"transforms":{},"objType":"restaurants","dirty":true,"cachedIndex":null,"cachedBinaryIndex":null,"cachedData":null,"adaptiveBinaryIndices":true,"transactional":false,"cloneObjects":false,"cloneMethod":"parse-stringify","asyncListeners":false,"disableMeta":false,"disableChangesApi":true,"disableDeltaChangesApi":true,"autoupdate":false,"serializableIndices":true,"ttl":null,"maxId":13,"DynamicViews":[],"events":{"insert":[],"update":[],"pre-insert":[],"pre-update":[],"close":[],"flushbuffer":[],"error":[],"delete":[null],"warning":[null]},"changes":[]}],"databaseVersion":1.5,"engineVersion":1.5,"autosave":false,"autosaveInterval":5000,"autosaveHandle":null,"throttledSaves":true,"options":{"serializationMethod":"normal","destructureDelimiter":"$<\n"},"persistenceMethod":"fs","persistenceAdapter":null,"verbose":false,"events":{"init":[null],"loaded":[],"flushChanges":[],"close":[],"changes":[],"warning":[]},"ENV":"NODEJS"}