{"filename":"-118.75-33.75","collections":[{"name":"restaurants","data":[{"_id":"5c3d65bd3525a329e0c03d93","address":"22706 Pacific Coast Hwy","location":{"type":"Point","coordinates":[-118.669643997761,34.0389377771854]},"isApproved":true,"items":[],"keys":["Sushi Bars","Japanese","Asian Fusion"],"lastUpdated":1547527612313,"name":"Nobu Malibu","phone":"(310) 317-9140","price":"$$$$","reviewCount":1917,"reviewScore":4,"meta":{"revision":0,"created":1547531151221,"version":0},"$loki":1},{"_id":"5c3d65bd3525a329e0c0636d","address":"1906 Ocean Ave","location":{"type":"Point","coordinates":[-118.670433044434,34.038986]},"isApproved":true,"items":[],"keys":["Caribbean","New Mexican Cuisine","Chicken Shop"],"lastUpdated":1547527612369,"name":"Cha Cha Chicken","phone":"(310) 581-1684","price":"$$","reviewCount":1922,"reviewScore":4,"meta":{"revision":0,"created":1547531151221,"version":0},"$loki":2},{"_id":"5c3d65bd3525a329e0c1518c","address":"30760 Russell Ranch Rd","location":{"type":"Point","coordinates":[-118.6709971,34.0395626]},"isApproved":true,"items":[],"keys":["Salad"],"lastUpdated":1547527612737,"name":"Greens Up!","phone":"(818) 735-9770","price":"$$","reviewCount":115,"reviewScore":4,"meta":{"revision":0,"created":1547531151221,"version":0},"$loki":3},{"_id":"5c3d65bd3525a329e0c0447a","address":"Temescal Canyon","location":{"type":"Point","coordinates":[-118.666843,34.040149]},"isApproved":true,"items":[],"keys":["Mexican","Food"],"lastUpdated":1547527612322,"name":"Galvan Food Catering Truck","phone":"(310) 308-4453","price":"$","reviewCount":6,"reviewScore":4,"meta":{"revision":0,"created":1547531151221,"version":0},"$loki":4},{"_id":"5c3d65bd3525a329e0c182a8","address":"3835 Cross Creek Rd","location":{"type":"Point","coordinates":[-118.659256785318,34.039464751393]},"isApproved":true,"items":[],"keys":["Italian"],"lastUpdated":1547527612813,"name":"Tra di Noi","phone":"(310) 456-0169","price":"$$","reviewCount":297,"reviewScore":3.5,"meta":{"revision":0,"created":1547531151221,"version":0},"$loki":5},{"_id":"5c3d65bd3525a329e0c0e112","address":"1975 Lockwood St","location":{"type":"Point","coordinates":[-118.6376668,34.0374085]},"isApproved":true,"items":[],"keys":["Tacos","Food Trucks"],"lastUpdated":1547527612565,"name":"El Taco Rico","phone":"(805) 539-9310","price":"$","reviewCount":12,"reviewScore":5,"meta":{"revision":0,"created":1547531151221,"version":0},"$loki":6},{"_id":"5c3d65bd3525a329e0c1015d","address":"21150 Pacific Coast Hwy","location":{"type":"Point","coordinates":[-118.635889,34.03644]},"isApproved":true,"items":[],"keys":["American (New)","Seafood","Breakfast & Brunch"],"lastUpdated":1547527612610,"name":"Duke’s Malibu","phone":"(310) 317-0777","price":"$$","reviewCount":2302,"reviewScore":3.5,"meta":{"revision":0,"created":1547531151221,"version":0},"$loki":7},{"_id":"5c3d65bd3525a329e0c1ac24","address":"920 N Ventura Ave","location":{"type":"Point","coordinates":[-118.618571,34.037591]},"isApproved":true,"items":[],"keys":["Mexican"],"lastUpdated":1547527612869,"name":"El Asadero","phone":"(805) 641-3682","price":"$","reviewCount":24,"reviewScore":4.5,"meta":{"revision":0,"created":1547531151221,"version":0},"$loki":8},{"_id":"5c3d65bd3525a329e0c0a1bb","address":"1403 2nd St","location":{"type":"Point","coordinates":[-118.5840681,34.039074]},"isApproved":true,"items":[],"keys":["Ramen","Noodles"],"lastUpdated":1547527612473,"name":"Ippudo","phone":"(310) 893-0577","price":"","reviewCount":82,"reviewScore":4,"meta":{"revision":0,"created":1547531151221,"version":0},"$loki":9},{"_id":"5c3d65bd3525a329e0c053c5","address":"22855 Victory Blvd","location":{"type":"Point","coordinates":[-118.3995194,33.8622366]},"isApproved":true,"items":[],"keys":["Food Trucks","Burgers","Fast Food"],"lastUpdated":1547527612346,"name":"Daniels Food","phone":"(818) 284-8653","price":"$","reviewCount":22,"reviewScore":5,"meta":{"revision":0,"created":1547531151221,"version":0},"$loki":10},{"_id":"5c3d65bd3525a329e0c17de8","address":"30745 Pacific Coast Hwy","location":{"type":"Point","coordinates":[-118.8427863,34.0309898]},"isApproved":true,"items":[],"keys":["American (New)","Wine Bars","Breakfast & Brunch"],"lastUpdated":1547527612801,"name":"Kristy’s Village Cafe","phone":"(310) 457-1018","price":"$$","reviewCount":526,"reviewScore":4,"meta":{"revision":0,"created":1547531151221,"version":0},"$loki":11},{"_id":"5c3d65bd3525a329e0c06cad","address":"6800 Westward Beach Rd","location":{"type":"Point","coordinates":[-118.8165958,34.0110923]},"isApproved":true,"items":[],"keys":["American (New)","Seafood"],"lastUpdated":1547527612386,"name":"The Sunset Restaurant","phone":"(310) 589-1007","price":"$$$","reviewCount":856,"reviewScore":3.5,"meta":{"revision":0,"created":1547531151221,"version":0},"$loki":12},{"_id":"5c3d65bd3525a329e0c05a67","address":"29575 Pacific Coast Hwy","location":{"type":"Point","coordinates":[-118.8188597,34.0170701]},"isApproved":true,"items":[],"keys":["Beer, Wine & Spirits","Sandwiches","Convenience Stores"],"lastUpdated":1547527612356,"name":"Malibu Ranch Market","phone":"(310) 457-9499","price":"$","reviewCount":29,"reviewScore":4,"meta":{"revision":0,"created":1547531151221,"version":0},"$loki":13},{"_id":"5c3d65bd3525a329e0c042af","address":"1315 3rd Street Promenade","location":{"type":"Point","coordinates":[-118.8235194,34.0167291]},"isApproved":true,"items":[],"keys":["Hot Dogs","Burgers","Asian Fusion"],"lastUpdated":1547527612321,"name":"Sumo Dog","phone":"(310) 319-5380","price":"","reviewCount":28,"reviewScore":4,"meta":{"revision":0,"created":1547531151221,"version":0},"$loki":14},{"_id":"5c3d65bd3525a329e0c16f04","address":"14711 Princeton Ave","location":{"type":"Point","coordinates":[-118.769803145302,34.0252888067759]},"isApproved":true,"items":[],"keys":["Peruvian"],"lastUpdated":1547527612781,"name":"Amazon Peruvian Restaurant","phone":"(805) 552-4266","price":"$$","reviewCount":182,"reviewScore":4.5,"meta":{"revision":0,"created":1547531151221,"version":0},"$loki":15},{"_id":"5c3d65bd3525a329e0bff9b0","address":"28128 Pacific Coast Hwy","location":{"type":"Point","coordinates":[-118.7870921,34.02021]},"isApproved":true,"items":[],"keys":["Seafood","American (Traditional)","Cafes"],"lastUpdated":1547527612219,"name":"Paradise Cove Beach Cafe","phone":"(310) 457-2503","price":"$$","reviewCount":2368,"reviewScore":3,"meta":{"revision":0,"created":1547531151221,"version":0},"$loki":16},{"_id":"5c3d65bd3525a329e0c15cdc","address":"796 Main St","location":{"type":"Point","coordinates":[-118.8014927,34.0212617]},"isApproved":true,"items":[],"keys":["Wine Bars","Italian"],"lastUpdated":1547527612755,"name":"Barrique","phone":"(310) 399-9010","price":"$$$","reviewCount":382,"reviewScore":4.5,"meta":{"revision":0,"created":1547531151221,"version":0},"$loki":17},{"_id":"5c3d65bd3525a329e0c09ffe","address":"3835 Cross Creek Rd","location":{"type":"Point","coordinates":[-118.813022,34.0191286]},"isApproved":true,"items":[],"keys":["Health Markets","Sandwiches","Juice Bars & Smoothies"],"lastUpdated":1547527612472,"name":"John’s Garden Fresh Health Store","phone":"(310) 456-8377","price":"$$","reviewCount":232,"reviewScore":4,"meta":{"revision":0,"created":1547531151221,"version":0},"$loki":18},{"_id":"5c3d65bd3525a329e0c12a1f","address":"5050 Cornell Rd","location":{"type":"Point","coordinates":[-118.813022,34.0191286]},"isApproved":true,"items":[],"keys":["Barbeque","American (Traditional)","Bars"],"lastUpdated":1547527612679,"name":"Wood Ranch BBQ & Grill","phone":"(818) 597-8900","price":"$$","reviewCount":683,"reviewScore":3.5,"meta":{"revision":0,"created":1547531151221,"version":0},"$loki":19},{"_id":"5c3d65bd3525a329e0c08b34","address":"22969 Pacific Coast Hwy","location":{"type":"Point","coordinates":[-118.8100626,34.0211179]},"isApproved":true,"items":[],"keys":["Mexican","Seafood"],"lastUpdated":1547527612436,"name":"Casa Escobar - Malibu Beach","phone":"(310) 456-1999","price":"$$","reviewCount":436,"reviewScore":3.5,"meta":{"revision":0,"created":1547531151221,"version":0},"$loki":20},{"_id":"5c3d65bd3525a329e0c0a947","address":"17336 W Sunset Blvd","location":{"type":"Point","coordinates":[-118.8094708,34.021229]},"isApproved":true,"items":[],"keys":["Mexican","Caterers","Mediterranean"],"lastUpdated":1547527612482,"name":"Fiesta Feast","phone":"(310) 459-7380","price":"$","reviewCount":91,"reviewScore":4,"meta":{"revision":0,"created":1547531151221,"version":0},"$loki":21},{"_id":"5c3d65bd3525a329e0c00957","address":"29169 Heathercliff Rd","location":{"type":"Point","coordinates":[-118.8095934,34.0214743]},"isApproved":true,"items":[],"keys":["Gastropubs","American (Traditional)"],"lastUpdated":1547527612229,"name":"Ollie’s Duck and Dive","phone":"(310) 589-2200","price":"$$","reviewCount":402,"reviewScore":4,"meta":{"revision":0,"created":1547531151221,"version":0},"$loki":22},{"_id":"5c3d65bd3525a329e0c05247","address":"30990 Russell Ranch Rd","location":{"type":"Point","coordinates":[-118.80767583847,34.0219509440675]},"isApproved":true,"items":[],"keys":["Breakfast & Brunch","American (Traditional)"],"lastUpdated":1547527612346,"name":"CiCi’s","phone":"(818) 874-3391","price":"$$","reviewCount":485,"reviewScore":4,"meta":{"revision":0,"created":1547531151221,"version":0},"$loki":23},{"_id":"5c3d65bd3525a329e0c0dad1","address":"751 Linden Ave","location":{"type":"Point","coordinates":[-118.675600891263,34.0356057756051]},"isApproved":true,"items":[],"keys":["Mexican"],"lastUpdated":1547527612556,"name":"Tacos Don Roge","phone":"(805) 566-6546","price":"$","reviewCount":144,"reviewScore":4,"meta":{"revision":0,"created":1547531151221,"version":0},"$loki":24},{"_id":"5c3d65bd3525a329e0c0ec03","address":"2518 Main St","location":{"type":"Point","coordinates":[-118.6758169,34.038204]},"isApproved":true,"items":[],"keys":["Spanish","Tapas Bars"],"lastUpdated":1547527612582,"name":"Manchego","phone":"(310) 450-3900","price":"$$","reviewCount":731,"reviewScore":4.5,"meta":{"revision":0,"created":1547531151221,"version":0},"$loki":25},{"_id":"5c3d65bd3525a329e0c02b65","address":"18661 Pacific Coast Hwy","location":{"type":"Point","coordinates":[-118.6743768,34.038109]},"isApproved":true,"items":[],"keys":["Seafood","Fish & Chips","Bars"],"lastUpdated":1547527612286,"name":"Reel Inn Malibu","phone":"(310) 456-8221","price":"$$","reviewCount":879,"reviewScore":3.5,"meta":{"revision":0,"created":1547531151221,"version":0},"$loki":26},{"_id":"5c3d65bd3525a329e0c09555","address":"8300 Tampa Ave","location":{"type":"Point","coordinates":[-118.6732272,34.0390487]},"isApproved":true,"items":[],"keys":["Asian Fusion"],"lastUpdated":1547527612453,"name":"MAMBO INTERNATIONAL KITCHEN","phone":"(747) 777-3511","price":"","reviewCount":67,"reviewScore":4,"meta":{"revision":0,"created":1547531151221,"version":0},"$loki":27},{"_id":"5c3d65bd3525a329e0c0ef9d","address":"South Rose Ave","location":{"type":"Point","coordinates":[-118.6770196,34.0378378]},"isApproved":true,"items":[],"keys":["Food Trucks","Mexican"],"lastUpdated":1547527612589,"name":"Tacos De Jerez","phone":"(805) 746-1564","price":"","reviewCount":11,"reviewScore":5,"meta":{"revision":0,"created":1547531151221,"version":0},"$loki":28},{"_id":"5c3d65bd3525a329e0c02b57","address":"6600 Topanga Canyon Blvd","location":{"type":"Point","coordinates":[-118.6765343,34.0372239]},"isApproved":true,"items":[],"keys":["Vegan","Falafel","Kosher"],"lastUpdated":1547527612286,"name":"Fala Bar","phone":"(818) 912-6776","price":"","reviewCount":34,"reviewScore":4,"meta":{"revision":0,"created":1547531151221,"version":0},"$loki":29},{"_id":"5c3d65bd3525a329e0c0cb50","address":"2702 Main St","location":{"type":"Point","coordinates":[-118.68478968782,34.0360266217356]},"isApproved":true,"items":[],"keys":["Irish","Pubs","Burgers"],"lastUpdated":1547527612533,"name":"Finn McCool’s","phone":"(310) 452-1734","price":"$$","reviewCount":479,"reviewScore":3.5,"meta":{"revision":0,"created":1547531151221,"version":0},"$loki":30},{"_id":"5c3d65bd3525a329e0c08048","address":"","location":{"type":"Point","coordinates":[-118.684076,34.035249]},"isApproved":true,"items":[],"keys":["Persian/Iranian","Food Stands"],"lastUpdated":1547527612419,"name":"Baaz Bites","phone":"(310) 433-5396","price":"","reviewCount":4,"reviewScore":5,"meta":{"revision":0,"created":1547531151221,"version":0},"$loki":31},{"_id":"5c3d65bd3525a329e0c17cbe","address":"22878 Pacific Coast Hwy","location":{"type":"Point","coordinates":[-118.684207,34.035034]},"isApproved":true,"items":[],"keys":["American (New)","Breakfast & Brunch"],"lastUpdated":1547527612800,"name":"Carbon Beach Club","phone":"(310) 460-7509","price":"$$$","reviewCount":192,"reviewScore":3.5,"meta":{"revision":0,"created":1547531151221,"version":0},"$loki":32},{"_id":"5c3d65bd3525a329e0c0d09c","address":"602 Santa Monica Blvd","location":{"type":"Point","coordinates":[-118.685714748435,34.0346089792598]},"isApproved":true,"items":[],"keys":["American (New)","Desserts","Beer Bar"],"lastUpdated":1547527612544,"name":"Tar & Roses","phone":"(310) 587-0700","price":"$$$","reviewCount":1985,"reviewScore":4.5,"meta":{"revision":0,"created":1547531151221,"version":0},"$loki":33},{"_id":"5c3d65bd3525a329e0c19b5f","address":"1315 3rd Street Promenade","location":{"type":"Point","coordinates":[-118.6864288,34.0358779597018]},"isApproved":true,"items":[],"keys":["Pizza"],"lastUpdated":1547527612849,"name":"Paperboy","phone":"(310) 319-6211","price":"","reviewCount":25,"reviewScore":4.5,"meta":{"revision":0,"created":1547531151221,"version":0},"$loki":34},{"_id":"5c3d65bd3525a329e0c04230","address":"5146 Kanan Rd","location":{"type":"Point","coordinates":[-118.685701,34.035978]},"isApproved":true,"items":[],"keys":["Indian"],"lastUpdated":1547527612321,"name":"Lal Mirch Indian Restaurant","phone":"(818) 312-9690","price":"$$","reviewCount":623,"reviewScore":4.5,"meta":{"revision":0,"created":1547531151221,"version":0},"$loki":35},{"_id":"5c3d65bd3525a329e0c1975c","address":"1212 3rd St Promenade","location":{"type":"Point","coordinates":[-118.685725,34.0359]},"isApproved":true,"items":[],"keys":["Cocktail Bars","Lounges","American (New)"],"lastUpdated":1547527612841,"name":"1212 Santa Monica","phone":"(310) 576-9996","price":"$$","reviewCount":608,"reviewScore":4,"meta":{"revision":0,"created":1547531151221,"version":0},"$loki":36},{"_id":"5c3d65bd3525a329e0c0903c","address":"3001 Wilshire Blvd","location":{"type":"Point","coordinates":[-118.6852314,34.0350964]},"isApproved":true,"items":[],"keys":["Greek","Mediterranean","Salad"],"lastUpdated":1547527612439,"name":"Luna Grill - Santa Monica","phone":"(424) 231-5862","price":"","reviewCount":76,"reviewScore":4.5,"meta":{"revision":0,"created":1547531151221,"version":0},"$loki":37},{"_id":"5c3d65bd3525a329e0c10e5e","address":"23410 Civic Ctr Way","location":{"type":"Point","coordinates":[-118.6859685,34.0365801]},"isApproved":true,"items":[],"keys":["Greek","Mediterranean","American (Traditional)"],"lastUpdated":1547527612634,"name":"Taverna Tony","phone":"(310) 317-9667","price":"$$$","reviewCount":730,"reviewScore":4,"meta":{"revision":0,"created":1547531151221,"version":0},"$loki":38},{"_id":"5c3d65bd3525a329e0c02857","address":"15306 W Sunset Blvd","location":{"type":"Point","coordinates":[-118.6924745,34.0336822]},"isApproved":true,"items":[],"keys":["Italian","Pizza"],"lastUpdated":1547527612285,"name":"Tratto","phone":"(424) 581-4000","price":"","reviewCount":38,"reviewScore":4.5,"meta":{"revision":0,"created":1547531151221,"version":0},"$loki":39},{"_id":"5c3d65bd3525a329e0c13cbe","address":"4435 McGrath St","location":{"type":"Point","coordinates":[-118.6928451,34.0339671]},"isApproved":true,"items":[],"keys":["Wine Bars","Tapas/Small Plates","American (Traditional)"],"lastUpdated":1547527612705,"name":"The Cave","phone":"(805) 642-9449","price":"$$","reviewCount":436,"reviewScore":4.5,"meta":{"revision":0,"created":1547531151221,"version":0},"$loki":40},{"_id":"5c3d65bd3525a329e0c17569","address":"258 Santa Monica Pier","location":{"type":"Point","coordinates":[-118.692901322561,34.0340530122091]},"isApproved":true,"items":[],"keys":["Seafood"],"lastUpdated":1547527612790,"name":"The Albright","phone":"(310) 394-9683","price":"$$","reviewCount":1241,"reviewScore":4,"meta":{"revision":0,"created":1547531151221,"version":0},"$loki":41},{"_id":"5c3d65bd3525a329e0c0d5da","address":"148 S Barrington Ave","location":{"type":"Point","coordinates":[-118.7037647,34.0327657]},"isApproved":true,"items":[],"keys":["American (Traditional)","Lounges"],"lastUpdated":1547527612548,"name":"Brentwood Restaurant & Lounge","phone":"(310) 476-3511","price":"$$$","reviewCount":155,"reviewScore":3.5,"meta":{"revision":0,"created":1547531151221,"version":0},"$loki":42},{"_id":"5c3d65bd3525a329e0c13aae","address":"5 Dudley Ave","location":{"type":"Point","coordinates":[-118.7420834,34.0334663]},"isApproved":true,"items":[],"keys":["Ramen"],"lastUpdated":1547527612699,"name":"Ramen Go","phone":"(310) 314-3222","price":"","reviewCount":36,"reviewScore":4.5,"meta":{"revision":0,"created":1547531151221,"version":0},"$loki":43},{"_id":"5c3d65bd3525a329e0c08e4f","address":"1708-B Victoria Ave","location":{"type":"Point","coordinates":[-118.73505,34.033779]},"isApproved":true,"items":[],"keys":["Barbeque"],"lastUpdated":1547527612438,"name":"CJ’s Barbecue - Ventura","phone":"(805) 676-1905","price":"$$","reviewCount":123,"reviewScore":3.5,"meta":{"revision":0,"created":1547531151221,"version":0},"$loki":44},{"_id":"5c3d65bd3525a329e0c0c3c5","address":"330 Santa Monica Pier","location":{"type":"Point","coordinates":[-118.708101035662,34.0402073914461]},"isApproved":true,"items":[],"keys":["Seafood"],"lastUpdated":1547527612523,"name":"Pier Burger","phone":"(310) 587-2747","price":"$","reviewCount":495,"reviewScore":4,"meta":{"revision":0,"created":1547531151221,"version":0},"$loki":45},{"_id":"5c3d65bd3525a329e0c1387d","address":"2807 Main St","location":{"type":"Point","coordinates":[-118.707317,34.038009]},"isApproved":true,"items":[],"keys":["Beer Gardens","American (New)","Breakfast & Brunch"],"lastUpdated":1547527612698,"name":"Ashland Hill","phone":"(310) 392-3300","price":"$$","reviewCount":603,"reviewScore":4,"meta":{"revision":0,"created":1547531151221,"version":0},"$loki":46},{"_id":"5c3d65bd3525a329e0c1b576","address":"30315 Canwood St","location":{"type":"Point","coordinates":[-118.69247126206,34.0385280804322]},"isApproved":true,"items":[],"keys":["Ramen","Pop-Up Restaurants"],"lastUpdated":1547527612886,"name":"The Naked Ramen","phone":"(818) 874-9400","price":"$$","reviewCount":88,"reviewScore":3.5,"meta":{"revision":0,"created":1547531151221,"version":0},"$loki":47}],"idIndex":[1,2,3,4,5,6,7,8,9,10,11,12,13,14,15,16,17,18,19,20,21,22,23,24,25,26,27,28,29,30,31,32,33,34,35,36,37,38,39,40,41,42,43,44,45,46,47],"binaryIndices":{},"constraints":null,"uniqueNames":[],"transforms":{},"objType":"restaurants","dirty":true,"cachedIndex":null,"cachedBinaryIndex":null,"cachedData":null,"adaptiveBinaryIndices":true,"transactional":false,"cloneObjects":false,"cloneMethod":"parse-stringify","asyncListeners":false,"disableMeta":false,"disableChangesApi":true,"disableDeltaChangesApi":true,"autoupdate":false,"serializableIndices":true,"ttl":null,"maxId":47,"DynamicViews":[],"events":{"insert":[],"update":[],"pre-insert":[],"pre-update":[],"close":[],"flushbuffer":[],"error":[],"delete":[null],"warning":[null]},"changes":[]}],"databaseVersion":1.5,"engineVersion":1.5,"autosave":false,"autosaveInterval":5000,"autosaveHandle":null,"throttledSaves":true,"options":{"serializationMethod":"normal","destructureDelimiter":"$<\n"},"persistenceMethod":"fs","persistenceAdapter":null,"verbose":false,"events":{"init":[null],"loaded":[],"flushChanges":[],"close":[],"changes":[],"warning":[]},"ENV":"NODEJS"}