{"filename":"-119.5-38.25","collections":[{"name":"restaurants","data":[{"_id":"5c3d65bd3525a329e0c17f4b","address":"7647 State Hwy 120","location":{"type":"Point","coordinates":[-119.822908,38.321855]},"isApproved":true,"items":[],"keys":["Diners","Bars","American (Traditional)"],"lastUpdated":1547527612802,"name":"Buck Meadows Restaurant","phone":"(209) 962-5181","price":"$$","reviewCount":155,"reviewScore":3,"meta":{"revision":0,"created":1547531153124,"version":0},"$loki":1},{"_id":"5c3d65bd3525a329e0c01adb","address":"4051 Mcmwtc","location":{"type":"Point","coordinates":[-119.511993951837,38.3597733168111]},"isApproved":true,"items":[],"keys":["Salad","Pizza","Sandwiches"],"lastUpdated":1547527612258,"name":"Pickel Chalet","phone":"(760) 932-1532","price":"$","reviewCount":5,"reviewScore":3.5,"meta":{"revision":0,"created":1547531153124,"version":0},"$loki":2},{"_id":"5c3d65bd3525a329e0c13b77","address":"588 Old Mammoth Rd","location":{"type":"Point","coordinates":[-119.332741203468,38.1718165417427]},"isApproved":true,"items":[],"keys":["Juice Bars & Smoothies","Creperies","Vegan"],"lastUpdated":1547527612704,"name":"Garden Of Eatn and Catering","phone":"(760) 934-1999","price":"$$","reviewCount":131,"reviewScore":3.5,"meta":{"revision":0,"created":1547531153124,"version":0},"$loki":3},{"_id":"5c3d65bd3525a329e0c178e9","address":"70847 US Hwy 395","location":{"type":"Point","coordinates":[-119.2038124,38.1870537]},"isApproved":true,"items":[],"keys":["Breakfast & Brunch","Italian","Pizza"],"lastUpdated":1547527612792,"name":"Virginia Creek Settlement Restaurant","phone":"(760) 932-7780","price":"$$","reviewCount":74,"reviewScore":4.5,"meta":{"revision":0,"created":1547531153124,"version":0},"$loki":4},{"_id":"5c3d65bd3525a329e0c0b032","address":"21 Hayes St","location":{"type":"Point","coordinates":[-119.224188640795,38.2555334494464]},"isApproved":true,"items":[],"keys":["Mexican"],"lastUpdated":1547527612492,"name":"Three95 Mexican Cafe","phone":"(760) 616-4829","price":"$$","reviewCount":63,"reviewScore":4.5,"meta":{"revision":0,"created":1547531153124,"version":0},"$loki":5},{"_id":"5c3d65bd3525a329e0c1b33b","address":"152 Main St","location":{"type":"Point","coordinates":[-119.2259716,38.2564423]},"isApproved":true,"items":[],"keys":["Burgers"],"lastUpdated":1547527612883,"name":"Burger Barn","phone":"(760) 932-7775","price":"$","reviewCount":200,"reviewScore":4.5,"meta":{"revision":0,"created":1547531153124,"version":0},"$loki":6},{"_id":"5c3d65bd3525a329e0c1324b","address":"6201 Minaret","location":{"type":"Point","coordinates":[-119.227172993124,38.2557907481384]},"isApproved":true,"items":[],"keys":["Fast Food","Mediterranean","Sandwiches"],"lastUpdated":1547527612689,"name":"Pita Pit","phone":"(760) 924-7482","price":"$","reviewCount":238,"reviewScore":4,"meta":{"revision":0,"created":1547531153124,"version":0},"$loki":7},{"_id":"5c3d65bd3525a329e0c0dada","address":"3228 Main St","location":{"type":"Point","coordinates":[-119.227125,38.256215]},"isApproved":true,"items":[],"keys":["American (Traditional)"],"lastUpdated":1547527612556,"name":"The Resting Nomad","phone":"(760) 924-1124","price":"$$","reviewCount":47,"reviewScore":4,"meta":{"revision":0,"created":1547531153124,"version":0},"$loki":8},{"_id":"5c3d65bd3525a329e0c120f7","address":"178 Main St","location":{"type":"Point","coordinates":[-119.22668113245,38.256180108413]},"isApproved":true,"items":[],"keys":["Food Stands","American (Traditional)","Fast Food"],"lastUpdated":1547527612663,"name":"Jolly Kone","phone":"(760) 932-7555","price":"$","reviewCount":75,"reviewScore":4.5,"meta":{"revision":0,"created":1547531153124,"version":0},"$loki":9},{"_id":"5c3d65bd3525a329e0c115f2","address":"1528 Tavern Rd","location":{"type":"Point","coordinates":[-119.22831192878,38.255683841042]},"isApproved":true,"items":[],"keys":["Steakhouses","American (Traditional)"],"lastUpdated":1547527612649,"name":"The Mogul Restaurant","phone":"(760) 934-3039","price":"$$$","reviewCount":387,"reviewScore":4.5,"meta":{"revision":0,"created":1547531153124,"version":0},"$loki":10},{"_id":"5c3d65bd3525a329e0c10068","address":"645 Rainbow Ln","location":{"type":"Point","coordinates":[-119.227862,38.255635]},"isApproved":true,"items":[],"keys":["Food Stands"],"lastUpdated":1547527612610,"name":"Edge & Wedge","phone":"(760) 934-2571","price":"","reviewCount":4,"reviewScore":5,"meta":{"revision":0,"created":1547531153124,"version":0},"$loki":11},{"_id":"5c3d65bd3525a329e0c08991","address":"343 Old Mammoth Rd","location":{"type":"Point","coordinates":[-119.2300353,38.2559976]},"isApproved":true,"items":[],"keys":["American (New)","Breakfast & Brunch","Coffee & Tea"],"lastUpdated":1547527612429,"name":"The Warming Hut","phone":"(760) 965-0549","price":"","reviewCount":61,"reviewScore":5,"meta":{"revision":0,"created":1547531153124,"version":0},"$loki":12}],"idIndex":[1,2,3,4,5,6,7,8,9,10,11,12],"binaryIndices":{},"constraints":null,"uniqueNames":[],"transforms":{},"objType":"restaurants","dirty":true,"cachedIndex":null,"cachedBinaryIndex":null,"cachedData":null,"adaptiveBinaryIndices":true,"transactional":false,"cloneObjects":false,"cloneMethod":"parse-stringify","asyncListeners":false,"disableMeta":false,"disableChangesApi":true,"disableDeltaChangesApi":true,"autoupdate":false,"serializableIndices":true,"ttl":null,"maxId":12,"DynamicViews":[],"events":{"insert":[],"update":[],"pre-insert":[],"pre-update":[],"close":[],"flushbuffer":[],"error":[],"delete":[null],"warning":[null]},"changes":[]}],"databaseVersion":1.5,"engineVersion":1.5,"autosave":false,"autosaveInterval":5000,"autosaveHandle":null,"throttledSaves":true,"options":{"serializationMethod":"normal","destructureDelimiter":"$<\n"},"persistenceMethod":"fs","persistenceAdapter":null,"verbose":false,"events":{"init":[null],"loaded":[],"flushChanges":[],"close":[],"changes":[],"warning":[]},"ENV":"NODEJS"}