{"filename":"-119.25-36","collections":[{"name":"restaurants","data":[{"_id":"5c3d65bd3525a329e0c05936","address":"820 N Alta Ave","location":{"type":"Point","coordinates":[-119.3788553,36.2884383]},"isApproved":true,"items":[],"keys":["Pizza"],"lastUpdated":1547527612355,"name":"You-Be’s U-Bake Pizza","phone":"(559) 591-2615","price":"","reviewCount":11,"reviewScore":3,"meta":{"revision":0,"created":1547531148643,"version":0},"$loki":1},{"_id":"5c3d65bd3525a329e0c0266c","address":"1307 E Houston Ave","location":{"type":"Point","coordinates":[-119.330420231185,36.312064104707]},"isApproved":true,"items":[],"keys":["Mexican"],"lastUpdated":1547527612284,"name":"Taqueria Don Taco","phone":"(559) 635-2934","price":"$","reviewCount":18,"reviewScore":3,"meta":{"revision":0,"created":1547531148643,"version":0},"$loki":2},{"_id":"5c3d65bd3525a329e0c1b154","address":"1415 S Mineral King","location":{"type":"Point","coordinates":[-119.3477448,36.3114301]},"isApproved":true,"items":[],"keys":["Food Trucks","Tacos"],"lastUpdated":1547527612877,"name":"Matilda’s Tacos","phone":"(559) 679-0245","price":"$","reviewCount":7,"reviewScore":5,"meta":{"revision":0,"created":1547531148643,"version":0},"$loki":3},{"_id":"5c3d65bd3525a329e0c0310a","address":"505 S Chinowth St","location":{"type":"Point","coordinates":[-119.3475323,36.3114741]},"isApproved":true,"items":[],"keys":["Mexican"],"lastUpdated":1547527612295,"name":"Las Playas Restaurant","phone":"(559) 733-0382","price":"$$","reviewCount":44,"reviewScore":2.5,"meta":{"revision":0,"created":1547531148643,"version":0},"$loki":4},{"_id":"5c3d65bd3525a329e0c06745","address":"350 S Mooney Blvd","location":{"type":"Point","coordinates":[-119.347269,36.311641]},"isApproved":true,"items":[],"keys":["Bakeries","Breakfast & Brunch","American (Traditional)"],"lastUpdated":1547527612378,"name":"Marie Callender’s Restaurant & Bakery","phone":"(559) 738-1442","price":"$$","reviewCount":55,"reviewScore":2.5,"meta":{"revision":0,"created":1547531148643,"version":0},"$loki":5},{"_id":"5c3d65bd3525a329e0c056c1","address":"107 W Caldwell Ave","location":{"type":"Point","coordinates":[-119.3471299,36.3117012]},"isApproved":true,"items":[],"keys":["Fast Food","Burgers"],"lastUpdated":1547527612348,"name":"Jack In The Box","phone":"(559) 749-0191","price":"$","reviewCount":11,"reviewScore":3.5,"meta":{"revision":0,"created":1547531148643,"version":0},"$loki":6},{"_id":"5c3d65bd3525a329e0c11ce6","address":"601 E Bardsley Ave","location":{"type":"Point","coordinates":[-119.34494,36.306272]},"isApproved":true,"items":[],"keys":["Burgers","Fast Food"],"lastUpdated":1547527612660,"name":"Burger King","phone":"(559) 685-1958","price":"$$","reviewCount":14,"reviewScore":2.5,"meta":{"revision":0,"created":1547531148643,"version":0},"$loki":7},{"_id":"5c3d65bd3525a329e0c055cc","address":"670 Richgrove Dr","location":{"type":"Point","coordinates":[-119.3295103,36.2997226]},"isApproved":true,"items":[],"keys":["Mexican"],"lastUpdated":1547527612348,"name":"Taqueria Gudino","phone":"(661) 725-2500","price":"$","reviewCount":6,"reviewScore":4,"meta":{"revision":0,"created":1547531148643,"version":0},"$loki":8},{"_id":"5c3d65bd3525a329e0c0ef49","address":"4137 W Noble Ave","location":{"type":"Point","coordinates":[-119.3318604,36.2981633]},"isApproved":true,"items":[],"keys":["Sandwiches"],"lastUpdated":1547527612584,"name":"Port of Subs","phone":"(559) 733-1648","price":"$","reviewCount":3,"reviewScore":3,"meta":{"revision":0,"created":1547531148643,"version":0},"$loki":9},{"_id":"5c3d65bd3525a329e0c0df9c","address":"845 E Prosperity","location":{"type":"Point","coordinates":[-119.333666941572,36.2978652634984]},"isApproved":true,"items":[],"keys":["Fast Food","Chicken Wings","Chicken Shop"],"lastUpdated":1547527612564,"name":"KFC","phone":"(559) 688-0204","price":"$$","reviewCount":14,"reviewScore":2,"meta":{"revision":0,"created":1547531148643,"version":0},"$loki":10},{"_id":"5c3d65bd3525a329e0c060a2","address":"4015 W Caldwell Ave","location":{"type":"Point","coordinates":[-119.335427284241,36.2983520524488]},"isApproved":true,"items":[],"keys":["Steakhouses","Bars","American (Traditional)"],"lastUpdated":1547527612368,"name":"Tahoe Joe’s","phone":"(559) 429-6638","price":"$$","reviewCount":159,"reviewScore":3,"meta":{"revision":0,"created":1547531148643,"version":0},"$loki":11},{"_id":"5c3d65bd3525a329e0c13a94","address":"408 11th Ave","location":{"type":"Point","coordinates":[-119.3346529,36.2979251]},"isApproved":true,"items":[],"keys":["Mexican"],"lastUpdated":1547527612698,"name":"Mi Nayarit Mexican Restaurant","phone":"(661) 725-8941","price":"$$","reviewCount":30,"reviewScore":3,"meta":{"revision":0,"created":1547531148643,"version":0},"$loki":12},{"_id":"5c3d65bd3525a329e0c0aab8","address":"2129 S Mooney Blvd","location":{"type":"Point","coordinates":[-119.333905,36.2962317]},"isApproved":true,"items":[],"keys":["Burgers"],"lastUpdated":1547527612489,"name":"Triangle Burgers","phone":"","price":"$","reviewCount":28,"reviewScore":4,"meta":{"revision":0,"created":1547531148643,"version":0},"$loki":13},{"_id":"5c3d65bd3525a329e0c192f2","address":"3837 W Caldwell Ave","location":{"type":"Point","coordinates":[-119.3339019,36.2962317]},"isApproved":true,"items":[],"keys":["Mexican"],"lastUpdated":1547527612833,"name":"La Palapa","phone":"(559) 622-9898","price":"$$","reviewCount":93,"reviewScore":3.5,"meta":{"revision":0,"created":1547531148643,"version":0},"$loki":14},{"_id":"5c3d65bd3525a329e0c08cc6","address":"1400 N Ben Maddox Way","location":{"type":"Point","coordinates":[-119.3320676,36.2961698]},"isApproved":true,"items":[],"keys":["Burgers","Fast Food"],"lastUpdated":1547527612436,"name":"Jack In the Box","phone":"(559) 741-1116","price":"$","reviewCount":7,"reviewScore":3,"meta":{"revision":0,"created":1547531148643,"version":0},"$loki":15},{"_id":"5c3d65bd3525a329e0c17620","address":"1004 High St","location":{"type":"Point","coordinates":[-119.3531968,36.1963118]},"isApproved":true,"items":[],"keys":["Asian Fusion"],"lastUpdated":1547527612791,"name":"Maui Pho Too Fusion Grill","phone":"(661) 725-7888","price":"$$","reviewCount":100,"reviewScore":4,"meta":{"revision":0,"created":1547531148643,"version":0},"$loki":16},{"_id":"5c3d65bd3525a329e0c15816","address":"388 N Main St","location":{"type":"Point","coordinates":[-119.3530675,36.1958312]},"isApproved":true,"items":[],"keys":["Mexican"],"lastUpdated":1547527612747,"name":"Los Primos","phone":"(559) 300-1484","price":"","reviewCount":4,"reviewScore":5,"meta":{"revision":0,"created":1547531148643,"version":0},"$loki":17},{"_id":"5c3d65bd3525a329e0c02b49","address":"1146 E Success Dr","location":{"type":"Point","coordinates":[-119.352298947802,36.1954813124769]},"isApproved":true,"items":[],"keys":["Mexican","Bakeries"],"lastUpdated":1547527612286,"name":"Panaderia La Cabaña","phone":"(559) 784-5033","price":"$","reviewCount":7,"reviewScore":5,"meta":{"revision":0,"created":1547531148643,"version":0},"$loki":18},{"_id":"5c3d65bd3525a329e0c1b242","address":"1766 E Tulare Ave","location":{"type":"Point","coordinates":[-119.327409071728,36.1807400483943]},"isApproved":true,"items":[],"keys":["Tacos"],"lastUpdated":1547527612877,"name":"Tacos Tequila","phone":"(559) 467-5898","price":"$","reviewCount":28,"reviewScore":3.5,"meta":{"revision":0,"created":1547531148643,"version":0},"$loki":19},{"_id":"5c3d65bd3525a329e0c0d13c","address":"2290 N J St","location":{"type":"Point","coordinates":[-119.330103,36.180936]},"isApproved":true,"items":[],"keys":["Dive Bars","American (Traditional)"],"lastUpdated":1547527612545,"name":"Just One More Bar And Grill","phone":"","price":"$","reviewCount":2,"reviewScore":2.5,"meta":{"revision":0,"created":1547531148643,"version":0},"$loki":20},{"_id":"5c3d65bd3525a329e0c0d053","address":"302 N J St","location":{"type":"Point","coordinates":[-119.329974353313,36.1809346729656]},"isApproved":true,"items":[],"keys":["Sandwiches","Fast Food"],"lastUpdated":1547527612544,"name":"Subway","phone":"(559) 688-5989","price":"$","reviewCount":7,"reviewScore":2.5,"meta":{"revision":0,"created":1547531148643,"version":0},"$loki":21},{"_id":"5c3d65bd3525a329e0c028e9","address":"1517 El Monte Way","location":{"type":"Point","coordinates":[-119.327138,36.197588]},"isApproved":true,"items":[],"keys":["Mexican"],"lastUpdated":1547527612285,"name":"Mariscos Camaron Pelado","phone":"","price":"","reviewCount":20,"reviewScore":2.5,"meta":{"revision":0,"created":1547531148643,"version":0},"$loki":22},{"_id":"5c3d65bd3525a329e0c0ed6a","address":"3109 W Noble Ave","location":{"type":"Point","coordinates":[-119.326927699149,36.1971158308969]},"isApproved":true,"items":[],"keys":["Sushi Bars","Japanese"],"lastUpdated":1547527612582,"name":"Sushi Kuu","phone":"(559) 735-9680","price":"$$","reviewCount":291,"reviewScore":4.5,"meta":{"revision":0,"created":1547531148643,"version":0},"$loki":23},{"_id":"5c3d65bd3525a329e0c197d3","address":"416 E Tulare Ave","location":{"type":"Point","coordinates":[-119.3273556,36.1970361]},"isApproved":true,"items":[],"keys":["Italian","Pizza","Chicken Wings"],"lastUpdated":1547527612842,"name":"Pizza Hut","phone":"(559) 734-1100","price":"","reviewCount":17,"reviewScore":2,"meta":{"revision":0,"created":1547531148643,"version":0},"$loki":24},{"_id":"5c3d65bd3525a329e0bffb60","address":"250 E Antelope","location":{"type":"Point","coordinates":[-119.3432667,36.1940263]},"isApproved":true,"items":[],"keys":["Pizza"],"lastUpdated":1547527612220,"name":"Pizza Factory","phone":"(559) 564-3348","price":"$","reviewCount":13,"reviewScore":3,"meta":{"revision":0,"created":1547531148643,"version":0},"$loki":25},{"_id":"5c3d65bd3525a329e0bffd13","address":"1135 W Visalia Rd","location":{"type":"Point","coordinates":[-119.3419405,36.1921693]},"isApproved":true,"items":[],"keys":["Sandwiches","Fast Food"],"lastUpdated":1547527612222,"name":"Subway","phone":"(559) 592-5100","price":"","reviewCount":4,"reviewScore":3,"meta":{"revision":0,"created":1547531148643,"version":0},"$loki":26},{"_id":"5c3d65bd3525a329e0c0f43e","address":"1439 E Noble Ave","location":{"type":"Point","coordinates":[-119.3402433,36.1965827]},"isApproved":true,"items":[],"keys":["Pizza"],"lastUpdated":1547527612592,"name":"Little Caesars Pizza","phone":"(559) 636-9582","price":"$$","reviewCount":10,"reviewScore":2,"meta":{"revision":0,"created":1547531148643,"version":0},"$loki":27},{"_id":"5c3d65bd3525a329e0c10801","address":"1306 N Demaree St","location":{"type":"Point","coordinates":[-119.3441338,36.1978794]},"isApproved":true,"items":[],"keys":["Japanese","Sushi Bars"],"lastUpdated":1547527612619,"name":"Osaka Sushi & Japanese Cuisine","phone":"(559) 622-9988","price":"$$","reviewCount":149,"reviewScore":3.5,"meta":{"revision":0,"created":1547531148643,"version":0},"$loki":28},{"_id":"5c3d65bd3525a329e0c06a6a","address":"3511 W Walnut Ave","location":{"type":"Point","coordinates":[-119.344108588994,36.1978761134375]},"isApproved":true,"items":[],"keys":["Pizza"],"lastUpdated":1547527612379,"name":"Tony’s Pizza","phone":"(559) 624-1988","price":"$$","reviewCount":59,"reviewScore":3,"meta":{"revision":0,"created":1547531148643,"version":0},"$loki":29},{"_id":"5c3d65bd3525a329e0c04918","address":"1708 S Mooney Blvd","location":{"type":"Point","coordinates":[-119.326556883752,36.2111038477142]},"isApproved":true,"items":[],"keys":["Mexican","Burgers"],"lastUpdated":1547527612330,"name":"Los Arbolitos #3 Mooney","phone":"(559) 734-8226","price":"$","reviewCount":91,"reviewScore":4,"meta":{"revision":0,"created":1547531148643,"version":0},"$loki":30},{"_id":"5c3d65bd3525a329e0c0e4ed","address":"29095 Ave 56","location":{"type":"Point","coordinates":[-119.3260627,36.2107701]},"isApproved":true,"items":[],"keys":["Mexican"],"lastUpdated":1547527612573,"name":"Fountain Springs Tapatio Restaurant & Bar","phone":"(559) 534-5827","price":"","reviewCount":4,"reviewScore":4,"meta":{"revision":0,"created":1547531148643,"version":0},"$loki":31},{"_id":"5c3d65bd3525a329e0c061e5","address":"1940 Cecil Ave","location":{"type":"Point","coordinates":[-119.3304523,36.2103337]},"isApproved":true,"items":[],"keys":["Tex-Mex","Fast Food","Mexican"],"lastUpdated":1547527612369,"name":"Taco Bell","phone":"(661) 725-5552","price":"$","reviewCount":6,"reviewScore":4,"meta":{"revision":0,"created":1547531148643,"version":0},"$loki":32},{"_id":"5c3d65bd3525a329e0c054bc","address":"1600 E Tulare Ave","location":{"type":"Point","coordinates":[-119.3299926,36.2097267]},"isApproved":true,"items":[],"keys":["Italian","Pizza","Cocktail Bars"],"lastUpdated":1547527612347,"name":"La Piazza Ristorante Italiano","phone":"(559) 687-9833","price":"$$","reviewCount":127,"reviewScore":4,"meta":{"revision":0,"created":1547531148643,"version":0},"$loki":33},{"_id":"5c3d65bd3525a329e0c13efb","address":"215 Cecil Ave","location":{"type":"Point","coordinates":[-119.325483,36.2250836]},"isApproved":true,"items":[],"keys":["Mexican"],"lastUpdated":1547527612706,"name":"Taco Mex","phone":"(661) 721-9668","price":"$","reviewCount":27,"reviewScore":4.5,"meta":{"revision":0,"created":1547531148643,"version":0},"$loki":34},{"_id":"5c3d65bd3525a329e0c0443a","address":"1806 Cecil Ave","location":{"type":"Point","coordinates":[-119.3274505,36.2245748]},"isApproved":true,"items":[],"keys":["Pizza","Bars","Sandwiches"],"lastUpdated":1547527612322,"name":"Tony’s Pizza Parlor","phone":"(661) 725-6678","price":"$$","reviewCount":39,"reviewScore":3.5,"meta":{"revision":0,"created":1547531148643,"version":0},"$loki":35},{"_id":"5c3d65bd3525a329e0c05e16","address":"4109 S Mooney Blvd","location":{"type":"Point","coordinates":[-119.3273914,36.224606]},"isApproved":true,"items":[],"keys":["Tacos"],"lastUpdated":1547527612362,"name":"Javi’s Taco Shack","phone":"(559) 827-3565","price":"$","reviewCount":72,"reviewScore":3.5,"meta":{"revision":0,"created":1547531148643,"version":0},"$loki":36},{"_id":"5c3d65bd3525a329e0c03469","address":"16130 Sierra Way","location":{"type":"Point","coordinates":[-119.3270826,36.2263399]},"isApproved":true,"items":[],"keys":["Grocery","Hunting & Fishing Supplies","Delis"],"lastUpdated":1547527612302,"name":"Riverkern General Store","phone":"(760) 376-6565","price":"$","reviewCount":34,"reviewScore":4.5,"meta":{"revision":0,"created":1547531148643,"version":0},"$loki":37},{"_id":"5c3d65bd3525a329e0bff4ba","address":"2839 E Noble Ave","location":{"type":"Point","coordinates":[-119.3266502,36.2262995]},"isApproved":true,"items":[],"keys":["Burgers"],"lastUpdated":1547527612216,"name":"La Fiesta Burger","phone":"(559) 738-8995","price":"$","reviewCount":35,"reviewScore":4,"meta":{"revision":0,"created":1547531148643,"version":0},"$loki":38},{"_id":"5c3d65bd3525a329e0c0c43c","address":"202 North Plaza Drive","location":{"type":"Point","coordinates":[-119.32670906092,36.2282632138581]},"isApproved":true,"items":[],"keys":["Delis","Sandwiches"],"lastUpdated":1547527612524,"name":"Quiznos","phone":"(559) 651-1665","price":"","reviewCount":1,"reviewScore":3,"meta":{"revision":0,"created":1547531148643,"version":0},"$loki":39},{"_id":"5c3d65bd3525a329e0c070ec","address":"707 High St","location":{"type":"Point","coordinates":[-119.327332,36.228456]},"isApproved":true,"items":[],"keys":["Pizza","Bars"],"lastUpdated":1547527612389,"name":"Lr’s Pizza","phone":"(661) 725-7131","price":"$$","reviewCount":46,"reviewScore":2.5,"meta":{"revision":0,"created":1547531148643,"version":0},"$loki":40},{"_id":"5c3d65bd3525a329e0c0eba7","address":"3749 W Caldwell Ave","location":{"type":"Point","coordinates":[-119.3304744,36.2281669]},"isApproved":true,"items":[],"keys":["Burgers","Fast Food","Ice Cream & Frozen Yogurt"],"lastUpdated":1547527612581,"name":"Sonic Drive-In","phone":"(559) 739-9400","price":"$","reviewCount":19,"reviewScore":2.5,"meta":{"revision":0,"created":1547531148643,"version":0},"$loki":41},{"_id":"5c3d65bd3525a329e0c12f99","address":"906 11th Ave","location":{"type":"Point","coordinates":[-119.330422,36.228011]},"isApproved":true,"items":[],"keys":["Salvadoran","Mexican"],"lastUpdated":1547527612688,"name":"Alba Al Amanecer","phone":"(661) 454-6418","price":"$","reviewCount":2,"reviewScore":4.5,"meta":{"revision":0,"created":1547531148643,"version":0},"$loki":42},{"_id":"5c3d65bd3525a329e0c1a816","address":"3206 N Dinuba Blvd","location":{"type":"Point","coordinates":[-119.330304265022,36.226820609744]},"isApproved":true,"items":[],"keys":["Sandwiches","Fast Food"],"lastUpdated":1547527612867,"name":"Subway","phone":"(559) 627-5194","price":"$","reviewCount":12,"reviewScore":3,"meta":{"revision":0,"created":1547531148643,"version":0},"$loki":43},{"_id":"5c3d65bd3525a329e0c0cdb1","address":"505 E Tulare St","location":{"type":"Point","coordinates":[-119.3304337,36.2254118]},"isApproved":true,"items":[],"keys":["Mexican"],"lastUpdated":1547527612534,"name":"Me & Martha’s Restaurant","phone":"(559) 591-2298","price":"$$$","reviewCount":46,"reviewScore":3,"meta":{"revision":0,"created":1547531148643,"version":0},"$loki":44},{"_id":"5c3d65bd3525a329e0c15d71","address":"524 S Lovers Ln","location":{"type":"Point","coordinates":[-119.328828654777,36.2261173189367]},"isApproved":true,"items":[],"keys":["Pizza"],"lastUpdated":1547527612755,"name":"Food Gallery","phone":"(559) 732-2828","price":"","reviewCount":1,"reviewScore":5,"meta":{"revision":0,"created":1547531148643,"version":0},"$loki":45},{"_id":"5c3d65bd3525a329e0c0cb1d","address":"2031 S Mooney Blvd","location":{"type":"Point","coordinates":[-119.3281428,36.2262676]},"isApproved":true,"items":[],"keys":["Chinese"],"lastUpdated":1547527612533,"name":"Chinese Gourmet Express","phone":"(559) 635-8092","price":"","reviewCount":5,"reviewScore":3.5,"meta":{"revision":0,"created":1547531148643,"version":0},"$loki":46},{"_id":"5c3d65bd3525a329e0c0246e","address":"36005 Hwy 99","location":{"type":"Point","coordinates":[-119.3280386,36.2252564]},"isApproved":true,"items":[],"keys":["Barbeque"],"lastUpdated":1547527612277,"name":"Leo’s BBQ","phone":"(559) 803-0335","price":"$$","reviewCount":9,"reviewScore":4,"meta":{"revision":0,"created":1547531148643,"version":0},"$loki":47},{"_id":"5c3d65bd3525a329e0c117d6","address":"333 E Main St","location":{"type":"Point","coordinates":[-119.333295,36.224375]},"isApproved":true,"items":[],"keys":["Cajun/Creole","Music Venues"],"lastUpdated":1547527612650,"name":"Crawdaddy’s","phone":"(559) 625-5300","price":"$$","reviewCount":189,"reviewScore":3.5,"meta":{"revision":0,"created":1547531148643,"version":0},"$loki":48},{"_id":"5c3d65bd3525a329e0c19b3e","address":"5223 W Walnut Ave","location":{"type":"Point","coordinates":[-119.3312735,36.2253126]},"isApproved":true,"items":[],"keys":["Sandwiches"],"lastUpdated":1547527612849,"name":"Jimmy John’s","phone":"(559) 625-7827","price":"","reviewCount":6,"reviewScore":3,"meta":{"revision":0,"created":1547531148643,"version":0},"$loki":49},{"_id":"5c3d65bd3525a329e0c169dc","address":"460 W Vandalia Ave","location":{"type":"Point","coordinates":[-119.3313351,36.2260945]},"isApproved":true,"items":[],"keys":["Chinese","Fast Food"],"lastUpdated":1547527612773,"name":"Panda Express","phone":"(559) 783-8907","price":"$$","reviewCount":24,"reviewScore":2.5,"meta":{"revision":0,"created":1547531148643,"version":0},"$loki":50},{"_id":"5c3d65bd3525a329e0c19f5d","address":"1605 Inyo St","location":{"type":"Point","coordinates":[-119.330975,36.227639]},"isApproved":true,"items":[],"keys":["Chinese","Seafood","Buffets"],"lastUpdated":1547527612851,"name":"Golden China Buffet","phone":"(661) 720-0888","price":"$$","reviewCount":21,"reviewScore":3,"meta":{"revision":0,"created":1547531148643,"version":0},"$loki":51},{"_id":"5c3d65bd3525a329e0c146ce","address":"1012 W Henderson Ave","location":{"type":"Point","coordinates":[-119.3314154,36.2278601]},"isApproved":true,"items":[],"keys":["Sandwiches","Delis"],"lastUpdated":1547527612716,"name":"Port of Subs","phone":"(559) 781-4705","price":"$","reviewCount":3,"reviewScore":3,"meta":{"revision":0,"created":1547531148643,"version":0},"$loki":52},{"_id":"5c3d65bd3525a329e0c0c792","address":"3440 Hwy 99","location":{"type":"Point","coordinates":[-119.331418,36.227485]},"isApproved":true,"items":[],"keys":["Mexican"],"lastUpdated":1547527612526,"name":"Taqueria El Mexicano Mobile","phone":"","price":"","reviewCount":3,"reviewScore":4.5,"meta":{"revision":0,"created":1547531148643,"version":0},"$loki":53},{"_id":"5c3d65bd3525a329e0c03fbb","address":"1362 E Bardsley Ave","location":{"type":"Point","coordinates":[-119.336,36.2257]},"isApproved":true,"items":[],"keys":["Sandwiches","Fast Food"],"lastUpdated":1547527612319,"name":"Subway","phone":"(559) 688-6706","price":"","reviewCount":5,"reviewScore":2,"meta":{"revision":0,"created":1547531148643,"version":0},"$loki":54},{"_id":"5c3d65bd3525a329e0c178b5","address":"14390 County Line Rd","location":{"type":"Point","coordinates":[-119.3354971,36.225009]},"isApproved":true,"items":[],"keys":["American (Traditional)","Breakfast & Brunch","Diners"],"lastUpdated":1547527612792,"name":"Denny’s","phone":"(661) 720-9808","price":"$","reviewCount":34,"reviewScore":3,"meta":{"revision":0,"created":1547531148643,"version":0},"$loki":55},{"_id":"5c3d65bd3525a329e0c0ed74","address":"683 N Thompson Rd","location":{"type":"Point","coordinates":[-119.3379675,36.2229414]},"isApproved":true,"items":[],"keys":["Sandwiches","Fast Food"],"lastUpdated":1547527612582,"name":"Subway","phone":"(559) 752-4582","price":"","reviewCount":2,"reviewScore":1,"meta":{"revision":0,"created":1547531148643,"version":0},"$loki":56},{"_id":"5c3d65bd3525a329e0c19a38","address":"216 N Willis St","location":{"type":"Point","coordinates":[-119.3379675,36.2229414]},"isApproved":true,"items":[],"keys":["American (Traditional)"],"lastUpdated":1547527612848,"name":"Vintage Press","phone":"(559) 733-3033","price":"$$$","reviewCount":240,"reviewScore":4,"meta":{"revision":0,"created":1547531148643,"version":0},"$loki":57},{"_id":"5c3d65bd3525a329e0c1301e","address":"9000 W Airport Dr","location":{"type":"Point","coordinates":[-119.337379373645,36.2248694032902]},"isApproved":true,"items":[],"keys":["American (New)","Breakfast & Brunch"],"lastUpdated":1547527612688,"name":"Cafe California","phone":"(559) 651-5000","price":"$$","reviewCount":42,"reviewScore":3.5,"meta":{"revision":0,"created":1547531148643,"version":0},"$loki":58},{"_id":"5c3d65bd3525a329e0c00fcc","address":"19558 Ave 296","location":{"type":"Point","coordinates":[-119.337180107832,36.2255494289277]},"isApproved":true,"items":[],"keys":["Sandwiches","Fast Food"],"lastUpdated":1547527612238,"name":"Subway","phone":"(559) 594-9157","price":"$$","reviewCount":1,"reviewScore":1,"meta":{"revision":0,"created":1547531148643,"version":0},"$loki":59},{"_id":"5c3d65bd3525a329e0c047e3","address":"1301 E Houston Ave","location":{"type":"Point","coordinates":[-119.3366541,36.2261116]},"isApproved":true,"items":[],"keys":["Sandwiches","Fast Food"],"lastUpdated":1547527612330,"name":"Subway","phone":"(559) 738-8080","price":"","reviewCount":1,"reviewScore":5,"meta":{"revision":0,"created":1547531148643,"version":0},"$loki":60},{"_id":"5c3d65bd3525a329e0c05bbf","address":"1727 Cecil Ave","location":{"type":"Point","coordinates":[-119.338081,36.225569613161]},"isApproved":true,"items":[],"keys":["Ice Cream & Frozen Yogurt","Salad","Shaved Ice"],"lastUpdated":1547527612356,"name":"Paleteria y Neveria Las Michoacanas","phone":"(661) 261-8179","price":"$","reviewCount":5,"reviewScore":5,"meta":{"revision":0,"created":1547531148643,"version":0},"$loki":61},{"_id":"5c3d65bd3525a329e0c174d2","address":"221 S Mooney Blvd","location":{"type":"Point","coordinates":[-119.337784275413,36.2255653864319]},"isApproved":true,"items":[],"keys":["Food Trucks","Mediterranean"],"lastUpdated":1547527612790,"name":"Riba’s Kitchen","phone":"(559) 740-9479","price":"","reviewCount":5,"reviewScore":4,"meta":{"revision":0,"created":1547531148643,"version":0},"$loki":62},{"_id":"5c3d65bd3525a329e0c02620","address":"580 E Kern Ave","location":{"type":"Point","coordinates":[-119.3390778,36.2245311]},"isApproved":true,"items":[],"keys":["Pizza"],"lastUpdated":1547527612284,"name":"You-Be’s U-Bake Pizza","phone":"(559) 688-2997","price":"$","reviewCount":6,"reviewScore":4.5,"meta":{"revision":0,"created":1547531148643,"version":0},"$loki":63},{"_id":"5c3d65bd3525a329e0bffed8","address":"1125 High St","location":{"type":"Point","coordinates":[-119.341734390197,36.2245785115261]},"isApproved":true,"items":[],"keys":["Mexican","Seafood"],"lastUpdated":1547527612223,"name":"El Cosalteco","phone":"(661) 725-3185","price":"$$","reviewCount":10,"reviewScore":3,"meta":{"revision":0,"created":1547531148643,"version":0},"$loki":64},{"_id":"5c3d65bd3525a329e0c0be59","address":"3301 S Mooney Blvd","location":{"type":"Point","coordinates":[-119.3474996,36.2129424]},"isApproved":true,"items":[],"keys":["Breakfast & Brunch","Sandwiches"],"lastUpdated":1547527612515,"name":"Village Inn","phone":"(559) 625-9900","price":"","reviewCount":1,"reviewScore":1,"meta":{"revision":0,"created":1547531148643,"version":0},"$loki":65},{"_id":"5c3d65bd3525a329e0c1879d","address":"250 East Cross Ave","location":{"type":"Point","coordinates":[-119.3464732,36.2135475]},"isApproved":true,"items":[],"keys":["Mexican","Seafood","Burgers"],"lastUpdated":1547527612821,"name":"Rancho Grande Mexican Restaraunt","phone":"(559) 685-1859","price":"$$","reviewCount":11,"reviewScore":4,"meta":{"revision":0,"created":1547531148643,"version":0},"$loki":66},{"_id":"5c3d65bd3525a329e0c002ce","address":"5340 W Cypress Ave","location":{"type":"Point","coordinates":[-119.3478144,36.2107368]},"isApproved":true,"items":[],"keys":["Burgers","Fast Food"],"lastUpdated":1547527612225,"name":"Jack In the Box","phone":"(559) 739-7369","price":"$","reviewCount":9,"reviewScore":3.5,"meta":{"revision":0,"created":1547531148643,"version":0},"$loki":67},{"_id":"5c3d65bd3525a329e0c033ba","address":"500 E Tulare Ave","location":{"type":"Point","coordinates":[-119.3470219,36.2102517]},"isApproved":true,"items":[],"keys":["Chinese"],"lastUpdated":1547527612302,"name":"China Garden","phone":"(559) 687-9507","price":"$$","reviewCount":19,"reviewScore":4,"meta":{"revision":0,"created":1547531148643,"version":0},"$loki":68},{"_id":"5c3d65bd3525a329e0c0f42c","address":"210 W Center Ave","location":{"type":"Point","coordinates":[-119.3480291,36.2086881]},"isApproved":true,"items":[],"keys":["Coffee & Tea","Breakfast & Brunch","Cafes"],"lastUpdated":1547527612592,"name":"210 Cafe","phone":"(559) 739-9009","price":"$","reviewCount":30,"reviewScore":4,"meta":{"revision":0,"created":1547531148643,"version":0},"$loki":69},{"_id":"5c3d65bd3525a329e0c0676d","address":"127 W Main St","location":{"type":"Point","coordinates":[-119.3474865,36.2094618]},"isApproved":true,"items":[],"keys":["American (New)","Steakhouses"],"lastUpdated":1547527612378,"name":"Fugazzis","phone":"(559) 625-0496","price":"$$","reviewCount":232,"reviewScore":3.5,"meta":{"revision":0,"created":1547531148643,"version":0},"$loki":70},{"_id":"5c3d65bd3525a329e0c0f9ff","address":"233 W Main St","location":{"type":"Point","coordinates":[-119.3469164,36.2100243]},"isApproved":true,"items":[],"keys":["Diners"],"lastUpdated":1547527612601,"name":"Mama K’s Diner","phone":"","price":"$$","reviewCount":44,"reviewScore":4,"meta":{"revision":0,"created":1547531148643,"version":0},"$loki":71},{"_id":"5c3d65bd3525a329e0c0a34a","address":"1165 N Blackstone St","location":{"type":"Point","coordinates":[-119.3469148,36.2100303]},"isApproved":true,"items":[],"keys":["Breakfast & Brunch","American (Traditional)"],"lastUpdated":1547527612474,"name":"Apple Annie’s","phone":"(559) 686-3411","price":"$$","reviewCount":236,"reviewScore":4,"meta":{"revision":0,"created":1547531148643,"version":0},"$loki":72},{"_id":"5c3d65bd3525a329e0c1b2ea","address":"115 E Visalia Rd","location":{"type":"Point","coordinates":[-119.3455201,36.2102226]},"isApproved":true,"items":[],"keys":["Fast Food"],"lastUpdated":1547527612878,"name":"Rainbow Drive-In","phone":"(559) 747-0337","price":"$","reviewCount":16,"reviewScore":4.5,"meta":{"revision":0,"created":1547531148643,"version":0},"$loki":73},{"_id":"5c3d65bd3525a329e0c1198c","address":"145 E Pine St","location":{"type":"Point","coordinates":[-119.3448204,36.2103552]},"isApproved":true,"items":[],"keys":["Bakeries","Sandwiches","Breakfast & Brunch"],"lastUpdated":1547527612651,"name":"Hometown Emporium","phone":"(559) 592-1250","price":"$","reviewCount":28,"reviewScore":4,"meta":{"revision":0,"created":1547531148643,"version":0},"$loki":74},{"_id":"5c3d65bd3525a329e0c05192","address":"536 E Cross Ave","location":{"type":"Point","coordinates":[-119.3423978,36.2142862]},"isApproved":true,"items":[],"keys":["Delis","Sandwiches"],"lastUpdated":1547527612340,"name":"The Grocery Store","phone":"(559) 686-8511","price":"","reviewCount":3,"reviewScore":5,"meta":{"revision":0,"created":1547531148643,"version":0},"$loki":75},{"_id":"5c3d65bd3525a329e0c18d40","address":"1823 E Main St","location":{"type":"Point","coordinates":[-119.3419999,36.2088921]},"isApproved":true,"items":[],"keys":["Breakfast & Brunch","Sandwiches"],"lastUpdated":1547527612825,"name":"Dimples Diner","phone":"(559) 739-0469","price":"$","reviewCount":78,"reviewScore":4,"meta":{"revision":0,"created":1547531148643,"version":0},"$loki":76},{"_id":"5c3d65bd3525a329e0c1b135","address":"110 W Main St","location":{"type":"Point","coordinates":[-119.341081,36.208678]},"isApproved":true,"items":[],"keys":["Sandwiches","Fast Food"],"lastUpdated":1547527612877,"name":"Subway","phone":"(559) 625-5000","price":"$","reviewCount":12,"reviewScore":3,"meta":{"revision":0,"created":1547531148643,"version":0},"$loki":77},{"_id":"5c3d65bd3525a329e0c10f3e","address":"727 E Prosperity Ave","location":{"type":"Point","coordinates":[-119.3416834,36.2084439]},"isApproved":true,"items":[],"keys":["Mexican"],"lastUpdated":1547527612640,"name":"Chilito’s Restaurant","phone":"(559) 686-2445","price":"$$","reviewCount":46,"reviewScore":2.5,"meta":{"revision":0,"created":1547531148643,"version":0},"$loki":78},{"_id":"5c3d65bd3525a329e0c07f86","address":"325 E Main St","location":{"type":"Point","coordinates":[-119.3408695,36.207675]},"isApproved":true,"items":[],"keys":["Chinese"],"lastUpdated":1547527612418,"name":"Visalia Tea Garden","phone":"(559) 734-3604","price":"$$","reviewCount":20,"reviewScore":3,"meta":{"revision":0,"created":1547531148643,"version":0},"$loki":79},{"_id":"5c3d65bd3525a329e0c0dd7e","address":"1714 W Houston Ave","location":{"type":"Point","coordinates":[-119.3425572,36.2088426]},"isApproved":true,"items":[],"keys":["Delis"],"lastUpdated":1547527612563,"name":"Zapotlan Carniceria","phone":"(559) 733-4731","price":"","reviewCount":1,"reviewScore":1,"meta":{"revision":0,"created":1547531148643,"version":0},"$loki":80},{"_id":"5c3d65bd3525a329e0c156b3","address":"209 E Tulare Ave","location":{"type":"Point","coordinates":[-119.3458415,36.2079852]},"isApproved":true,"items":[],"keys":["Mexican"],"lastUpdated":1547527612746,"name":"Mikey V’s Cafe","phone":"(559) 688-8998","price":"$","reviewCount":59,"reviewScore":4.5,"meta":{"revision":0,"created":1547531148643,"version":0},"$loki":81},{"_id":"5c3d65bd3525a329e0c1a3c0","address":"210 E Tulare Ave","location":{"type":"Point","coordinates":[-119.346127334741,36.2086111381643]},"isApproved":true,"items":[],"keys":["Italian"],"lastUpdated":1547527612859,"name":"Rosa’s Trattoria & Bar","phone":"(559) 467-5681","price":"$$","reviewCount":74,"reviewScore":4.5,"meta":{"revision":0,"created":1547531148643,"version":0},"$loki":82},{"_id":"5c3d65bd3525a329e0c06c04","address":"2011 W Tulare Ave","location":{"type":"Point","coordinates":[-119.347264579334,36.2081778820448]},"isApproved":true,"items":[],"keys":["Pizza","Chicken Wings","Sandwiches"],"lastUpdated":1547527612386,"name":"Domino’s Pizza","phone":"(559) 627-8888","price":"$","reviewCount":23,"reviewScore":2.5,"meta":{"revision":0,"created":1547531148643,"version":0},"$loki":83},{"_id":"5c3d65bd3525a329e0c033f3","address":"105 N J St","location":{"type":"Point","coordinates":[-119.3482305,36.2082729]},"isApproved":true,"items":[],"keys":["Gas Stations","Convenience Stores","Delis"],"lastUpdated":1547527612302,"name":"Jack’s Git N Go","phone":"(559) 685-9300","price":"$$","reviewCount":16,"reviewScore":4,"meta":{"revision":0,"created":1547531148643,"version":0},"$loki":84},{"_id":"5c3d65bd3525a329e0c01d67","address":"2111 Whitley Ave","location":{"type":"Point","coordinates":[-119.3454966,36.2065159]},"isApproved":true,"items":[],"keys":["Mexican"],"lastUpdated":1547527612259,"name":"Mexican Fresh Grill","phone":"(559) 762-7094","price":"$","reviewCount":14,"reviewScore":3.5,"meta":{"revision":0,"created":1547531148643,"version":0},"$loki":85},{"_id":"5c3d65bd3525a329e0c11dc0","address":"210 South K St","location":{"type":"Point","coordinates":[-119.3454966,36.2065159]},"isApproved":true,"items":[],"keys":["Barbeque","Food Trucks"],"lastUpdated":1547527612661,"name":"Big Al’s BBQ","phone":"(559) 403-0601","price":"","reviewCount":1,"reviewScore":5,"meta":{"revision":0,"created":1547531148643,"version":0},"$loki":86},{"_id":"5c3d65bd3525a329e0c191a0","address":"377 E Orange Ave","location":{"type":"Point","coordinates":[-119.3454966,36.2065159]},"isApproved":true,"items":[],"keys":["Mexican"],"lastUpdated":1547527612833,"name":"Taqueria Chihuahua","phone":"(559) 542-9029","price":"$","reviewCount":12,"reviewScore":3,"meta":{"revision":0,"created":1547531148643,"version":0},"$loki":87},{"_id":"5c3d65bd3525a329e0c09b43","address":"12840 Avenue 416","location":{"type":"Point","coordinates":[-119.3455428,36.2064964]},"isApproved":true,"items":[],"keys":["Mexican"],"lastUpdated":1547527612464,"name":"La Catrina Mexican Restaurant","phone":"(559) 596-5500","price":"$$","reviewCount":10,"reviewScore":5,"meta":{"revision":0,"created":1547531148643,"version":0},"$loki":88},{"_id":"5c3d65bd3525a329e0c104c6","address":"2250 E Springville Ave","location":{"type":"Point","coordinates":[-119.345452,36.206281]},"isApproved":true,"items":[],"keys":["Mexican"],"lastUpdated":1547527612618,"name":"Asadas","phone":"(559) 784-2484","price":"$$","reviewCount":2,"reviewScore":4.5,"meta":{"revision":0,"created":1547531148643,"version":0},"$loki":89},{"_id":"5c3d65bd3525a329e0c03d9e","address":"141 W Inyo Ave","location":{"type":"Point","coordinates":[-119.3495576,36.2045906]},"isApproved":true,"items":[],"keys":["American (New)"],"lastUpdated":1547527612313,"name":"Sno-White Drive In","phone":"(559) 686-1801","price":"$","reviewCount":16,"reviewScore":3.5,"meta":{"revision":0,"created":1547531148643,"version":0},"$loki":90},{"_id":"5c3d65bd3525a329e0c14985","address":"444 Noble Ave","location":{"type":"Point","coordinates":[-119.3507258,36.2045587]},"isApproved":true,"items":[],"keys":["Sandwiches","Fast Food"],"lastUpdated":1547527612728,"name":"Subway","phone":"(559) 733-4180","price":"$","reviewCount":4,"reviewScore":4.5,"meta":{"revision":0,"created":1547531148643,"version":0},"$loki":91},{"_id":"5c3d65bd3525a329e0c19249","address":"276 West Henderson","location":{"type":"Point","coordinates":[-119.3519053,36.204708]},"isApproved":true,"items":[],"keys":["Pizza","Italian","Chicken Wings"],"lastUpdated":1547527612833,"name":"Pizza Hut","phone":"(559) 781-0323","price":"$$","reviewCount":5,"reviewScore":1.5,"meta":{"revision":0,"created":1547531148643,"version":0},"$loki":92},{"_id":"5c3d65bd3525a329e0c1744d","address":"250 S Akers","location":{"type":"Point","coordinates":[-119.348558555364,36.2133017079601]},"isApproved":true,"items":[],"keys":["Italian","Pizza","Chicken Wings"],"lastUpdated":1547527612790,"name":"Pizza Hut","phone":"(559) 734-2041","price":"$$","reviewCount":27,"reviewScore":2,"meta":{"revision":0,"created":1547531148643,"version":0},"$loki":93},{"_id":"5c3d65bd3525a329e0bff912","address":"36005 Hwy 99","location":{"type":"Point","coordinates":[-119.348578249213,36.2131863494034]},"isApproved":true,"items":[],"keys":["Food Court"],"lastUpdated":1547527612219,"name":"Cafe 99","phone":"","price":"$","reviewCount":5,"reviewScore":4,"meta":{"revision":0,"created":1547531148643,"version":0},"$loki":94},{"_id":"5c3d65bd3525a329e0c0ea9c","address":"724 W Inyo Ave","location":{"type":"Point","coordinates":[-119.357475042343,36.2038509737191]},"isApproved":true,"items":[],"keys":["Tacos","Seafood","Fish & Chips"],"lastUpdated":1547527612581,"name":"Garcia’s Family Pizza","phone":"(559) 686-7600","price":"$$","reviewCount":26,"reviewScore":4.5,"meta":{"revision":0,"created":1547531148643,"version":0},"$loki":95},{"_id":"5c3d65bd3525a329e0c01477","address":"3500 S Demaree","location":{"type":"Point","coordinates":[-119.3568665,36.203966]},"isApproved":true,"items":[],"keys":["Hot Dogs","Burgers","American (Traditional)"],"lastUpdated":1547527612249,"name":"Rods Dogs Visalia","phone":"(559) 759-1615","price":"","reviewCount":1,"reviewScore":5,"meta":{"revision":0,"created":1547531148643,"version":0},"$loki":96},{"_id":"5c3d65bd3525a329e0c12091","address":"211A W Main St","location":{"type":"Point","coordinates":[-119.354897104204,36.2039188795354]},"isApproved":true,"items":[],"keys":["Indian","Seafood"],"lastUpdated":1547527612663,"name":"Cafe India","phone":"(559) 739-1039","price":"$$","reviewCount":99,"reviewScore":4,"meta":{"revision":0,"created":1547531148643,"version":0},"$loki":97},{"_id":"5c3d65bd3525a329e0c06978","address":"450 S Market St","location":{"type":"Point","coordinates":[-119.3621701,36.2038817]},"isApproved":true,"items":[],"keys":["Burgers"],"lastUpdated":1547527612379,"name":"Pixley Lions Club Pheasant Hunt","phone":"(559) 757-3076","price":"","reviewCount":1,"reviewScore":5,"meta":{"revision":0,"created":1547531148643,"version":0},"$loki":98},{"_id":"5c3d65bd3525a329e0c19955","address":"1293 S K St","location":{"type":"Point","coordinates":[-119.35194734484,36.2277664089588]},"isApproved":true,"items":[],"keys":["Mexican","Bars"],"lastUpdated":1547527612843,"name":"Vejar’s Mexican Restaurant","phone":"(559) 688-0355","price":"$$","reviewCount":156,"reviewScore":3.5,"meta":{"revision":0,"created":1547531148643,"version":0},"$loki":99},{"_id":"5c3d65bd3525a329e0c10883","address":"1543 Retherford St","location":{"type":"Point","coordinates":[-119.3672833,36.2252778]},"isApproved":true,"items":[],"keys":["Sandwiches","Delis","Fast Food"],"lastUpdated":1547527612625,"name":"Togo’s Sandwiches","phone":"(559) 685-5400","price":"$$","reviewCount":14,"reviewScore":2,"meta":{"revision":0,"created":1547531148643,"version":0},"$loki":100},{"_id":"5c3d65bd3525a329e0c174cb","address":"524 S Lovers Lane","location":{"type":"Point","coordinates":[-119.3672833,36.2252778]},"isApproved":true,"items":[],"keys":["Pizza"],"lastUpdated":1547527612790,"name":"Papa Murphy’s","phone":"(559) 741-9262","price":"","reviewCount":3,"reviewScore":3.5,"meta":{"revision":0,"created":1547531148643,"version":0},"$loki":101},{"_id":"5c3d65bd3525a329e0c168f2","address":"645 N Ben Maddox Way","location":{"type":"Point","coordinates":[-119.3537605,36.2345149]},"isApproved":true,"items":[],"keys":["Mexican"],"lastUpdated":1547527612772,"name":"Mi Ranchito Mexican Restaurant","phone":"(559) 624-0903","price":"","reviewCount":1,"reviewScore":4,"meta":{"revision":0,"created":1547531148643,"version":0},"$loki":102},{"_id":"5c3d65bd3525a329e0c16a4c","address":"212 S K St","location":{"type":"Point","coordinates":[-119.3532266,36.2328366]},"isApproved":true,"items":[],"keys":["Mexican"],"lastUpdated":1547527612773,"name":"Yanez Kitchen","phone":"(559) 685-2421","price":"","reviewCount":2,"reviewScore":4.5,"meta":{"revision":0,"created":1547531148643,"version":0},"$loki":103},{"_id":"5c3d65bd3525a329e0c154eb","address":"2959 N M St","location":{"type":"Point","coordinates":[-119.349489,36.239638]},"isApproved":true,"items":[],"keys":["Mexican"],"lastUpdated":1547527612745,"name":"Arsenio’s Mexican Food","phone":"(559) 687-0436","price":"$","reviewCount":90,"reviewScore":4.5,"meta":{"revision":0,"created":1547531148643,"version":0},"$loki":104},{"_id":"5c3d65bd3525a329e0c16527","address":"96 W Henderson Ave","location":{"type":"Point","coordinates":[-119.3366955,36.2268569]},"isApproved":true,"items":[],"keys":["Mexican"],"lastUpdated":1547527612764,"name":"La Nueva Fonda Mexican Food Products","phone":"(559) 784-1433","price":"","reviewCount":7,"reviewScore":4,"meta":{"revision":0,"created":1547531148643,"version":0},"$loki":105},{"_id":"5c3d65bd3525a329e0bffba0","address":"1424 N Ben Maddox Way","location":{"type":"Point","coordinates":[-119.3369983,36.2271659]},"isApproved":true,"items":[],"keys":["Vietnamese","Seafood","Bubble Tea"],"lastUpdated":1547527612220,"name":"Pho King","phone":"(559) 713-6678","price":"$","reviewCount":191,"reviewScore":3.5,"meta":{"revision":0,"created":1547531148643,"version":0},"$loki":106},{"_id":"5c3d65bd3525a329e0c06457","address":"148 E Antelope Ave","location":{"type":"Point","coordinates":[-119.3359279,36.2292284]},"isApproved":true,"items":[],"keys":["Mexican"],"lastUpdated":1547527612371,"name":"Dora’s Restaurant","phone":"(559) 564-2606","price":"$","reviewCount":8,"reviewScore":4,"meta":{"revision":0,"created":1547531148643,"version":0},"$loki":107},{"_id":"5c3d65bd3525a329e0c0fb7a","address":"500 S Demaree St","location":{"type":"Point","coordinates":[-119.3361397,36.2291373]},"isApproved":true,"items":[],"keys":["Fast Food","Burgers"],"lastUpdated":1547527612601,"name":"Burger King","phone":"(559) 739-1084","price":"$","reviewCount":15,"reviewScore":2.5,"meta":{"revision":0,"created":1547531148643,"version":0},"$loki":108},{"_id":"5c3d65bd3525a329e0bfffe7","address":"460 N Main St","location":{"type":"Point","coordinates":[-119.3326909,36.228195]},"isApproved":true,"items":[],"keys":["American (Traditional)"],"lastUpdated":1547527612223,"name":"Red Onion Hamburger","phone":"(559) 781-1582","price":"$$","reviewCount":23,"reviewScore":2.5,"meta":{"revision":0,"created":1547531148643,"version":0},"$loki":109},{"_id":"5c3d65bd3525a329e0c05c10","address":"700 N Court St","location":{"type":"Point","coordinates":[-119.3326348,36.2277251]},"isApproved":true,"items":[],"keys":["Thai"],"lastUpdated":1547527612356,"name":"Thai Place Restaurant","phone":"(559) 622-8881","price":"$$","reviewCount":99,"reviewScore":4,"meta":{"revision":0,"created":1547531148643,"version":0},"$loki":110},{"_id":"5c3d65bd3525a329e0c01345","address":"600 N Court St","location":{"type":"Point","coordinates":[-119.33142,36.229214]},"isApproved":true,"items":[],"keys":["Restaurants"],"lastUpdated":1547527612248,"name":"El Pio Pio","phone":"(559) 732-2171","price":"","reviewCount":1,"reviewScore":5,"meta":{"revision":0,"created":1547531148643,"version":0},"$loki":111},{"_id":"5c3d65bd3525a329e0c10ce7","address":"1530 S Mooney Blvd","location":{"type":"Point","coordinates":[-119.3134144,36.2255424]},"isApproved":true,"items":[],"keys":["Mexican","Burgers"],"lastUpdated":1547527612633,"name":"B T’s Buns & Torts","phone":"(559) 636-9066","price":"$","reviewCount":117,"reviewScore":3.5,"meta":{"revision":0,"created":1547531148643,"version":0},"$loki":112},{"_id":"5c3d65bd3525a329e0c1addd","address":"407 N Kaweah","location":{"type":"Point","coordinates":[-119.3134853,36.225177]},"isApproved":true,"items":[],"keys":["Burgers"],"lastUpdated":1547527612875,"name":"El Taco Man and Burgers","phone":"(559) 704-8966","price":"$","reviewCount":26,"reviewScore":3.5,"meta":{"revision":0,"created":1547531148643,"version":0},"$loki":113},{"_id":"5c3d65bd3525a329e0c184d1","address":"268 CA-65","location":{"type":"Point","coordinates":[-119.313832484186,36.2255986537608]},"isApproved":true,"items":[],"keys":["Sushi Bars","Japanese"],"lastUpdated":1547527612814,"name":"Oh Sushi","phone":"(559) 562-0425","price":"","reviewCount":2,"reviewScore":5,"meta":{"revision":0,"created":1547531148643,"version":0},"$loki":114},{"_id":"5c3d65bd3525a329e0c0b793","address":"1297 E Paige Ave","location":{"type":"Point","coordinates":[-119.320537962963,36.211493735379]},"isApproved":true,"items":[],"keys":["Mexican","Fruits & Veggies"],"lastUpdated":1547527612505,"name":"Las Gemelas Fruit","phone":"(559) 317-5717","price":"","reviewCount":1,"reviewScore":5,"meta":{"revision":0,"created":1547531148643,"version":0},"$loki":115},{"_id":"5c3d65bd3525a329e0c175b6","address":"1776 E Tulare Ave","location":{"type":"Point","coordinates":[-119.3200789,36.2115434]},"isApproved":true,"items":[],"keys":["Seafood","Mexican","Latin American"],"lastUpdated":1547527612790,"name":"Puerto Vallarta Seafood Restaurant","phone":"(559) 686-6199","price":"$$","reviewCount":53,"reviewScore":2.5,"meta":{"revision":0,"created":1547531148643,"version":0},"$loki":116},{"_id":"5c3d65bd3525a329e0c13e10","address":"1718 East Mineral King Ave","location":{"type":"Point","coordinates":[-119.3236295,36.2115214]},"isApproved":true,"items":[],"keys":["Breakfast & Brunch","American (Traditional)"],"lastUpdated":1547527612706,"name":"The Country Cafe","phone":"(559) 802-5612","price":"$","reviewCount":91,"reviewScore":4.5,"meta":{"revision":0,"created":1547531148643,"version":0},"$loki":117},{"_id":"5c3d65bd3525a329e0c1a550","address":"500 S Main St","location":{"type":"Point","coordinates":[-119.3233485,36.2106751]},"isApproved":true,"items":[],"keys":["Pool Halls","Mexican"],"lastUpdated":1547527612860,"name":"Billar Y Restaurant Santa Fe","phone":"(559) 757-1960","price":"","reviewCount":1,"reviewScore":4,"meta":{"revision":0,"created":1547531148643,"version":0},"$loki":118},{"_id":"5c3d65bd3525a329e0c0a268","address":"5348 W Cypress Ave","location":{"type":"Point","coordinates":[-119.3119208,36.2120909]},"isApproved":true,"items":[],"keys":["Mexican"],"lastUpdated":1547527612473,"name":"Del Taco","phone":"(559) 732-3899","price":"$","reviewCount":24,"reviewScore":2.5,"meta":{"revision":0,"created":1547531148643,"version":0},"$loki":119},{"_id":"5c3d65bd3525a329e0c14e96","address":"1018 S Mooney Blvd","location":{"type":"Point","coordinates":[-119.285742044449,36.1963909852568]},"isApproved":true,"items":[],"keys":["Mexican","Tex-Mex","Fast Food"],"lastUpdated":1547527612736,"name":"Taco Bell","phone":"(559) 732-6711","price":"$","reviewCount":18,"reviewScore":3,"meta":{"revision":0,"created":1547531148643,"version":0},"$loki":120},{"_id":"5c3d65bd3525a329e0c15c33","address":"1053 N Cherry St","location":{"type":"Point","coordinates":[-119.313099591301,36.2731857099365]},"isApproved":true,"items":[],"keys":["Pizza"],"lastUpdated":1547527612754,"name":"RJ’s Pizza, Wings & Beer","phone":"(559) 684-8500","price":"","reviewCount":10,"reviewScore":4,"meta":{"revision":0,"created":1547531148643,"version":0},"$loki":121},{"_id":"5c3d65bd3525a329e0c08d9c","address":"208 W Main St","location":{"type":"Point","coordinates":[-119.3134565,36.2912838]},"isApproved":true,"items":[],"keys":["Mexican","Seafood"],"lastUpdated":1547527612437,"name":"El Tarasco Mexican Restaurant","phone":"(559) 622-8525","price":"$$","reviewCount":136,"reviewScore":3,"meta":{"revision":0,"created":1547531148643,"version":0},"$loki":122},{"_id":"5c3d65bd3525a329e0c10cf0","address":"376 W Tulare St","location":{"type":"Point","coordinates":[-119.3137128,36.2918225]},"isApproved":true,"items":[],"keys":["Mexican"],"lastUpdated":1547527612633,"name":"Mariscos Los Compadres","phone":"(559) 591-3659","price":"$","reviewCount":45,"reviewScore":4.5,"meta":{"revision":0,"created":1547531148643,"version":0},"$loki":123},{"_id":"5c3d65bd3525a329e0c19855","address":"379 E Olive Ave","location":{"type":"Point","coordinates":[-119.29182646465,36.2978577510586]},"isApproved":true,"items":[],"keys":["Fast Food","Burgers","Coffee & Tea"],"lastUpdated":1547527612842,"name":"McDonald’s","phone":"(559) 781-3382","price":"$$","reviewCount":13,"reviewScore":1.5,"meta":{"revision":0,"created":1547531148643,"version":0},"$loki":124},{"_id":"5c3d65bd3525a329e0c02033","address":"1004 E Prosperity Ave","location":{"type":"Point","coordinates":[-119.2907434,36.2986919]},"isApproved":true,"items":[],"keys":["Breakfast & Brunch","American (Traditional)","Burgers"],"lastUpdated":1547527612274,"name":"IHOP","phone":"(559) 684-7440","price":"$$","reviewCount":45,"reviewScore":3.5,"meta":{"revision":0,"created":1547531148643,"version":0},"$loki":125},{"_id":"5c3d65bd3525a329e0c15ff6","address":"596 W Olive Ave","location":{"type":"Point","coordinates":[-119.3031067,36.2979773]},"isApproved":true,"items":[],"keys":["Fast Food","Seafood"],"lastUpdated":1547527612756,"name":"Long John Silver’s","phone":"(559) 784-3674","price":"$","reviewCount":7,"reviewScore":3,"meta":{"revision":0,"created":1547531148643,"version":0},"$loki":126},{"_id":"5c3d65bd3525a329e0c1085a","address":"619 W Murray Ave","location":{"type":"Point","coordinates":[-119.3100862,36.2981861]},"isApproved":true,"items":[],"keys":["Thai"],"lastUpdated":1547527612620,"name":"Keothip Restaurant","phone":"(559) 739-0747","price":"$$","reviewCount":144,"reviewScore":3.5,"meta":{"revision":0,"created":1547531148643,"version":0},"$loki":127},{"_id":"5c3d65bd3525a329e0c0d09b","address":"900 S Mooney Blvd","location":{"type":"Point","coordinates":[-119.3100922,36.2987452]},"isApproved":true,"items":[],"keys":["Breakfast & Brunch","Diners","Burgers"],"lastUpdated":1547527612544,"name":"Black Bear Diner","phone":"(559) 635-1260","price":"$$","reviewCount":198,"reviewScore":4,"meta":{"revision":0,"created":1547531148643,"version":0},"$loki":128},{"_id":"5c3d65bd3525a329e0c10e12","address":"700 N Court St","location":{"type":"Point","coordinates":[-119.3102872,36.3013089]},"isApproved":true,"items":[],"keys":["Restaurants"],"lastUpdated":1547527612634,"name":"Sy-Salathai Restaurants","phone":"(559) 622-8939","price":"$","reviewCount":4,"reviewScore":5,"meta":{"revision":0,"created":1547531148643,"version":0},"$loki":129},{"_id":"5c3d65bd3525a329e0c0599f","address":"5131 W Goshen Ave","location":{"type":"Point","coordinates":[-119.311738557009,36.3017234039036]},"isApproved":true,"items":[],"keys":["Japanese"],"lastUpdated":1547527612355,"name":"Masaru’s Restaurant","phone":"(559) 635-4455","price":"$","reviewCount":54,"reviewScore":3,"meta":{"revision":0,"created":1547531148643,"version":0},"$loki":130},{"_id":"5c3d65bd3525a329e0c05a1b","address":"126 N Valencia Blvd","location":{"type":"Point","coordinates":[-119.3125885,36.3022155]},"isApproved":true,"items":[],"keys":["Pizza"],"lastUpdated":1547527612355,"name":"Little Caesars","phone":"(559) 564-8550","price":"$","reviewCount":4,"reviewScore":2.5,"meta":{"revision":0,"created":1547531148643,"version":0},"$loki":131},{"_id":"5c3d65bd3525a329e0c16c8f","address":"900 Jefferson St","location":{"type":"Point","coordinates":[-119.3132765,36.3019815]},"isApproved":true,"items":[],"keys":["Fast Food","Sandwiches"],"lastUpdated":1547527612774,"name":"Akal Travel Plaza","phone":"(661) 725-5525","price":"$$","reviewCount":7,"reviewScore":2.5,"meta":{"revision":0,"created":1547531148643,"version":0},"$loki":132},{"_id":"5c3d65bd3525a329e0c05dae","address":"15047 Rd 192","location":{"type":"Point","coordinates":[-119.3128529,36.3017079]},"isApproved":true,"items":[],"keys":["Pizza"],"lastUpdated":1547527612361,"name":"Nina’s Pizzeria","phone":"(559) 920-7390","price":"","reviewCount":1,"reviewScore":5,"meta":{"revision":0,"created":1547531148643,"version":0},"$loki":133},{"_id":"5c3d65bd3525a329e0c15a41","address":"3302 S Mooney Blvd","location":{"type":"Point","coordinates":[-119.313194946558,36.3010318835269]},"isApproved":true,"items":[],"keys":["Pizza","Sandwiches"],"lastUpdated":1547527612748,"name":"Boston House of Pizza","phone":"(559) 625-1235","price":"$$","reviewCount":52,"reviewScore":3.5,"meta":{"revision":0,"created":1547531148643,"version":0},"$loki":134},{"_id":"5c3d65bd3525a329e0c0e7d2","address":"1665 Retherford St","location":{"type":"Point","coordinates":[-119.31311828846,36.300538351131]},"isApproved":true,"items":[],"keys":["Sandwiches","Fast Food"],"lastUpdated":1547527612574,"name":"Subway","phone":"(559) 688-2191","price":"","reviewCount":2,"reviewScore":3,"meta":{"revision":0,"created":1547531148643,"version":0},"$loki":135},{"_id":"5c3d65bd3525a329e0c0e437","address":"1549 Hillman St","location":{"type":"Point","coordinates":[-119.3121274,36.301067]},"isApproved":true,"items":[],"keys":["Mexican"],"lastUpdated":1547527612572,"name":"Que Pasa Mexican Cafe","phone":"(559) 684-0600","price":"$$","reviewCount":76,"reviewScore":3,"meta":{"revision":0,"created":1547531148643,"version":0},"$loki":136},{"_id":"5c3d65bd3525a329e0c14bd7","address":"1196 E Prosperity","location":{"type":"Point","coordinates":[-119.313177,36.300054]},"isApproved":true,"items":[],"keys":["Chinese","Fast Food"],"lastUpdated":1547527612729,"name":"Panda Express","phone":"(559) 687-2208","price":"$","reviewCount":35,"reviewScore":3.5,"meta":{"revision":0,"created":1547531148643,"version":0},"$loki":137},{"_id":"5c3d65bd3525a329e0c01dff","address":"3411 S Mooney Blvd","location":{"type":"Point","coordinates":[-119.3127401,36.2988749]},"isApproved":true,"items":[],"keys":["Hot Dogs","Ice Cream & Frozen Yogurt","Bubble Tea"],"lastUpdated":1547527612260,"name":"Easton’s","phone":"(559) 744-3644","price":"","reviewCount":5,"reviewScore":4,"meta":{"revision":0,"created":1547531148643,"version":0},"$loki":138},{"_id":"5c3d65bd3525a329e0c198cb","address":"1112 Cecil Ave","location":{"type":"Point","coordinates":[-119.3110992,36.2985566]},"isApproved":true,"items":[],"keys":["Fast Food","Burgers","Sandwiches"],"lastUpdated":1547527612842,"name":"Elmer’s Drive-In","phone":"(661) 725-8736","price":"$","reviewCount":38,"reviewScore":4,"meta":{"revision":0,"created":1547531148643,"version":0},"$loki":139},{"_id":"5c3d65bd3525a329e0c0ceec","address":"450 W Olive Ave.","location":{"type":"Point","coordinates":[-119.312342,36.298128]},"isApproved":true,"items":[],"keys":["Mexican","Fast Food","Tex-Mex"],"lastUpdated":1547527612535,"name":"Taco Bell","phone":"(559) 784-5510","price":"$","reviewCount":9,"reviewScore":2.5,"meta":{"revision":0,"created":1547531148643,"version":0},"$loki":140},{"_id":"5c3d65bd3525a329e0c19c0a","address":"3636 W Mineral King Ave","location":{"type":"Point","coordinates":[-119.313115,36.297718]},"isApproved":true,"items":[],"keys":["Burgers","Fast Food","Coffee & Tea"],"lastUpdated":1547527612850,"name":"McDonald’s","phone":"(559) 732-1182","price":"$","reviewCount":29,"reviewScore":2,"meta":{"revision":0,"created":1547531148643,"version":0},"$loki":141},{"_id":"5c3d65bd3525a329e0c14fd4","address":"3117 W Noble Ave","location":{"type":"Point","coordinates":[-119.312187,36.2969]},"isApproved":true,"items":[],"keys":["Mexican","Bars"],"lastUpdated":1547527612736,"name":"El Rosal Bar & Grill","phone":"(559) 749-0542","price":"$$","reviewCount":47,"reviewScore":3,"meta":{"revision":0,"created":1547531148643,"version":0},"$loki":142},{"_id":"5c3d65bd3525a329e0c12e0d","address":"360 Montgomery Ave","location":{"type":"Point","coordinates":[-119.311978,36.297002]},"isApproved":true,"items":[],"keys":["American (Traditional)","Breakfast & Brunch","Diners"],"lastUpdated":1547527612681,"name":"Denny’s","phone":"(559) 781-0608","price":"$$","reviewCount":29,"reviewScore":2.5,"meta":{"revision":0,"created":1547531148643,"version":0},"$loki":143},{"_id":"5c3d65bd3525a329e0c0734b","address":"3710 S Mooney Blvd","location":{"type":"Point","coordinates":[-119.312063758171,36.2969194099906]},"isApproved":true,"items":[],"keys":["Barbeque","Desserts","Asian Fusion"],"lastUpdated":1547527612399,"name":"Asian BBQ & Pho","phone":"(559) 713-6052","price":"","reviewCount":32,"reviewScore":3,"meta":{"revision":0,"created":1547531148643,"version":0},"$loki":144},{"_id":"5c3d65bd3525a329e0c046e7","address":"600 S Lovers Ln Ave","location":{"type":"Point","coordinates":[-119.31317391982,36.295453401915]},"isApproved":true,"items":[],"keys":["Desserts","American (Traditional)"],"lastUpdated":1547527612329,"name":"Frosty Queen","phone":"(559) 802-5100","price":"$$","reviewCount":13,"reviewScore":3.5,"meta":{"revision":0,"created":1547531148643,"version":0},"$loki":145},{"_id":"5c3d65bd3525a329e0c01695","address":"4004 S Mooney Blvd","location":{"type":"Point","coordinates":[-119.313087,36.294224]},"isApproved":true,"items":[],"keys":["Steakhouses"],"lastUpdated":1547527612250,"name":"Outback Steakhouse","phone":"(559) 334-3842","price":"$$","reviewCount":210,"reviewScore":2.5,"meta":{"revision":0,"created":1547531148643,"version":0},"$loki":146},{"_id":"5c3d65bd3525a329e0c129c6","address":"1127 Main St","location":{"type":"Point","coordinates":[-119.312286910506,36.2927845086954]},"isApproved":true,"items":[],"keys":["Mexican"],"lastUpdated":1547527612679,"name":"El Huarache Loco","phone":"(661) 720-6170","price":"$","reviewCount":59,"reviewScore":4,"meta":{"revision":0,"created":1547531148643,"version":0},"$loki":147},{"_id":"5c3d65bd3525a329e0c00cb2","address":"938 W Henderson Ave","location":{"type":"Point","coordinates":[-119.312250414671,36.2927862033341]},"isApproved":true,"items":[],"keys":["Pizza","Chicken Wings","Sandwiches"],"lastUpdated":1547527612231,"name":"Domino’s Pizza","phone":"(559) 784-4040","price":"","reviewCount":11,"reviewScore":3,"meta":{"revision":0,"created":1547531148643,"version":0},"$loki":148},{"_id":"5c3d65bd3525a329e0c0375d","address":"4035 S. Mooney Blvd.","location":{"type":"Point","coordinates":[-119.312135,36.292759]},"isApproved":true,"items":[],"keys":["Pizza","Buffets"],"lastUpdated":1547527612304,"name":"Round Table Pizza","phone":"(559) 625-5030","price":"$$","reviewCount":40,"reviewScore":3.5,"meta":{"revision":0,"created":1547531148643,"version":0},"$loki":149},{"_id":"5c3d65bd3525a329e0c15aca","address":"1304 W Walnut Ave","location":{"type":"Point","coordinates":[-119.3125729,36.2927514]},"isApproved":true,"items":[],"keys":["Pizza"],"lastUpdated":1547527612753,"name":"Full-O-Bull Subs","phone":"(559) 625-1778","price":"$","reviewCount":4,"reviewScore":2,"meta":{"revision":0,"created":1547531148643,"version":0},"$loki":150},{"_id":"5c3d65bd3525a329e0c041fa","address":"941 S K St","location":{"type":"Point","coordinates":[-119.313141,36.292844]},"isApproved":true,"items":[],"keys":["Restaurants"],"lastUpdated":1547527612321,"name":"Nina’s Restaurant","phone":"(559) 688-7166","price":"$","reviewCount":1,"reviewScore":5,"meta":{"revision":0,"created":1547531148643,"version":0},"$loki":151},{"_id":"5c3d65bd3525a329e0c19fc7","address":"542 S Lovers Ln","location":{"type":"Point","coordinates":[-119.3137458,36.292761]},"isApproved":true,"items":[],"keys":["Sandwiches"],"lastUpdated":1547527612852,"name":"Great American Sub Factory","phone":"(559) 749-0118","price":"","reviewCount":1,"reviewScore":2,"meta":{"revision":0,"created":1547531148643,"version":0},"$loki":152},{"_id":"5c3d65bd3525a329e0c0e9e3","address":"604 West Murray Ave","location":{"type":"Point","coordinates":[-119.313761740923,36.2931331247091]},"isApproved":true,"items":[],"keys":["Delis","Sandwiches","Burgers"],"lastUpdated":1547527612581,"name":"Glicks & Company","phone":"(559) 732-6439","price":"$$","reviewCount":40,"reviewScore":3.5,"meta":{"revision":0,"created":1547531148643,"version":0},"$loki":153},{"_id":"5c3d65bd3525a329e0c03a4b","address":"2031 S Mooney Blvd","location":{"type":"Point","coordinates":[-119.314217083649,36.2927716402017]},"isApproved":true,"items":[],"keys":["Food Stands","American (New)","Fast Food"],"lastUpdated":1547527612311,"name":"Hot Fries","phone":"(559) 735-9088","price":"","reviewCount":15,"reviewScore":3,"meta":{"revision":0,"created":1547531148643,"version":0},"$loki":154},{"_id":"5c3d65bd3525a329e0c09809","address":"913 12th Ave","location":{"type":"Point","coordinates":[-119.314524976196,36.2929127276782]},"isApproved":true,"items":[],"keys":["Juice Bars & Smoothies","Delis"],"lastUpdated":1547527612461,"name":"Mmm Yogurt","phone":"(661) 721-9590","price":"$","reviewCount":29,"reviewScore":4.5,"meta":{"revision":0,"created":1547531148643,"version":0},"$loki":155},{"_id":"5c3d65bd3525a329e0c0baed","address":"1541 E Noble Ave","location":{"type":"Point","coordinates":[-119.314390584983,36.2923042404041]},"isApproved":true,"items":[],"keys":["Sandwiches","Delis"],"lastUpdated":1547527612508,"name":"Port of Subs","phone":"(559) 636-2461","price":"$","reviewCount":20,"reviewScore":3.5,"meta":{"revision":0,"created":1547531148643,"version":0},"$loki":156},{"_id":"5c3d65bd3525a329e0c19f23","address":"208 W Main St","location":{"type":"Point","coordinates":[-119.3149586,36.2942767]},"isApproved":true,"items":[],"keys":["Bars","Gastropubs"],"lastUpdated":1547527612851,"name":"The PHD","phone":"(559) 802-3469","price":"$$$$","reviewCount":38,"reviewScore":3,"meta":{"revision":0,"created":1547531148643,"version":0},"$loki":157},{"_id":"5c3d65bd3525a329e0c12fb7","address":"4021 S Mooney Blvd","location":{"type":"Point","coordinates":[-119.314861781895,36.2941674027705]},"isApproved":true,"items":[],"keys":["Cafes"],"lastUpdated":1547527612688,"name":"Corner Bakery Cafe","phone":"(559) 740-0203","price":"$","reviewCount":94,"reviewScore":3,"meta":{"revision":0,"created":1547531148643,"version":0},"$loki":158},{"_id":"5c3d65bd3525a329e0c060b2","address":"3320 S Fairway St","location":{"type":"Point","coordinates":[-119.31453503798,36.294232096778]},"isApproved":true,"items":[],"keys":["Sushi Bars","Teppanyaki"],"lastUpdated":1547527612368,"name":"Tokyo Garden","phone":"(559) 625-0638","price":"$$","reviewCount":119,"reviewScore":3.5,"meta":{"revision":0,"created":1547531148643,"version":0},"$loki":159},{"_id":"5c3d65bd3525a329e0bff642","address":"820 N Alta Ave","location":{"type":"Point","coordinates":[-119.314155221755,36.2934015524007]},"isApproved":true,"items":[],"keys":["Chinese"],"lastUpdated":1547527612217,"name":"Dragon Garden Restaurant","phone":"(559) 591-7878","price":"$","reviewCount":41,"reviewScore":4,"meta":{"revision":0,"created":1547531148643,"version":0},"$loki":160},{"_id":"5c3d65bd3525a329e0c0d05f","address":"10392 Ave 416","location":{"type":"Point","coordinates":[-119.313752,36.296761]},"isApproved":true,"items":[],"keys":["Convenience Stores","Beer, Wine & Spirits","Mexican"],"lastUpdated":1547527612544,"name":"Cornerstone Market","phone":"(559) 591-5535","price":"","reviewCount":3,"reviewScore":4.5,"meta":{"revision":0,"created":1547531148643,"version":0},"$loki":161},{"_id":"5c3d65bd3525a329e0c08516","address":"3129 W Noble Ave","location":{"type":"Point","coordinates":[-119.3135403,36.2969355]},"isApproved":true,"items":[],"keys":["Cafes"],"lastUpdated":1547527612427,"name":"Takeaway Cafe","phone":"(866) 639-3640","price":"","reviewCount":1,"reviewScore":4,"meta":{"revision":0,"created":1547531148643,"version":0},"$loki":162},{"_id":"5c3d65bd3525a329e0c0e479","address":"2131 W Whitendale Ave","location":{"type":"Point","coordinates":[-119.314416488361,36.2961540895107]},"isApproved":true,"items":[],"keys":["Mexican"],"lastUpdated":1547527612572,"name":"Casa Grande Restaurant","phone":"(559) 732-2272","price":"$$","reviewCount":75,"reviewScore":3,"meta":{"revision":0,"created":1547531148643,"version":0},"$loki":163},{"_id":"5c3d65bd3525a329e0c172ca","address":"3733 S Mooney Blvd","location":{"type":"Point","coordinates":[-119.3149168,36.2961325]},"isApproved":true,"items":[],"keys":["Pizza"],"lastUpdated":1547527612783,"name":"Pieology Pizzeria","phone":"(559) 624-1342","price":"$","reviewCount":69,"reviewScore":4,"meta":{"revision":0,"created":1547531148643,"version":0},"$loki":164},{"_id":"5c3d65bd3525a329e0c0cd05","address":"1440 Main St","location":{"type":"Point","coordinates":[-119.3158248,36.29414]},"isApproved":true,"items":[],"keys":["Mexican"],"lastUpdated":1547527612534,"name":"Taco Factory","phone":"(661) 725-4900","price":"$","reviewCount":33,"reviewScore":3,"meta":{"revision":0,"created":1547531148643,"version":0},"$loki":165},{"_id":"5c3d65bd3525a329e0c11e0c","address":"1310 Bardsley Ave","location":{"type":"Point","coordinates":[-119.3173688,36.2980167]},"isApproved":true,"items":[],"keys":["Burgers","Fast Food","Coffee & Tea"],"lastUpdated":1547527612661,"name":"McDonald’s","phone":"(559) 687-9258","price":"$","reviewCount":23,"reviewScore":1.5,"meta":{"revision":0,"created":1547531148643,"version":0},"$loki":166},{"_id":"5c3d65bd3525a329e0c0dcfa","address":"1108 E Prosperity Ave","location":{"type":"Point","coordinates":[-119.3168156,36.2982253]},"isApproved":true,"items":[],"keys":["Mexican","Fast Food"],"lastUpdated":1547527612563,"name":"Chipotle Mexican Grill","phone":"(559) 358-3169","price":"$","reviewCount":30,"reviewScore":2.5,"meta":{"revision":0,"created":1547531148643,"version":0},"$loki":167},{"_id":"5c3d65bd3525a329e0c194ca","address":"2031 S Mooney Blvd","location":{"type":"Point","coordinates":[-119.31464228018,36.2981798175488]},"isApproved":true,"items":[],"keys":["Sandwiches","Fast Food"],"lastUpdated":1547527612840,"name":"subway","phone":"(559) 713-1274","price":"","reviewCount":1,"reviewScore":5,"meta":{"revision":0,"created":1547531148643,"version":0},"$loki":168},{"_id":"5c3d65bd3525a329e0c0bb66","address":"3405 S Mooney Blvd","location":{"type":"Point","coordinates":[-119.315279,36.30042]},"isApproved":true,"items":[],"keys":["Mexican"],"lastUpdated":1547527612509,"name":"Los Perez Restaurant","phone":"(559) 636-8226","price":"$","reviewCount":18,"reviewScore":4,"meta":{"revision":0,"created":1547531148643,"version":0},"$loki":169},{"_id":"5c3d65bd3525a329e0c14937","address":"642 W Olive","location":{"type":"Point","coordinates":[-119.3148836,36.3001289]},"isApproved":true,"items":[],"keys":["Fast Food","Chicken Wings","Chicken Shop"],"lastUpdated":1547527612727,"name":"KFC","phone":"(559) 784-2288","price":"$$","reviewCount":14,"reviewScore":2.5,"meta":{"revision":0,"created":1547531148643,"version":0},"$loki":170},{"_id":"5c3d65bd3525a329e0c02f82","address":"3103 S Mooney Blvd","location":{"type":"Point","coordinates":[-119.315440848464,36.3004538078841]},"isApproved":true,"items":[],"keys":["Bakeries","American (Traditional)"],"lastUpdated":1547527612295,"name":"Ryan’s Place","phone":"(559) 734-8394","price":"$$","reviewCount":74,"reviewScore":3.5,"meta":{"revision":0,"created":1547531148643,"version":0},"$loki":171},{"_id":"5c3d65bd3525a329e0c19e69","address":"3636 S Mooney Blvd","location":{"type":"Point","coordinates":[-119.31414,36.300901]},"isApproved":true,"items":[],"keys":["Fast Food","Burgers","Coffee & Tea"],"lastUpdated":1547527612851,"name":"McDonald’s","phone":"(559) 738-0188","price":"$","reviewCount":46,"reviewScore":1,"meta":{"revision":0,"created":1547531148643,"version":0},"$loki":172},{"_id":"5c3d65bd3525a329e0c14434","address":"604 S Mooney Blvd","location":{"type":"Point","coordinates":[-119.314114144298,36.3026942097503]},"isApproved":true,"items":[],"keys":["Burgers","Sandwiches"],"lastUpdated":1547527612714,"name":"The Habit Burger Grill","phone":"(559) 625-5700","price":"$","reviewCount":159,"reviewScore":4,"meta":{"revision":0,"created":1547531148643,"version":0},"$loki":173},{"_id":"5c3d65bd3525a329e0c17ed0","address":"4124 S Mooney Blvd","location":{"type":"Point","coordinates":[-119.3141912,36.3031343]},"isApproved":true,"items":[],"keys":["Pizza"],"lastUpdated":1547527612802,"name":"Me-N-Ed’s","phone":"(559) 625-5626","price":"$","reviewCount":63,"reviewScore":2,"meta":{"revision":0,"created":1547531148643,"version":0},"$loki":174},{"_id":"5c3d65bd3525a329e0c13510","address":"4015 S Mooney Blvd","location":{"type":"Point","coordinates":[-119.3145283,36.3054393]},"isApproved":true,"items":[],"keys":["Bars","Tex-Mex","American (Traditional)"],"lastUpdated":1547527612695,"name":"Chili’s","phone":"(559) 749-0213","price":"$$","reviewCount":107,"reviewScore":2.5,"meta":{"revision":0,"created":1547531148643,"version":0},"$loki":175},{"_id":"5c3d65bd3525a329e0c1ada1","address":"120 W Main St","location":{"type":"Point","coordinates":[-119.3152221,36.3060409]},"isApproved":true,"items":[],"keys":["Japanese","Sushi Bars"],"lastUpdated":1547527612875,"name":"Tachibana Japanese Restaurant","phone":"(559) 625-5266","price":"$$","reviewCount":81,"reviewScore":3.5,"meta":{"revision":0,"created":1547531148643,"version":0},"$loki":176},{"_id":"5c3d65bd3525a329e0c03c1c","address":"1530 N Ben Maddox Way","location":{"type":"Point","coordinates":[-119.316794,36.311158]},"isApproved":true,"items":[],"keys":["Pizza"],"lastUpdated":1547527612312,"name":"Me-N-Ed’s Pizzeria","phone":"(559) 627-1664","price":"$$","reviewCount":36,"reviewScore":2.5,"meta":{"revision":0,"created":1547531148643,"version":0},"$loki":177},{"_id":"5c3d65bd3525a329e0c12e2d","address":"112 W Main St","location":{"type":"Point","coordinates":[-119.314242194531,36.3070205077289]},"isApproved":true,"items":[],"keys":["Pubs","Burgers","Sandwiches"],"lastUpdated":1547527612681,"name":"Visalia Brewing","phone":"(559) 734-2739","price":"$","reviewCount":63,"reviewScore":2.5,"meta":{"revision":0,"created":1547531148643,"version":0},"$loki":178},{"_id":"5c3d65bd3525a329e0c0e1e9","address":"1401 E Noble Ave","location":{"type":"Point","coordinates":[-119.31428370228,36.307329837182]},"isApproved":true,"items":[],"keys":["Fast Food","Burgers","Coffee & Tea"],"lastUpdated":1547527612565,"name":"McDonald’s","phone":"(559) 627-2318","price":"$","reviewCount":40,"reviewScore":1.5,"meta":{"revision":0,"created":1547531148643,"version":0},"$loki":179},{"_id":"5c3d65bd3525a329e0c17f38","address":"2520 S Mooney Blvd","location":{"type":"Point","coordinates":[-119.3134637,36.308207]},"isApproved":true,"items":[],"keys":["Mexican"],"lastUpdated":1547527612802,"name":"Tacos El Grullo","phone":"(559) 713-1700","price":"$","reviewCount":69,"reviewScore":3,"meta":{"revision":0,"created":1547531148643,"version":0},"$loki":180},{"_id":"5c3d65bd3525a329e0c173cb","address":"41369 Rd 128","location":{"type":"Point","coordinates":[-119.3134727,36.3095640558572]},"isApproved":true,"items":[],"keys":["Pizza","Sandwiches"],"lastUpdated":1547527612784,"name":"Orosi Pizza House","phone":"(559) 528-2248","price":"$$","reviewCount":7,"reviewScore":4,"meta":{"revision":0,"created":1547531148643,"version":0},"$loki":181},{"_id":"5c3d65bd3525a329e0c16161","address":"721 E Prosperity Ave","location":{"type":"Point","coordinates":[-119.316247293318,36.3107465463363]},"isApproved":true,"items":[],"keys":["Pizza"],"lastUpdated":1547527612763,"name":"Mountain Mike’s Pizza","phone":"(559) 688-8800","price":"$$","reviewCount":40,"reviewScore":4,"meta":{"revision":0,"created":1547531148643,"version":0},"$loki":182},{"_id":"5c3d65bd3525a329e0c0e283","address":"235 N K St","location":{"type":"Point","coordinates":[-119.315948817997,36.3107581088883]},"isApproved":true,"items":[],"keys":["Pizza","Salad","Chicken Wings"],"lastUpdated":1547527612566,"name":"VIP Pizza","phone":"(559) 688-2011","price":"$$","reviewCount":36,"reviewScore":4.5,"meta":{"revision":0,"created":1547531148643,"version":0},"$loki":183},{"_id":"5c3d65bd3525a329e0c07f6f","address":"1637 Cecil Ave","location":{"type":"Point","coordinates":[-119.31604295969,36.3108209015801]},"isApproved":true,"items":[],"keys":["Mexican"],"lastUpdated":1547527612418,"name":"Janitzio Restaurant","phone":"(661) 721-2823","price":"$","reviewCount":12,"reviewScore":3.5,"meta":{"revision":0,"created":1547531148643,"version":0},"$loki":184},{"_id":"5c3d65bd3525a329e0c118c6","address":"418 11th Ave","location":{"type":"Point","coordinates":[-119.3147092,36.3113954]},"isApproved":true,"items":[],"keys":["Seafood","Mexican"],"lastUpdated":1547527612650,"name":"Mariscos El Paraiso","phone":"(661) 721-1291","price":"","reviewCount":10,"reviewScore":3.5,"meta":{"revision":0,"created":1547531148643,"version":0},"$loki":185},{"_id":"5c3d65bd3525a329e0c14fc7","address":"206 E Caldwell Ave","location":{"type":"Point","coordinates":[-119.3147092,36.3113954]},"isApproved":true,"items":[],"keys":["Pizza","Desserts","Breakfast & Brunch"],"lastUpdated":1547527612736,"name":"Straw Hat Pizza","phone":"(559) 429-4110","price":"$$","reviewCount":23,"reviewScore":4,"meta":{"revision":0,"created":1547531148643,"version":0},"$loki":186},{"_id":"5c3d65bd3525a329e0c174cd","address":"1131 Main St","location":{"type":"Point","coordinates":[-119.3147092,36.3113954]},"isApproved":true,"items":[],"keys":["Mexican","Breakfast & Brunch"],"lastUpdated":1547527612790,"name":"Charros","phone":"(661) 725-2866","price":"$","reviewCount":36,"reviewScore":4,"meta":{"revision":0,"created":1547531148643,"version":0},"$loki":187},{"_id":"5c3d65bd3525a329e0c09dfe","address":"2226 S Mooney Blvd","location":{"type":"Point","coordinates":[-119.3131592,36.310892]},"isApproved":true,"items":[],"keys":["American (New)","Burgers"],"lastUpdated":1547527612471,"name":"Burgerim","phone":"(559) 802-3509","price":"$","reviewCount":87,"reviewScore":4,"meta":{"revision":0,"created":1547531148643,"version":0},"$loki":188},{"_id":"5c3d65bd3525a329e0c0143f","address":"1545 S Mooney Blvd","location":{"type":"Point","coordinates":[-119.3132798,36.3086441]},"isApproved":true,"items":[],"keys":["Seafood","American (Traditional)"],"lastUpdated":1547527612249,"name":"Red Lobster","phone":"(559) 738-8527","price":"$$","reviewCount":86,"reviewScore":3,"meta":{"revision":0,"created":1547531148643,"version":0},"$loki":189},{"_id":"5c3d65bd3525a329e0c06434","address":"1115 W Caldwell Ave","location":{"type":"Point","coordinates":[-119.3134044,36.3069041]},"isApproved":true,"items":[],"keys":["Sushi Bars","Teppanyaki"],"lastUpdated":1547527612371,"name":"Gozen Japanese Restaurant","phone":"(559) 622-8988","price":"$$","reviewCount":284,"reviewScore":3.5,"meta":{"revision":0,"created":1547531148643,"version":0},"$loki":190},{"_id":"5c3d65bd3525a329e0c11908","address":"725 Main St","location":{"type":"Point","coordinates":[-119.313255138695,36.3048971769197]},"isApproved":true,"items":[],"keys":["Mexican"],"lastUpdated":1547527612651,"name":"Taqueria Tampico","phone":"(661) 725-9474","price":"$","reviewCount":39,"reviewScore":3.5,"meta":{"revision":0,"created":1547531148643,"version":0},"$loki":191},{"_id":"5c3d65bd3525a329e0c00626","address":"1279 N W St","location":{"type":"Point","coordinates":[-119.3066792,36.3133005]},"isApproved":true,"items":[],"keys":["Pizza"],"lastUpdated":1547527612227,"name":"Old Firehouse Pizzeria","phone":"(559) 684-1095","price":"$","reviewCount":10,"reviewScore":2.5,"meta":{"revision":0,"created":1547531148643,"version":0},"$loki":192},{"_id":"5c3d65bd3525a329e0c013aa","address":"428 High St","location":{"type":"Point","coordinates":[-119.3066792,36.313549]},"isApproved":true,"items":[],"keys":["Donuts","Breakfast & Brunch","Coffee & Tea"],"lastUpdated":1547527612249,"name":"Victoria Donuts","phone":"(661) 778-0318","price":"$","reviewCount":5,"reviewScore":3.5,"meta":{"revision":0,"created":1547531148643,"version":0},"$loki":193},{"_id":"5c3d65bd3525a329e0c14dfc","address":"1299 E Prosperity Ave","location":{"type":"Point","coordinates":[-119.312648,36.313621]},"isApproved":true,"items":[],"keys":["Chinese"],"lastUpdated":1547527612730,"name":"China Bowl","phone":"(559) 685-0600","price":"$","reviewCount":42,"reviewScore":3.5,"meta":{"revision":0,"created":1547531148643,"version":0},"$loki":194},{"_id":"5c3d65bd3525a329e0c0632f","address":"227 N Court St","location":{"type":"Point","coordinates":[-119.312724998035,36.3124260773392]},"isApproved":true,"items":[],"keys":["Gastropubs","Mediterranean","Bars"],"lastUpdated":1547527612369,"name":"Pita Kabob Mediterranean Gastropub","phone":"(559) 627-2337","price":"$$","reviewCount":343,"reviewScore":4.5,"meta":{"revision":0,"created":1547531148643,"version":0},"$loki":195},{"_id":"5c3d65bd3525a329e0c01b9e","address":"539 N Santa Fe","location":{"type":"Point","coordinates":[-119.312881305814,36.3123662645089]},"isApproved":true,"items":[],"keys":["Mexican","Sports Bars"],"lastUpdated":1547527612258,"name":"Margaritas Sports Bar and Grill","phone":"(559) 747-2424","price":"$$","reviewCount":20,"reviewScore":4,"meta":{"revision":0,"created":1547531148643,"version":0},"$loki":196},{"_id":"5c3d65bd3525a329e0c0778c","address":"143 N L St","location":{"type":"Point","coordinates":[-119.313325109527,36.3121715197392]},"isApproved":true,"items":[],"keys":["American (New)","Mexican"],"lastUpdated":1547527612402,"name":"Ensenadas Restaurant","phone":"(559) 315-5197","price":"$","reviewCount":10,"reviewScore":3.5,"meta":{"revision":0,"created":1547531148643,"version":0},"$loki":197},{"_id":"5c3d65bd3525a329e0c06ba8","address":"1830 W Caldwell Ave","location":{"type":"Point","coordinates":[-119.31337763092,36.31221366345]},"isApproved":true,"items":[],"keys":["Pizza"],"lastUpdated":1547527612385,"name":"Traders Take-N-Bake Pizza","phone":"(559) 738-8225","price":"$","reviewCount":36,"reviewScore":4.5,"meta":{"revision":0,"created":1547531148643,"version":0},"$loki":198},{"_id":"5c3d65bd3525a329e0c05ce3","address":"2401 W Caldwell Ave","location":{"type":"Point","coordinates":[-119.314286,36.3122538]},"isApproved":true,"items":[],"keys":["Mexican","Seafood"],"lastUpdated":1547527612357,"name":"La Mejor Mexican Restaurant","phone":"(559) 624-1987","price":"$","reviewCount":12,"reviewScore":3.5,"meta":{"revision":0,"created":1547531148643,"version":0},"$loki":199},{"_id":"5c3d65bd3525a329e0c0b031","address":"3254 S Mooney Blvd","location":{"type":"Point","coordinates":[-119.3147124,36.3118424]},"isApproved":true,"items":[],"keys":["Buffets","Japanese","Italian"],"lastUpdated":1547527612492,"name":"King Buffet","phone":"(559) 635-7888","price":"$$","reviewCount":45,"reviewScore":3,"meta":{"revision":0,"created":1547531148643,"version":0},"$loki":200},{"_id":"5c3d65bd3525a329e0c0465d","address":"1687 Hillman St","location":{"type":"Point","coordinates":[-119.314275,36.3134]},"isApproved":true,"items":[],"keys":["Bars","Mexican","Sports Wear"],"lastUpdated":1547527612328,"name":"Compadres Bar & Grill","phone":"(559) 686-8882","price":"$$","reviewCount":58,"reviewScore":2.5,"meta":{"revision":0,"created":1547531148643,"version":0},"$loki":201},{"_id":"5c3d65bd3525a329e0c060d3","address":"1302 High St","location":{"type":"Point","coordinates":[-119.313483911657,36.3147134774796]},"isApproved":true,"items":[],"keys":["Mexican"],"lastUpdated":1547527612368,"name":"La Barca","phone":"(661) 725-9500","price":"$","reviewCount":49,"reviewScore":2.5,"meta":{"revision":0,"created":1547531148643,"version":0},"$loki":202},{"_id":"5c3d65bd3525a329e0c04240","address":"3350 S Mooney Blvd","location":{"type":"Point","coordinates":[-119.3145301,36.3148834]},"isApproved":true,"items":[],"keys":["Fast Food"],"lastUpdated":1547527612321,"name":"Carl’s Jr","phone":"(559) 733-4465","price":"$","reviewCount":22,"reviewScore":2,"meta":{"revision":0,"created":1547531148643,"version":0},"$loki":203},{"_id":"5c3d65bd3525a329e0c148d0","address":"1404 E Tulare Ave","location":{"type":"Point","coordinates":[-119.3135714,36.3154926]},"isApproved":true,"items":[],"keys":["Mexican"],"lastUpdated":1547527612727,"name":"Taqueria Sin Frontera","phone":"","price":"$","reviewCount":7,"reviewScore":4.5,"meta":{"revision":0,"created":1547531148643,"version":0},"$loki":204},{"_id":"5c3d65bd3525a329e0c0d5af","address":"3403 S Mooney Blvd","location":{"type":"Point","coordinates":[-119.313452571966,36.316033764117]},"isApproved":true,"items":[],"keys":["Vietnamese","Noodles"],"lastUpdated":1547527612548,"name":"Phò KC Noodle & Rice","phone":"(559) 622-9735","price":"$","reviewCount":52,"reviewScore":3.5,"meta":{"revision":0,"created":1547531148643,"version":0},"$loki":205},{"_id":"5c3d65bd3525a329e0c136dd","address":"1315 N Cain St","location":{"type":"Point","coordinates":[-119.313487679239,36.3167115099448]},"isApproved":true,"items":[],"keys":["American (New)"],"lastUpdated":1547527612697,"name":"Los Arbolitos","phone":"(559) 625-8226","price":"$","reviewCount":40,"reviewScore":4,"meta":{"revision":0,"created":1547531148643,"version":0},"$loki":206},{"_id":"5c3d65bd3525a329e0c0b185","address":"114 W Main St","location":{"type":"Point","coordinates":[-119.314357849577,36.3166288583784]},"isApproved":true,"items":[],"keys":["Sandwiches"],"lastUpdated":1547527612497,"name":"Picnic Sandwich Shop","phone":"(559) 734-1847","price":"$","reviewCount":43,"reviewScore":3.5,"meta":{"revision":0,"created":1547531148643,"version":0},"$loki":207},{"_id":"5c3d65bd3525a329e0c0d18b","address":"1053 N Cherry St","location":{"type":"Point","coordinates":[-119.31422,36.31602]},"isApproved":true,"items":[],"keys":["Mexican"],"lastUpdated":1547527612545,"name":"Senor De Los Rayos","phone":"(559) 685-9521","price":"$","reviewCount":3,"reviewScore":1.5,"meta":{"revision":0,"created":1547531148643,"version":0},"$loki":208},{"_id":"5c3d65bd3525a329e0bffe09","address":"670 S Plano St","location":{"type":"Point","coordinates":[-119.1476064,36.2971042]},"isApproved":true,"items":[],"keys":["Breakfast & Brunch","Cafes","American (Traditional)"],"lastUpdated":1547527612222,"name":"Jenny Lynn’s Cafe","phone":"(559) 788-2233","price":"$","reviewCount":39,"reviewScore":3.5,"meta":{"revision":0,"created":1547531148643,"version":0},"$loki":209},{"_id":"5c3d65bd3525a329e0c08878","address":"2636 S Mooney Blvd","location":{"type":"Point","coordinates":[-119.1543737,36.2969604]},"isApproved":true,"items":[],"keys":["Mexican"],"lastUpdated":1547527612428,"name":"El Tarasco","phone":"(559) 732-8226","price":"$$","reviewCount":102,"reviewScore":3.5,"meta":{"revision":0,"created":1547531148643,"version":0},"$loki":210},{"_id":"5c3d65bd3525a329e0c15c84","address":"1110 W Visalia Rd","location":{"type":"Point","coordinates":[-119.1541078,36.2973454]},"isApproved":true,"items":[],"keys":["Chinese"],"lastUpdated":1547527612754,"name":"Fortune Cookie Chinese Restaurant","phone":"(559) 592-2200","price":"$$","reviewCount":26,"reviewScore":4,"meta":{"revision":0,"created":1547531148643,"version":0},"$loki":211},{"_id":"5c3d65bd3525a329e0c08bb7","address":"1509 E Noble Ave","location":{"type":"Point","coordinates":[-119.1541321,36.2973286]},"isApproved":true,"items":[],"keys":["Japanese"],"lastUpdated":1547527612436,"name":"Masaru’s Japanese Restaurant","phone":"(559) 635-4484","price":"$","reviewCount":55,"reviewScore":3,"meta":{"revision":0,"created":1547531148643,"version":0},"$loki":212},{"_id":"5c3d65bd3525a329e0c05a91","address":"733 N Ben Maddox Way","location":{"type":"Point","coordinates":[-119.1542602,36.2983288]},"isApproved":true,"items":[],"keys":["American (Traditional)"],"lastUpdated":1547527612356,"name":"Livestock Cafe","phone":"","price":"$","reviewCount":14,"reviewScore":4,"meta":{"revision":0,"created":1547531148643,"version":0},"$loki":213},{"_id":"5c3d65bd3525a329e0c19847","address":"2005 South Mooney Blvd","location":{"type":"Point","coordinates":[-119.156229,36.297668]},"isApproved":true,"items":[],"keys":["Pizza","Salad","Fast Food"],"lastUpdated":1547527612842,"name":"Blaze Fast-Fire’d Pizza","phone":"(559) 460-4010","price":"$","reviewCount":79,"reviewScore":3.5,"meta":{"revision":0,"created":1547531148643,"version":0},"$loki":214},{"_id":"5c3d65bd3525a329e0c09e4c","address":"3900 S Mooney Blvd","location":{"type":"Point","coordinates":[-119.156043,36.2983391]},"isApproved":true,"items":[],"keys":["Diners","Burgers"],"lastUpdated":1547527612471,"name":"Chubby’s","phone":"(559) 635-2828","price":"$$","reviewCount":40,"reviewScore":4,"meta":{"revision":0,"created":1547531148643,"version":0},"$loki":215},{"_id":"5c3d65bd3525a329e0c0b7e4","address":"1107 Visalia Rd","location":{"type":"Point","coordinates":[-119.157026,36.297292]},"isApproved":true,"items":[],"keys":["Fast Food","Mexican","Tex-Mex"],"lastUpdated":1547527612505,"name":"Taco Bell","phone":"(559) 592-1894","price":"$","reviewCount":3,"reviewScore":3,"meta":{"revision":0,"created":1547531148643,"version":0},"$loki":216},{"_id":"5c3d65bd3525a329e0c15590","address":"38412 Hwy 99","location":{"type":"Point","coordinates":[-119.1990441,36.2980331]},"isApproved":true,"items":[],"keys":["American (New)","Beer Bar"],"lastUpdated":1547527612745,"name":"Roadhouse","phone":"(559) 897-5433","price":"$","reviewCount":133,"reviewScore":4.5,"meta":{"revision":0,"created":1547531148643,"version":0},"$loki":217},{"_id":"5c3d65bd3525a329e0c14329","address":"684 S Farmersville Blvd","location":{"type":"Point","coordinates":[-119.2067868,36.2926141]},"isApproved":true,"items":[],"keys":["Mexican","Delis","Breakfast & Brunch"],"lastUpdated":1547527612714,"name":"La Mejor Del Valle","phone":"(559) 747-1075","price":"$$","reviewCount":21,"reviewScore":4,"meta":{"revision":0,"created":1547531148643,"version":0},"$loki":218},{"_id":"5c3d65bd3525a329e0c02db9","address":"19823 Orange Belt Dr","location":{"type":"Point","coordinates":[-119.2068549,36.2975399]},"isApproved":true,"items":[],"keys":["Mexican"],"lastUpdated":1547527612294,"name":"Taqueria La Unica","phone":"(559) 568-1395","price":"","reviewCount":2,"reviewScore":4.5,"meta":{"revision":0,"created":1547531148643,"version":0},"$loki":219},{"_id":"5c3d65bd3525a329e0c17036","address":"1375 W Henderson Ave","location":{"type":"Point","coordinates":[-119.206892,36.299267]},"isApproved":true,"items":[],"keys":["Chicken Wings"],"lastUpdated":1547527612782,"name":"Wingstop","phone":"(559) 781-9464","price":"$$","reviewCount":10,"reviewScore":3.5,"meta":{"revision":0,"created":1547531148643,"version":0},"$loki":220},{"_id":"5c3d65bd3525a329e0c148df","address":"421 W Vandalia Ave","location":{"type":"Point","coordinates":[-119.1997742,36.2980126]},"isApproved":true,"items":[],"keys":["Mexican","Fast Food"],"lastUpdated":1547527612727,"name":"El Pollo Loco","phone":"(559) 789-9530","price":"$$","reviewCount":8,"reviewScore":4,"meta":{"revision":0,"created":1547531148643,"version":0},"$loki":221},{"_id":"5c3d65bd3525a329e0c112be","address":"1400 East Noble Ave","location":{"type":"Point","coordinates":[-119.2067187,36.3119238]},"isApproved":true,"items":[],"keys":["Hot Dogs","Fast Food","Sandwiches"],"lastUpdated":1547527612642,"name":"Wienerschnitzel","phone":"(559) 747-2523","price":"$","reviewCount":26,"reviewScore":2.5,"meta":{"revision":0,"created":1547531148643,"version":0},"$loki":222},{"_id":"5c3d65bd3525a329e0c0765f","address":"1555 N Farmersville Blvd","location":{"type":"Point","coordinates":[-119.20798670177,36.3109846016347]},"isApproved":true,"items":[],"keys":["Pizza","Pubs"],"lastUpdated":1547527612402,"name":"Farmersville Pizza N Pub","phone":"(559) 747-3300","price":"$","reviewCount":6,"reviewScore":3,"meta":{"revision":0,"created":1547531148643,"version":0},"$loki":223},{"_id":"5c3d65bd3525a329e0c1a371","address":"1555 N Farmersville Blvd","location":{"type":"Point","coordinates":[-119.2078312,36.3111376]},"isApproved":true,"items":[],"keys":["Mexican"],"lastUpdated":1547527612858,"name":"Taqueria El Tapatio No 2","phone":"(559) 747-3188","price":"","reviewCount":15,"reviewScore":4,"meta":{"revision":0,"created":1547531148643,"version":0},"$loki":224},{"_id":"5c3d65bd3525a329e0c01b9c","address":"3540 S Mooney Blvd","location":{"type":"Point","coordinates":[-119.2075134,36.3020364]},"isApproved":true,"items":[],"keys":["Mexican"],"lastUpdated":1547527612258,"name":"Tacos Ensenada","phone":"(559) 627-5079","price":"$","reviewCount":94,"reviewScore":4,"meta":{"revision":0,"created":1547531148643,"version":0},"$loki":225},{"_id":"5c3d65bd3525a329e0c0ed15","address":"4111 W Noble Ave","location":{"type":"Point","coordinates":[-119.207299965515,36.3018318888394]},"isApproved":true,"items":[],"keys":["Pizza"],"lastUpdated":1547527612582,"name":"5Star Pizza","phone":"(559) 713-1310","price":"","reviewCount":8,"reviewScore":4,"meta":{"revision":0,"created":1547531148643,"version":0},"$loki":226},{"_id":"5c3d65bd3525a329e0c1562f","address":"1167 N Cherry St","location":{"type":"Point","coordinates":[-119.2069003,36.3020255]},"isApproved":true,"items":[],"keys":["Chinese","Buffets"],"lastUpdated":1547527612746,"name":"Grand Star Buffet","phone":"(559) 685-9800","price":"$","reviewCount":38,"reviewScore":2.5,"meta":{"revision":0,"created":1547531148643,"version":0},"$loki":227},{"_id":"5c3d65bd3525a329e0c055e1","address":"452 W Noble Ave.","location":{"type":"Point","coordinates":[-119.2068919,36.3020255]},"isApproved":true,"items":[],"keys":["Tex-Mex","Fast Food","Mexican"],"lastUpdated":1547527612348,"name":"Taco Bell","phone":"(559) 622-8745","price":"$","reviewCount":8,"reviewScore":2.5,"meta":{"revision":0,"created":1547531148643,"version":0},"$loki":228},{"_id":"5c3d65bd3525a329e0c193c5","address":"514 N Farmersville Blvd","location":{"type":"Point","coordinates":[-119.2067888,36.301528]},"isApproved":true,"items":[],"keys":["Restaurants"],"lastUpdated":1547527612840,"name":"La Tapatia","phone":"(559) 747-5537","price":"","reviewCount":1,"reviewScore":5,"meta":{"revision":0,"created":1547531148643,"version":0},"$loki":229},{"_id":"5c3d65bd3525a329e0c19f63","address":"222 E Houston Ave","location":{"type":"Point","coordinates":[-119.2068549,36.3013784]},"isApproved":true,"items":[],"keys":["Latin American"],"lastUpdated":1547527612851,"name":"Tacos Mi Casita","phone":"(559) 732-5851","price":"$","reviewCount":17,"reviewScore":4.5,"meta":{"revision":0,"created":1547531148643,"version":0},"$loki":230},{"_id":"5c3d65bd3525a329e0c1562e","address":"12 S Main St","location":{"type":"Point","coordinates":[-119.207120463252,36.3013329987818]},"isApproved":true,"items":[],"keys":["Sandwiches","Salad","Soup"],"lastUpdated":1547527612746,"name":"Deli Delicious","phone":"(559) 783-8857","price":"$","reviewCount":22,"reviewScore":3.5,"meta":{"revision":0,"created":1547531148643,"version":0},"$loki":231},{"_id":"5c3d65bd3525a329e0c10e1f","address":"15228 Road 192","location":{"type":"Point","coordinates":[-119.2111772,36.2977881]},"isApproved":true,"items":[],"keys":["Cafes"],"lastUpdated":1547527612634,"name":"Country Cafe","phone":"(559) 789-5321","price":"","reviewCount":4,"reviewScore":5,"meta":{"revision":0,"created":1547531148643,"version":0},"$loki":232},{"_id":"5c3d65bd3525a329e0c10b5a","address":"23348 Ave 95","location":{"type":"Point","coordinates":[-119.211557,36.297414]},"isApproved":true,"items":[],"keys":["Mexican"],"lastUpdated":1547527612632,"name":"Restaurant Los Arcos","phone":"(559) 535-5034","price":"","reviewCount":4,"reviewScore":5,"meta":{"revision":0,"created":1547531148643,"version":0},"$loki":233},{"_id":"5c3d65bd3525a329e0c07792","address":"1216 High St","location":{"type":"Point","coordinates":[-119.143074035645,36.297794342041]},"isApproved":true,"items":[],"keys":["Restaurants"],"lastUpdated":1547527612402,"name":"Chow Mein Dishes & Grocery","phone":"(661) 720-9937","price":"","reviewCount":1,"reviewScore":5,"meta":{"revision":0,"created":1547531148643,"version":0},"$loki":234},{"_id":"5c3d65bd3525a329e0c00868","address":"101 E Pine St","location":{"type":"Point","coordinates":[-119.1420399,36.2961111]},"isApproved":true,"items":[],"keys":["Mexican"],"lastUpdated":1547527612228,"name":"El Nuevo Mexicali 4","phone":"(559) 592-6514","price":"$","reviewCount":9,"reviewScore":3,"meta":{"revision":0,"created":1547531148643,"version":0},"$loki":235},{"_id":"5c3d65bd3525a329e0c144ac","address":"699 W Center Ave","location":{"type":"Point","coordinates":[-119.1411143,36.2959927]},"isApproved":true,"items":[],"keys":["Latin American","Cocktail Bars","Burgers"],"lastUpdated":1547527612714,"name":"Left of Center","phone":"(559) 733-2582","price":"$$","reviewCount":143,"reviewScore":4.5,"meta":{"revision":0,"created":1547531148643,"version":0},"$loki":236},{"_id":"5c3d65bd3525a329e0c0a4ec","address":"35692 Bridge St","location":{"type":"Point","coordinates":[-119.1409269,36.2959611]},"isApproved":true,"items":[],"keys":["Coffee & Tea","Breakfast & Brunch","Sandwiches"],"lastUpdated":1547527612480,"name":"Wild Oak Coffee House","phone":"(559) 539-5501","price":"$","reviewCount":14,"reviewScore":4.5,"meta":{"revision":0,"created":1547531148643,"version":0},"$loki":237},{"_id":"5c3d65bd3525a329e0c00d5f","address":"35634 CA-190","location":{"type":"Point","coordinates":[-119.1400183,36.2955821]},"isApproved":true,"items":[],"keys":["American (New)","Cocktail Bars","Breakfast & Brunch"],"lastUpdated":1547527612236,"name":"Franks Restaurant","phone":"(559) 483-9525","price":"","reviewCount":13,"reviewScore":4,"meta":{"revision":0,"created":1547531148643,"version":0},"$loki":238},{"_id":"5c3d65bd3525a329e0c0f109","address":"121 S E St","location":{"type":"Point","coordinates":[-119.1404953,36.2959789]},"isApproved":true,"items":[],"keys":["Cafes"],"lastUpdated":1547527612590,"name":"Wildflower Cafe","phone":"(559) 592-2656","price":"$$","reviewCount":80,"reviewScore":3.5,"meta":{"revision":0,"created":1547531148643,"version":0},"$loki":239},{"_id":"5c3d65bd3525a329e0c12f05","address":"","location":{"type":"Point","coordinates":[-119.1399217,36.2969089]},"isApproved":true,"items":[],"keys":["Caterers","Pizza"],"lastUpdated":1547527612687,"name":"All Fired Up! Pizza","phone":"(559) 972-8592","price":"","reviewCount":4,"reviewScore":5,"meta":{"revision":0,"created":1547531148643,"version":0},"$loki":240},{"_id":"5c3d65bd3525a329e0c154d1","address":"463 W Visalia Rd","location":{"type":"Point","coordinates":[-119.1400102,36.2968074]},"isApproved":true,"items":[],"keys":["Asian Fusion"],"lastUpdated":1547527612745,"name":"Asian Paradise Restaurant","phone":"(559) 747-5611","price":"$","reviewCount":50,"reviewScore":4.5,"meta":{"revision":0,"created":1547531148643,"version":0},"$loki":241},{"_id":"5c3d65bd3525a329e0bff863","address":"222 N Valencia Blvd","location":{"type":"Point","coordinates":[-119.1416765,36.2962854]},"isApproved":true,"items":[],"keys":["Burgers","Fast Food"],"lastUpdated":1547527612218,"name":"Woodlake Drive Inn","phone":"(559) 564-8439","price":"$","reviewCount":25,"reviewScore":4,"meta":{"revision":0,"created":1547531148643,"version":0},"$loki":242},{"_id":"5c3d65bd3525a329e0c027fd","address":"1400 W Houston Ave","location":{"type":"Point","coordinates":[-119.1417673,36.2963]},"isApproved":true,"items":[],"keys":["Korean"],"lastUpdated":1547527612285,"name":"Korean House","phone":"(559) 713-6817","price":"$","reviewCount":265,"reviewScore":4.5,"meta":{"revision":0,"created":1547531148643,"version":0},"$loki":243},{"_id":"5c3d65bd3525a329e0c14da9","address":"1612 Ellington St","location":{"type":"Point","coordinates":[-119.141472,36.2963591]},"isApproved":true,"items":[],"keys":["American (Traditional)"],"lastUpdated":1547527612730,"name":"Mary’s Heavenly Bites","phone":"(661) 725-3663","price":"$","reviewCount":37,"reviewScore":4.5,"meta":{"revision":0,"created":1547531148643,"version":0},"$loki":244},{"_id":"5c3d65bd3525a329e0c15b32","address":"481 W Visalia Rd","location":{"type":"Point","coordinates":[-119.141309950293,36.2967256848927]},"isApproved":true,"items":[],"keys":["Latin American"],"lastUpdated":1547527612753,"name":"El Salvador Restaurant","phone":"(559) 747-2207","price":"$","reviewCount":31,"reviewScore":4,"meta":{"revision":0,"created":1547531148643,"version":0},"$loki":245},{"_id":"5c3d65bd3525a329e0c0004b","address":"561 W Olive Ave","location":{"type":"Point","coordinates":[-119.1363156,36.2996508]},"isApproved":true,"items":[],"keys":["Mexican"],"lastUpdated":1547527612223,"name":"El Jacalito","phone":"(559) 788-0304","price":"$","reviewCount":36,"reviewScore":4,"meta":{"revision":0,"created":1547531148643,"version":0},"$loki":246},{"_id":"5c3d65bd3525a329e0c0a40a","address":"449 E Pine St","location":{"type":"Point","coordinates":[-119.137544,36.297893]},"isApproved":true,"items":[],"keys":["Mexican"],"lastUpdated":1547527612480,"name":"Alejandras Mexican Restaurant","phone":"(559) 592-7179","price":"$","reviewCount":38,"reviewScore":4,"meta":{"revision":0,"created":1547531148643,"version":0},"$loki":247},{"_id":"5c3d65bd3525a329e0c009a7","address":"35498 Hwy 190","location":{"type":"Point","coordinates":[-119.1383337,36.2974245]},"isApproved":true,"items":[],"keys":["Mexican"],"lastUpdated":1547527612229,"name":"El Tapatio","phone":"(559) 539-5261","price":"$","reviewCount":17,"reviewScore":3,"meta":{"revision":0,"created":1547531148643,"version":0},"$loki":248},{"_id":"5c3d65bd3525a329e0c13c3d","address":"423 E Pine St","location":{"type":"Point","coordinates":[-119.1379601,36.2975574]},"isApproved":true,"items":[],"keys":["Mexican"],"lastUpdated":1547527612705,"name":"Baja Mex","phone":"(559) 592-1380","price":"$","reviewCount":13,"reviewScore":4.5,"meta":{"revision":0,"created":1547531148643,"version":0},"$loki":249},{"_id":"5c3d65bd3525a329e0c16232","address":"500 S Kaweah Ave","location":{"type":"Point","coordinates":[-119.13632992655,36.2919698718928]},"isApproved":true,"items":[],"keys":["Mexican","Food Stands"],"lastUpdated":1547527612763,"name":"Dozzys","phone":"(559) 805-2022","price":"$$","reviewCount":6,"reviewScore":2.5,"meta":{"revision":0,"created":1547531148643,"version":0},"$loki":250},{"_id":"5c3d65bd3525a329e0c06298","address":"15921 Ave 328","location":{"type":"Point","coordinates":[-119.136361,36.2912595]},"isApproved":true,"items":[],"keys":["Mexican"],"lastUpdated":1547527612369,"name":"Mi Ranchito Restaurant","phone":"(559) 798-0552","price":"$","reviewCount":11,"reviewScore":4,"meta":{"revision":0,"created":1547531148643,"version":0},"$loki":251},{"_id":"5c3d65bd3525a329e0c13516","address":"960 S Spruce Rd","location":{"type":"Point","coordinates":[-119.1177214,36.286253]},"isApproved":true,"items":[],"keys":["Mexican","Food Trucks"],"lastUpdated":1547527612695,"name":"Taqueria Tooleville","phone":"(559) 730-6109","price":"$","reviewCount":12,"reviewScore":4.5,"meta":{"revision":0,"created":1547531148643,"version":0},"$loki":252},{"_id":"5c3d65bd3525a329e0c0d5be","address":"134 E Orange Ave","location":{"type":"Point","coordinates":[-119.118486195803,36.2533392192547]},"isApproved":true,"items":[],"keys":["Mexican"],"lastUpdated":1547527612548,"name":"El Tapatio","phone":"(559) 781-2115","price":"$$","reviewCount":137,"reviewScore":3.5,"meta":{"revision":0,"created":1547531148643,"version":0},"$loki":253},{"_id":"5c3d65bd3525a329e0c0232f","address":"420 N Kaweah Ave","location":{"type":"Point","coordinates":[-119.136153,36.303246]},"isApproved":true,"items":[],"keys":["Fast Food"],"lastUpdated":1547527612276,"name":"A & W Restaurant","phone":"(559) 592-5700","price":"$","reviewCount":20,"reviewScore":3.5,"meta":{"revision":0,"created":1547531148643,"version":0},"$loki":254},{"_id":"5c3d65bd3525a329e0c00f7a","address":"1066 Ranking Ave","location":{"type":"Point","coordinates":[-119.135323,36.302847]},"isApproved":true,"items":[],"keys":["Mexican"],"lastUpdated":1547527612238,"name":"Birrieria Apatzingan","phone":"(559) 685-1740","price":"$$","reviewCount":26,"reviewScore":4,"meta":{"revision":0,"created":1547531148643,"version":0},"$loki":255},{"_id":"5c3d65bd3525a329e0c0e67d","address":"1537 Hillman St","location":{"type":"Point","coordinates":[-118.9182682,35.8925297]},"isApproved":true,"items":[],"keys":["Japanese"],"lastUpdated":1547527612574,"name":"Tokyo Place","phone":"(559) 684-0758","price":"$$","reviewCount":68,"reviewScore":3.5,"meta":{"revision":0,"created":1547531148643,"version":0},"$loki":256},{"_id":"5c3d65bd3525a329e0c13d64","address":"3001 Auto Mall Dr","location":{"type":"Point","coordinates":[-118.9182682,35.8925297]},"isApproved":true,"items":[],"keys":["Mexican","Diners","Burgers"],"lastUpdated":1547527612706,"name":"La Fonda","phone":"(661) 832-1750","price":"$","reviewCount":158,"reviewScore":4,"meta":{"revision":0,"created":1547531148643,"version":0},"$loki":257},{"_id":"5c3d65bd3525a329e0c001e3","address":"316 N Court St","location":{"type":"Point","coordinates":[-118.9156518,35.891063]},