{"filename":"-120.25-36.25","collections":[{"name":"restaurants","data":[{"_id":"5c3d65bd3525a329e0c092ab","address":"2068 E Front St","location":{"type":"Point","coordinates":[-120.3540674,36.1467042]},"isApproved":true,"items":[],"keys":["Barbeque","Salad","Sandwiches"],"lastUpdated":1547527612452,"name":"Grapewood Grill","phone":"(559) 898-0556","price":"$$","reviewCount":79,"reviewScore":4.5,"meta":{"revision":0,"created":1547531149392,"version":0},"$loki":1},{"_id":"5c3d65bd3525a329e0c0d933","address":"1304 Railroad St","location":{"type":"Point","coordinates":[-120.3540674,36.1467042]},"isApproved":true,"items":[],"keys":["Pizza"],"lastUpdated":1547527612555,"name":"Chubby Chandler’s Pizza","phone":"(805) 239-2141","price":"$$","reviewCount":54,"reviewScore":4,"meta":{"revision":0,"created":1547531149392,"version":0},"$loki":2},{"_id":"5c3d65bd3525a329e0c0b31f","address":"25026 W Dorris","location":{"type":"Point","coordinates":[-120.3641729,36.143581]},"isApproved":true,"items":[],"keys":["Diners","American (Traditional)","Breakfast & Brunch"],"lastUpdated":1547527612498,"name":"Denny’s","phone":"(559) 935-3529","price":"$","reviewCount":200,"reviewScore":2.5,"meta":{"revision":0,"created":1547531149392,"version":0},"$loki":3},{"_id":"5c3d65bd3525a329e0c1b37a","address":"2360 Main St","location":{"type":"Point","coordinates":[-120.3641729,36.143581]},"isApproved":true,"items":[],"keys":["Pizza","Chicken Wings","Sandwiches"],"lastUpdated":1547527612884,"name":"Domino’s Pizza","phone":"(805) 772-6151","price":"$","reviewCount":36,"reviewScore":3.5,"meta":{"revision":0,"created":1547531149392,"version":0},"$loki":4},{"_id":"5c3d65bd3525a329e0bffdcc","address":"141 E Kings St","location":{"type":"Point","coordinates":[-120.365357,36.1364983]},"isApproved":true,"items":[],"keys":["Mexican"],"lastUpdated":1547527612222,"name":"El Cantarito","phone":"(559) 386-1845","price":"","reviewCount":1,"reviewScore":5,"meta":{"revision":0,"created":1547531149392,"version":0},"$loki":5},{"_id":"5c3d65bd3525a329e0c00426","address":"1800 Marion St","location":{"type":"Point","coordinates":[-120.36563,36.135591]},"isApproved":true,"items":[],"keys":["Chinese"],"lastUpdated":1547527612226,"name":"Chow’s Kitchen","phone":"(559) 897-8838","price":"","reviewCount":7,"reviewScore":5,"meta":{"revision":0,"created":1547531149392,"version":0},"$loki":6},{"_id":"5c3d65bd3525a329e0c1674b","address":"7339 El Camino Real","location":{"type":"Point","coordinates":[-120.36563,36.135591]},"isApproved":true,"items":[],"keys":["Pizza"],"lastUpdated":1547527612766,"name":"Little Caesars Pizza","phone":"(805) 460-9111","price":"$","reviewCount":18,"reviewScore":3,"meta":{"revision":0,"created":1547531149392,"version":0},"$loki":7},{"_id":"5c3d65bd3525a329e0c11910","address":"161 E Kings St","location":{"type":"Point","coordinates":[-120.363950072554,36.1361407418527]},"isApproved":true,"items":[],"keys":["Burgers","Pizza","Sandwiches"],"lastUpdated":1547527612651,"name":"Gallery Cafe","phone":"(559) 386-5678","price":"$","reviewCount":16,"reviewScore":4.5,"meta":{"revision":0,"created":1547531149392,"version":0},"$loki":8},{"_id":"5c3d65bd3525a329e0c16f6e","address":"611 Spring St","location":{"type":"Point","coordinates":[-120.363950072554,36.1361407418527]},"isApproved":true,"items":[],"keys":["Beer, Wine & Spirits","Delis"],"lastUpdated":1547527612781,"name":"Cregor’s","phone":"(805) 239-1917","price":"$","reviewCount":25,"reviewScore":4,"meta":{"revision":0,"created":1547531149392,"version":0},"$loki":9},{"_id":"5c3d65bd3525a329e0c07855","address":"480 N 11th Ave","location":{"type":"Point","coordinates":[-120.3608905,36.1361431]},"isApproved":true,"items":[],"keys":["Sushi Bars","Japanese"],"lastUpdated":1547527612408,"name":"Getaxpress","phone":"(559) 582-6821","price":"$","reviewCount":54,"reviewScore":3,"meta":{"revision":0,"created":1547531149392,"version":0},"$loki":10},{"_id":"5c3d65bd3525a329e0c0cb9c","address":"396 W Elm Ave","location":{"type":"Point","coordinates":[-120.363415405154,36.13683192561]},"isApproved":true,"items":[],"keys":["Burgers","Fast Food","Coffee & Tea"],"lastUpdated":1547527612533,"name":"McDonald’s","phone":"(559) 935-1740","price":"$","reviewCount":15,"reviewScore":1.5,"meta":{"revision":0,"created":1547531149392,"version":0},"$loki":11},{"_id":"5c3d65bd3525a329e0c16b7e","address":"1067 Sierra","location":{"type":"Point","coordinates":[-120.359034,36.138562]},"isApproved":true,"items":[],"keys":["Mexican"],"lastUpdated":1547527612773,"name":"El Burrito House","phone":"(559) 897-7335","price":"$","reviewCount":81,"reviewScore":4.5,"meta":{"revision":0,"created":1547531149392,"version":0},"$loki":12},{"_id":"5c3d65bd3525a329e0c0552a","address":"","location":{"type":"Point","coordinates":[-120.3600216,36.1367282]},"isApproved":true,"items":[],"keys":["Food Trucks","Barbeque"],"lastUpdated":1547527612347,"name":"BBQ In The Stix","phone":"(805) 354-2401","price":"$$","reviewCount":42,"reviewScore":5,"meta":{"revision":0,"created":1547531149392,"version":0},"$loki":13},{"_id":"5c3d65bd3525a329e0c1a301","address":"1881 6th Ave Dr","location":{"type":"Point","coordinates":[-120.3600216,36.1367282]},"isApproved":true,"items":[],"keys":["Mexican"],"lastUpdated":1547527612858,"name":"Robertito’s Taco Shop","phone":"(559) 869-6006","price":"$$","reviewCount":36,"reviewScore":2.5,"meta":{"revision":0,"created":1547531149392,"version":0},"$loki":14},{"_id":"5c3d65bd3525a329e0c0c819","address":"6900 El Camino Real","location":{"type":"Point","coordinates":[-120.3600761,36.140196]},"isApproved":true,"items":[],"keys":["Sushi Bars","Japanese","Seafood"],"lastUpdated":1547527612526,"name":"Kai Lana Sushi & Seafood","phone":"(805) 462-2232","price":"","reviewCount":10,"reviewScore":3.5,"meta":{"revision":0,"created":1547531149392,"version":0},"$loki":15},{"_id":"5c3d65bd3525a329e0c0e74d","address":"2163 Park St","location":{"type":"Point","coordinates":[-120.3600761,36.140196]},"isApproved":true,"items":[],"keys":["Mexican","Venues & Event Spaces"],"lastUpdated":1547527612574,"name":"Sal’s Mexican Restaurant","phone":"(559) 896-0412","price":"$$","reviewCount":334,"reviewScore":4.5,"meta":{"revision":0,"created":1547531149392,"version":0},"$loki":16},{"_id":"5c3d65bd3525a329e0c11dc8","address":"1750 N 10th Ave","location":{"type":"Point","coordinates":[-120.3599222,36.1397877]},"isApproved":true,"items":[],"keys":["Mexican"],"lastUpdated":1547527612661,"name":"La Trailita Taqueria","phone":"(559) 670-3160","price":"$","reviewCount":39,"reviewScore":4.5,"meta":{"revision":0,"created":1547531149392,"version":0},"$loki":17},{"_id":"5c3d65bd3525a329e0c0ee8d","address":"2201 Theater Dr","location":{"type":"Point","coordinates":[-120.360678,36.139671]},"isApproved":true,"items":[],"keys":["Fast Food"],"lastUpdated":1547527612583,"name":"Carl’s Jr","phone":"(805) 227-4732","price":"$","reviewCount":21,"reviewScore":2,"meta":{"revision":0,"created":1547531149392,"version":0},"$loki":18},{"_id":"5c3d65bd3525a329e0c170d8","address":"112 W Hanford Armona Rd","location":{"type":"Point","coordinates":[-120.360678,36.139671]},"isApproved":true,"items":[],"keys":["Mexican"],"lastUpdated":1547527612782,"name":"Cisneros’taqueria II","phone":"","price":"$","reviewCount":33,"reviewScore":4,"meta":{"revision":0,"created":1547531149392,"version":0},"$loki":19},{"_id":"5c3d65bd3525a329e0c17bd2","address":"201 E St","location":{"type":"Point","coordinates":[-120.3607899,36.1399296]},"isApproved":true,"items":[],"keys":["Coffee & Tea","Juice Bars & Smoothies","Sushi Bars"],"lastUpdated":1547527612800,"name":"Boba Island","phone":"(559) 924-1027","price":"$","reviewCount":105,"reviewScore":3.5,"meta":{"revision":0,"created":1547531149392,"version":0},"$loki":20},{"_id":"5c3d65bd3525a329e0c0ea58","address":"405 W D St","location":{"type":"Point","coordinates":[-120.360125340521,36.1402227926971]},"isApproved":true,"items":[],"keys":["Thai"],"lastUpdated":1547527612581,"name":"Pad Thai","phone":"(559) 925-7959","price":"$","reviewCount":124,"reviewScore":4.5,"meta":{"revision":0,"created":1547531149392,"version":0},"$loki":21},{"_id":"5c3d65bd3525a329e0c0fc4b","address":"755 Main St","location":{"type":"Point","coordinates":[-120.360125340521,36.1402227926971]},"isApproved":true,"items":[],"keys":["Ice Cream & Frozen Yogurt","Gift Shops","Sandwiches"],"lastUpdated":1547527612607,"name":"Caren’s Corner","phone":"(805) 927-1161","price":"$","reviewCount":11,"reviewScore":3.5,"meta":{"revision":0,"created":1547531149392,"version":0},"$loki":22},{"_id":"5c3d65bd3525a329e0c06a59","address":"855 N Lemoore Ave","location":{"type":"Point","coordinates":[-120.3592017,36.1413771]},"isApproved":true,"items":[],"keys":["Breakfast & Brunch","American (Traditional)","Diners"],"lastUpdated":1547527612379,"name":"Chubby’s","phone":"(559) 925-8889","price":"$","reviewCount":39,"reviewScore":4,"meta":{"revision":0,"created":1547531149392,"version":0},"$loki":23},{"_id":"5c3d65bd3525a329e0c08bf6","address":"6910 El Camino Real","location":{"type":"Point","coordinates":[-120.3586612,36.1417529]},"isApproved":true,"items":[],"keys":["Diners","Breakfast & Brunch","American (Traditional)"],"lastUpdated":1547527612436,"name":"Denny’s","phone":"(805) 461-5949","price":"$","reviewCount":96,"reviewScore":2.5,"meta":{"revision":0,"created":1547531149392,"version":0},"$loki":24},{"_id":"5c3d65bd3525a329e0c0b320","address":"70410 Parkfield Coalinga Rd","location":{"type":"Point","coordinates":[-120.3586612,36.1417529]},"isApproved":true,"items":[],"keys":["Hotels","Venues & Event Spaces","Cafes"],"lastUpdated":1547527612498,"name":"Parkfield Café","phone":"(805) 463-2421","price":"$$","reviewCount":32,"reviewScore":4.5,"meta":{"revision":0,"created":1547531149392,"version":0},"$loki":25},{"_id":"5c3d65bd3525a329e0c10847","address":"129 E Elm Ave","location":{"type":"Point","coordinates":[-120.3579832,36.1418913]},"isApproved":true,"items":[],"keys":["Ice Cream & Frozen Yogurt","Mexican"],"lastUpdated":1547527612620,"name":"Tres Aguaves Taqueria y Paleteria","phone":"","price":"$","reviewCount":14,"reviewScore":4.5,"meta":{"revision":0,"created":1547531149392,"version":0},"$loki":26},{"_id":"5c3d65bd3525a329e0c072d7","address":"6105 E Kings Canyon Rd","location":{"type":"Point","coordinates":[-120.356893,36.143527]},"isApproved":true,"items":[],"keys":["Food Trucks","Tacos"],"lastUpdated":1547527612399,"name":"Taste Kitchen","phone":"(559) 724-9948","price":"$$","reviewCount":81,"reviewScore":4.5,"meta":{"revision":0,"created":1547531149392,"version":0},"$loki":27},{"_id":"5c3d65bd3525a329e0c066df","address":"451 E Elm Ave","location":{"type":"Point","coordinates":[-120.357,36.1434]},"isApproved":true,"items":[],"keys":["Fast Food","Chicken Wings","Chicken Shop"],"lastUpdated":1547527612378,"name":"KFC","phone":"(559) 935-0638","price":"","reviewCount":6,"reviewScore":2,"meta":{"revision":0,"created":1547531149392,"version":0},"$loki":28},{"_id":"5c3d65bd3525a329e0c00e4a","address":"4500 San Palo","location":{"type":"Point","coordinates":[-120.356895309733,36.1441168900183]},"isApproved":true,"items":[],"keys":["Fast Food"],"lastUpdated":1547527612237,"name":"KFC","phone":"(805) 466-4242","price":"$","reviewCount":43,"reviewScore":2,"meta":{"revision":0,"created":1547531149392,"version":0},"$loki":29},{"_id":"5c3d65bd3525a329e0c04514","address":"155 W Hanford Armona Rd","location":{"type":"Point","coordinates":[-120.356895309733,36.1441168900183]},"isApproved":true,"items":[],"keys":["Sushi Bars","Japanese","Salad"],"lastUpdated":1547527612322,"name":"Sushi Table Asian Bistro","phone":"(559) 925-1698","price":"$$","reviewCount":79,"reviewScore":3,"meta":{"revision":0,"created":1547531149392,"version":0},"$loki":30},{"_id":"5c3d65bd3525a329e0c00eca","address":"280 Van Ness St","location":{"type":"Point","coordinates":[-120.3566571,36.1441115]},"isApproved":true,"items":[],"keys":["Chinese"],"lastUpdated":1547527612237,"name":"Imperial Palace Chinese Restaurant","phone":"(559) 935-2450","price":"$","reviewCount":3,"reviewScore":2.5,"meta":{"revision":0,"created":1547531149392,"version":0},"$loki":31},{"_id":"5c3d65bd3525a329e0c0967d","address":"17225 Jersey Ave","location":{"type":"Point","coordinates":[-120.3565906,36.1441111]},"isApproved":true,"items":[],"keys":["American (Traditional)"],"lastUpdated":1547527612454,"name":"Coyote Grille","phone":"(866) 472-5223","price":"$$","reviewCount":63,"reviewScore":3.5,"meta":{"revision":0,"created":1547531149392,"version":0},"$loki":32},{"_id":"5c3d65bd3525a329e0c12929","address":"1131 Creston Rd","location":{"type":"Point","coordinates":[-120.3565906,36.1441111]},"isApproved":true,"items":[],"keys":["Sushi Bars"],"lastUpdated":1547527612679,"name":"Samurai Sushi & Roll","phone":"(805) 237-1353","price":"$$","reviewCount":75,"reviewScore":3.5,"meta":{"revision":0,"created":1547531149392,"version":0},"$loki":33},{"_id":"5c3d65bd3525a329e0c074be","address":"6917 El Camino Real","location":{"type":"Point","coordinates":[-120.354893,36.144953]},"isApproved":true,"items":[],"keys":["Mexican","Bars"],"lastUpdated":1547527612400,"name":"Que Pasa!","phone":"(805) 462-1400","price":"$$","reviewCount":276,"reviewScore":3,"meta":{"revision":0,"created":1547531149392,"version":0},"$loki":34},{"_id":"5c3d65bd3525a329e0c0ad20","address":"24505 W Dorris Ave","location":{"type":"Point","coordinates":[-120.354893,36.144953]},"isApproved":true,"items":[],"keys":["Steakhouses"],"lastUpdated":1547527612490,"name":"Prime Steakhouse at Harris Ranch","phone":"(559) 935-0717","price":"","reviewCount":14,"reviewScore":4,"meta":{"revision":0,"created":1547531149392,"version":0},"$loki":35},{"_id":"5c3d65bd3525a329e0c05f7c","address":"718 N Lemoore Ave","location":{"type":"Point","coordinates":[-120.350704,36.136294]},"isApproved":true,"items":[],"keys":["Burgers","Ice Cream & Frozen Yogurt","Sandwiches"],"lastUpdated":1547527612368,"name":"Burger Shack","phone":"(559) 997-1114","price":"$","reviewCount":32,"reviewScore":4.5,"meta":{"revision":0,"created":1547531149392,"version":0},"$loki":36},{"_id":"5c3d65bd3525a329e0c08f89","address":"302 E Elm Ave","location":{"type":"Point","coordinates":[-120.1653801,36.1372194]},"isApproved":true,"items":[],"keys":["Bakeries","Donuts","Vietnamese"],"lastUpdated":1547527612438,"name":"Busy Bee Bakery","phone":"(559) 935-2635","price":"$","reviewCount":27,"reviewScore":4,"meta":{"revision":0,"created":1547531149392,"version":0},"$loki":37},{"_id":"5c3d65bd3525a329e0c08d27","address":"41027 S Glenn Ave","location":{"type":"Point","coordinates":[-120.164834707975,36.1373456338494]},"isApproved":true,"items":[],"keys":["Sandwiches","Fast Food"],"lastUpdated":1547527612437,"name":"Subway","phone":"","price":"","reviewCount":1,"reviewScore":1,"meta":{"revision":0,"created":1547531149392,"version":0},"$loki":38},{"_id":"5c3d65bd3525a329e0c08344","address":"924 Whitley Ave","location":{"type":"Point","coordinates":[-120.2499882,36.2529862]},"isApproved":true,"items":[],"keys":["Seafood","Mexican"],"lastUpdated":1547527612420,"name":"Mariscos Don Beto","phone":"","price":"","reviewCount":2,"reviewScore":5,"meta":{"revision":0,"created":1547531149392,"version":0},"$loki":39},{"_id":"5c3d65bd3525a329e0c1a9cb","address":"102 Larish St","location":{"type":"Point","coordinates":[-120.2494924,36.2538949]},"isApproved":true,"items":[],"keys":["Chinese"],"lastUpdated":1547527612868,"name":"China Inn","phone":"(559) 925-8688","price":"$","reviewCount":46,"reviewScore":3,"meta":{"revision":0,"created":1547531149392,"version":0},"$loki":40},{"_id":"5c3d65bd3525a329e0c17713","address":"920 Franklin Ave","location":{"type":"Point","coordinates":[-120.248688,36.2537]},"isApproved":true,"items":[],"keys":["American (Traditional)","Pizza"],"lastUpdated":1547527612791,"name":"Spuds Restaurant & Brew Pub","phone":"(559) 998-2200","price":"$","reviewCount":33,"reviewScore":2.5,"meta":{"revision":0,"created":1547531149392,"version":0},"$loki":41},{"_id":"5c3d65bd3525a329e0c0332b","address":"10870 14th Ave","location":{"type":"Point","coordinates":[-120.237337934779,36.2536896988239]},"isApproved":true,"items":[],"keys":["Delis"],"lastUpdated":1547527612302,"name":"Raven’s Deli","phone":"(559) 584-9524","price":"$","reviewCount":27,"reviewScore":4,"meta":{"revision":0,"created":1547531149392,"version":0},"$loki":42},{"_id":"5c3d65bd3525a329e0c03bfd","address":"36618 Lassen Ave","location":{"type":"Point","coordinates":[-120.237337934779,36.2536896988239]},"isApproved":true,"items":[],"keys":["Pizza","Italian","American (Traditional)"],"lastUpdated":1547527612312,"name":"Huron Straw Hat Pizza","phone":"(559) 945-1234","price":"$","reviewCount":11,"reviewScore":4,"meta":{"revision":0,"created":1547531149392,"version":0},"$loki":43},{"_id":"5c3d65bd3525a329e0c14869","address":"10691 14th Ave","location":{"type":"Point","coordinates":[-120.237337934779,36.2536896988239]},"isApproved":true,"items":[],"keys":["Mexican"],"lastUpdated":1547527612727,"name":"Betos On Wheels Restaurant","phone":"","price":"$","reviewCount":6,"reviewScore":3.5,"meta":{"revision":0,"created":1547531149392,"version":0},"$loki":44},{"_id":"5c3d65bd3525a329e0c174b1","address":"179 W Polk St","location":{"type":"Point","coordinates":[-120.237337934779,36.2536896988239]},"isApproved":true,"items":[],"keys":["Chinese"],"lastUpdated":1547527612790,"name":"China 1 Express","phone":"(559) 935-8781","price":"$","reviewCount":16,"reviewScore":4,"meta":{"revision":0,"created":1547531149392,"version":0},"$loki":45},{"_id":"5c3d65bd3525a329e0c19cf5","address":"24505 W Dorris Ave","location":{"type":"Point","coordinates":[-120.237337934779,36.2536896988239]},"isApproved":true,"items":[],"keys":["Breakfast & Brunch","Steakhouses","American (New)"],"lastUpdated":1547527612850,"name":"Harris Ranch Inn & Restaurant","phone":"(559) 935-0717","price":"$$","reviewCount":2470,"reviewScore":3.5,"meta":{"revision":0,"created":1547531149392,"version":0},"$loki":46},{"_id":"5c3d65bd3525a329e0c113ef","address":"829 Skyline Blvd","location":{"type":"Point","coordinates":[-120.23736,36.253736]},"isApproved":true,"items":[],"keys":["Mexican"],"lastUpdated":1547527612643,"name":"Restaurante la Carreta","phone":"(559) 386-0337","price":"$","reviewCount":49,"reviewScore":4,"meta":{"revision":0,"created":1547531149392,"version":0},"$loki":47},{"_id":"5c3d65bd3525a329e0c01dc3","address":"Highway 43","location":{"type":"Point","coordinates":[-120.239359334881,36.253294645369]},"isApproved":true,"items":[],"keys":["Mexican","Food Trucks"],"lastUpdated":1547527612260,"name":"Taqueria Mi Rancho","phone":"","price":"$","reviewCount":6,"reviewScore":3.5,"meta":{"revision":0,"created":1547531149392,"version":0},"$loki":48},{"_id":"5c3d65bd3525a329e0c04385","address":"1335 Draper St","location":{"type":"Point","coordinates":[-120.239359334881,36.253294645369]},"isApproved":true,"items":[],"keys":["Italian","Bars","American (Traditional)"],"lastUpdated":1547527612321,"name":"Fugazzis","phone":"(559) 419-9865","price":"$$","reviewCount":31,"reviewScore":4,"meta":{"revision":0,"created":1547531149392,"version":0},"$loki":49},{"_id":"5c3d65bd3525a329e0c0e0fc","address":"193 W Polk St","location":{"type":"Point","coordinates":[-120.239359334881,36.253294645369]},"isApproved":true,"items":[],"keys":["Sandwiches","Fast Food"],"lastUpdated":1547527612565,"name":"Subway","phone":"(559) 935-5656","price":"$","reviewCount":4,"reviewScore":2.5,"meta":{"revision":0,"created":1547531149392,"version":0},"$loki":50},{"_id":"5c3d65bd3525a329e0c14caf","address":"208 N 8th St","location":{"type":"Point","coordinates":[-120.239359334881,36.253294645369]},"isApproved":true,"items":[],"keys":["Indian","International Grocery"],"lastUpdated":1547527612729,"name":"India Express - Sweet & Spice","phone":"(559) 834-1300","price":"","reviewCount":18,"reviewScore":5,"meta":{"revision":0,"created":1547531149392,"version":0},"$loki":51},{"_id":"5c3d65bd3525a329e0c17525","address":"820 W Lacey Blvd","location":{"type":"Point","coordinates":[-120.239359334881,36.253294645369]},"isApproved":true,"items":[],"keys":["Pizza"],"lastUpdated":1547527612790,"name":"Mountain Mike’s Pizza","phone":"(559) 585-1135","price":"$$","reviewCount":31,"reviewScore":2,"meta":{"revision":0,"created":1547531149392,"version":0},"$loki":52},{"_id":"5c3d65bd3525a329e0c17fe5","address":"915 Sierra St","location":{"type":"Point","coordinates":[-120.239359334881,36.253294645369]},"isApproved":true,"items":[],"keys":["Pizza"],"lastUpdated":1547527612802,"name":"Little Caesars Pizza","phone":"(559) 897-3100","price":"$","reviewCount":1,"reviewScore":1,"meta":{"revision":0,"created":1547531149392,"version":0},"$loki":53},{"_id":"5c3d65bd3525a329e0c1acc0","address":"8792-8902 E Lacey Blvd","location":{"type":"Point","coordinates":[-120.239359334881,36.253294645369]},"isApproved":true,"items":[],"keys":["Mexican"],"lastUpdated":1547527612874,"name":"Flor Bonita Taco Truck","phone":"","price":"","reviewCount":5,"reviewScore":2.5,"meta":{"revision":0,"created":1547531149392,"version":0},"$loki":54},{"_id":"5c3d65bd3525a329e0c0d62e","address":"2810 E Manning Ave","location":{"type":"Point","coordinates":[-120.249080210924,36.2556097541]},"isApproved":true,"items":[],"keys":["Mexican","Burgers"],"lastUpdated":1547527612548,"name":"99 Grub Shack","phone":"(559) 834-2014","price":"$","reviewCount":63,"reviewScore":4,"meta":{"revision":0,"created":1547531149392,"version":0},"$loki":55},{"_id":"5c3d65bd3525a329e0c0e32f","address":"27494 Dana Circle","location":{"type":"Point","coordinates":[-120.2503714,36.2546331]},"isApproved":true,"items":[],"keys":["Fast Food","Mexican","Breakfast & Brunch"],"lastUpdated":1547527612572,"name":"Taco Bell","phone":"(559) 386-4314","price":"$","reviewCount":54,"reviewScore":2,"meta":{"revision":0,"created":1547531149392,"version":0},"$loki":56},{"_id":"5c3d65bd3525a329e0c0a8e1","address":"795 N Sunset St","location":{"type":"Point","coordinates":[-120.250686,36.254743]},"isApproved":true,"items":[],"keys":["Mexican"],"lastUpdated":1547527612482,"name":"Rico’s Asaderos","phone":"(559) 821-8282","price":"","reviewCount":2,"reviewScore":3,"meta":{"revision":0,"created":1547531149392,"version":0},"$loki":57},{"_id":"5c3d65bd3525a329e0c1532f","address":"33464 Bernard Dr","location":{"type":"Point","coordinates":[-120.25066,36.254955]},"isApproved":true,"items":[],"keys":["Burgers","Fast Food"],"lastUpdated":1547527612738,"name":"In-N-Out Burger","phone":"(800) 786-1000","price":"$","reviewCount":425,"reviewScore":4,"meta":{"revision":0,"created":1547531149392,"version":0},"$loki":58},{"_id":"5c3d65bd3525a329e0c18f38","address":"2432 McCall Ave","location":{"type":"Point","coordinates":[-120.2521968,36.2547998]},"isApproved":true,"items":[],"keys":["American (Traditional)","Breakfast & Brunch"],"lastUpdated":1547527612832,"name":"Amigos Blueberry Hill","phone":"","price":"","reviewCount":2,"reviewScore":2.5,"meta":{"revision":0,"created":1547531149392,"version":0},"$loki":59},{"_id":"5c3d65bd3525a329e0c07ef2","address":"855 North Lemoore Ave","location":{"type":"Point","coordinates":[-120.390091,36.5008539]},"isApproved":true,"items":[],"keys":["Sandwiches","Delis"],"lastUpdated":1547527612417,"name":"Deli Delicious","phone":"(559) 423-5688","price":"$$","reviewCount":39,"reviewScore":3,"meta":{"revision":0,"created":1547531149392,"version":0},"$loki":60},{"_id":"5c3d65bd3525a329e0c09881","address":"150 N 12th Ave","location":{"type":"Point","coordinates":[-119.950398420737,36.3289527644189]},"isApproved":true,"items":[],"keys":["Mexican"],"lastUpdated":1547527612462,"name":"Figaros Southwestern Grill","phone":"(559) 583-0589","price":"$$","reviewCount":126,"reviewScore":4,"meta":{"revision":0,"created":1547531149392,"version":0},"$loki":61},{"_id":"5c3d65bd3525a329e0c057b0","address":"418 Irwin St","location":{"type":"Point","coordinates":[-119.948228218931,36.3224934179731]},"isApproved":true,"items":[],"keys":["Burgers"],"lastUpdated":1547527612349,"name":"The Drive-In","phone":"(559) 670-3976","price":"$$","reviewCount":25,"reviewScore":4,"meta":{"revision":0,"created":1547531149392,"version":0},"$loki":62},{"_id":"5c3d65bd3525a329e0c0e7cb","address":"1537 Lincoln St","location":{"type":"Point","coordinates":[-119.952163696289,36.3350406720961]},"isApproved":true,"items":[],"keys":["Bakeries","Cafes","Cupcakes"],"lastUpdated":1547527612574,"name":"Bella Rose Bakery & Cafe","phone":"(559) 419-9054","price":"$$","reviewCount":70,"reviewScore":4.5,"meta":{"revision":0,"created":1547531149392,"version":0},"$loki":63},{"_id":"5c3d65bd3525a329e0c04a01","address":"101 W Polk St","location":{"type":"Point","coordinates":[-120.1030788,36.2008168]},"isApproved":true,"items":[],"keys":["American (Traditional)","Barbeque"],"lastUpdated":1547527612331,"name":"Cafe 101","phone":"(559) 935-3531","price":"$","reviewCount":28,"reviewScore":3.5,"meta":{"revision":0,"created":1547531149392,"version":0},"$loki":64},{"_id":"5c3d65bd3525a329e0c11c4e","address":"329 Fox St","location":{"type":"Point","coordinates":[-120.1031239,36.201689]},"isApproved":true,"items":[],"keys":["Breakfast & Brunch"],"lastUpdated":1547527612660,"name":"Chicas","phone":"(559) 997-1200","price":"","reviewCount":17,"reviewScore":4.5,"meta":{"revision":0,"created":1547531149392,"version":0},"$loki":65},{"_id":"5c3d65bd3525a329e0c13435","address":"1025 W Bush St","location":{"type":"Point","coordinates":[-120.103924,36.203998]},"isApproved":true,"items":[],"keys":["Mexican"],"lastUpdated":1547527612690,"name":"Tacos Los Juanes","phone":"(559) 924-4168","price":"$","reviewCount":114,"reviewScore":4,"meta":{"revision":0,"created":1547531149392,"version":0},"$loki":66},{"_id":"5c3d65bd3525a329e0c123c9","address":"1000 General Petroleum Ave","location":{"type":"Point","coordinates":[-120.103478,36.075227]},"isApproved":true,"items":[],"keys":["Butcher","Mexican","Convenience Stores"],"lastUpdated":1547527612670,"name":"Taqueria Y Carniceria Mexico","phone":"(559) 386-9968","price":"$","reviewCount":122,"reviewScore":4.5,"meta":{"revision":0,"created":1547531149392,"version":0},"$loki":67},{"_id":"5c3d65bd3525a329e0c11df6","address":"150 E Hanford Armona Rd","location":{"type":"Point","coordinates":[-120.1040374,36.0751276]},"isApproved":true,"items":[],"keys":["Mexican"],"lastUpdated":1547527612661,"name":"La Parilla","phone":"(559) 817-5240","price":"","reviewCount":4,"reviewScore":4.5,"meta":{"revision":0,"created":1547531149392,"version":0},"$loki":68},{"_id":"5c3d65bd3525a329e0c07bc3","address":"2340 Highway 46","location":{"type":"Point","coordinates":[-120.134823,36.0027179]},"isApproved":true,"items":[],"keys":["Pizza","Italian","Chicken Wings"],"lastUpdated":1547527612410,"name":"Pizza Hut","phone":"(661) 758-5184","price":"","reviewCount":4,"reviewScore":3.5,"meta":{"revision":0,"created":1547531149392,"version":0},"$loki":69},{"_id":"5c3d65bd3525a329e0c087c6","address":"420 N 11th Ave","location":{"type":"Point","coordinates":[-120.134823,36.0027179]},"isApproved":true,"items":[],"keys":["Mexican"],"lastUpdated":1547527612428,"name":"Mariscos Colima","phone":"(559) 589-9033","price":"$","reviewCount":21,"reviewScore":3.5,"meta":{"revision":0,"created":1547531149392,"version":0},"$loki":70},{"_id":"5c3d65bd3525a329e0c0999e","address":"223 E Kings St","location":{"type":"Point","coordinates":[-120.1355301,36.0027055]},"isApproved":true,"items":[],"keys":["Pizza"],"lastUpdated":1547527612463,"name":"Tumbleweeds Pizza","phone":"(559) 386-5678","price":"$$","reviewCount":1,"reviewScore":2,"meta":{"revision":0,"created":1547531149392,"version":0},"$loki":71},{"_id":"5c3d65bd3525a329e0c03f0d","address":"24505 W Dorris Ave","location":{"type":"Point","coordinates":[-120.135583877564,36.0024255169181]},"isApproved":true,"items":[],"keys":["Fast Food","Sandwiches"],"lastUpdated":1547527612319,"name":"Subway","phone":"(559) 935-0717","price":"$","reviewCount":9,"reviewScore":2,"meta":{"revision":0,"created":1547531149392,"version":0},"$loki":72},{"_id":"5c3d65bd3525a329e0c0022b","address":"1950 E Front St","location":{"type":"Point","coordinates":[-120.131940422144,36.0031219311316]},"isApproved":true,"items":[],"keys":["Chinese"],"lastUpdated":1547527612225,"name":"A Golden Dragon Chinese Restaurant","phone":"(559) 896-0170","price":"$","reviewCount":62,"reviewScore":4.5,"meta":{"revision":0,"created":1547531149392,"version":0},"$loki":73},{"_id":"5c3d65bd3525a329e0c095fb","address":"1734 N 10th Ave","location":{"type":"Point","coordinates":[-120.1270576,36.0048423]},"isApproved":true,"items":[],"keys":["Burgers"],"lastUpdated":1547527612454,"name":"Mike’s Grill","phone":"(559) 585-1141","price":"$$","reviewCount":57,"reviewScore":4.5,"meta":{"revision":0,"created":1547531149392,"version":0},"$loki":74},{"_id":"5c3d65bd3525a329e0c15072","address":"41027 S Glen Ave","location":{"type":"Point","coordinates":[-120.126350708306,36.0053849145598]},"isApproved":true,"items":[],"keys":["Fast Food","Mexican","Tex-Mex"],"lastUpdated":1547527612736,"name":"Baja Fresh","phone":"(559) 935-3400","price":"$","reviewCount":50,"reviewScore":2.5,"meta":{"revision":0,"created":1547531149392,"version":0},"$loki":75},{"_id":"5c3d65bd3525a329e0c07826","address":"33225 Hubert Way","location":{"type":"Point","coordinates":[-120.1256162,36.0062169]},"isApproved":true,"items":[],"keys":["Mexican","Bars"],"lastUpdated":1547527612408,"name":"Solorios Bar and Grill","phone":"(559) 717-9041","price":"","reviewCount":10,"reviewScore":3.5,"meta":{"revision":0,"created":1547531149392,"version":0},"$loki":76},{"_id":"5c3d65bd3525a329e0c0a90d","address":"1067 Sierra St","location":{"type":"Point","coordinates":[-120.1251194,36.0059716]},"isApproved":true,"items":[],"keys":["Mexican"],"lastUpdated":1547527612482,"name":"Las Tres Casuelas","phone":"(559) 897-4321","price":"$","reviewCount":29,"reviewScore":3.5,"meta":{"revision":0,"created":1547531149392,"version":0},"$loki":77},{"_id":"5c3d65bd3525a329e0c0de67","address":"20673 Tracy Ave","location":{"type":"Point","coordinates":[-120.1251194,36.0059716]},"isApproved":true,"items":[],"keys":["Sandwiches","Fast Food"],"lastUpdated":1547527612563,"name":"Subway","phone":"(661) 764-9590","price":"$","reviewCount":76,"reviewScore":2,"meta":{"revision":0,"created":1547531149392,"version":0},"$loki":78},{"_id":"5c3d65bd3525a329e0c08682","address":"14814 Aloma St","location":{"type":"Point","coordinates":[-120.1363838,36.0027451]},"isApproved":true,"items":[],"keys":["American (Traditional)"],"lastUpdated":1547527612427,"name":"Dairy Queen","phone":"(661) 797-9477","price":"$","reviewCount":26,"reviewScore":2,"meta":{"revision":0,"created":1547531149392,"version":0},"$loki":79},{"_id":"5c3d65bd3525a329e0c0de04","address":"260 Van Ness St","location":{"type":"Point","coordinates":[-120.1363838,36.0027451]},"isApproved":true,"items":[],"keys":["American (Traditional)","Beer Bar"],"lastUpdated":1547527612563,"name":"Whiskey Row","phone":"(559) 821-8195","price":"$$","reviewCount":12,"reviewScore":4,"meta":{"revision":0,"created":1547531149392,"version":0},"$loki":80},{"_id":"5c3d65bd3525a329e0c1220d","address":"44779 S Lassen Ave","location":{"type":"Point","coordinates":[-120.1367579,36.002724]},"isApproved":true,"items":[],"keys":["Sandwiches","Fast Food"],"lastUpdated":1547527612669,"name":"Subway","phone":"(559) 386-9344","price":"$","reviewCount":15,"reviewScore":3.5,"meta":{"revision":0,"created":1547531149392,"version":0},"$loki":81},{"_id":"5c3d65bd3525a329e0c14b46","address":"102 S 5th St","location":{"type":"Point","coordinates":[-119.897440608454,36.2630011544758]},"isApproved":true,"items":[],"keys":["Mexican"],"lastUpdated":1547527612728,"name":"Taqueria El Repollito","phone":"(559) 935-2970","price":"$","reviewCount":11,"reviewScore":3.5,"meta":{"revision":0,"created":1547531149392,"version":0},"$loki":82},{"_id":"5c3d65bd3525a329e0c10a4e","address":"208 N 12th Ave","location":{"type":"Point","coordinates":[-119.900087943933,36.263547204604]},"isApproved":true,"items":[],"keys":["Pizza","Buffets"],"lastUpdated":1547527612631,"name":"Round Table Pizza","phone":"(559) 585-1406","price":"$$","reviewCount":46,"reviewScore":3,"meta":{"revision":0,"created":1547531149392,"version":0},"$loki":83},{"_id":"5c3d65bd3525a329e0c06725","address":"1117 Whitley","location":{"type":"Point","coordinates":[-119.911166748007,36.2606250881193]},"isApproved":true,"items":[],"keys":["Pizza"],"lastUpdated":1547527612378,"name":"Pizza Factory","phone":"(559) 992-3148","price":"$$","reviewCount":16,"reviewScore":4,"meta":{"revision":0,"created":1547531149392,"version":0},"$loki":84}],"idIndex":[1,2,3,4,5,6,7,8,9,10,11,12,13,14,15,16,17,18,19,20,21,22,23,24,25,26,27,28,29,30,31,32,33,34,35,36,37,38,39,40,41,42,43,44,45,46,47,48,49,50,51,52,53,54,55,56,57,58,59,60,61,62,63,64,65,66,67,68,69,70,71,72,73,74,75,76,77,78,79,80,81,82,83,84],"binaryIndices":{},"constraints":null,"uniqueNames":[],"transforms":{},"objType":"restaurants","dirty":true,"cachedIndex":null,"cachedBinaryIndex":null,"cachedData":null,"adaptiveBinaryIndices":true,"transactional":false,"cloneObjects":false,"cloneMethod":"parse-stringify","asyncListeners":false,"disableMeta":false,"disableChangesApi":true,"disableDeltaChangesApi":true,"autoupdate":false,"serializableIndices":true,"ttl":null,"maxId":84,"DynamicViews":[],"events":{"insert":[],"update":[],"pre-insert":[],"pre-update":[],"close":[],"flushbuffer":[],"error":[],"delete":[null],"warning":[null]},"changes":[]}],"databaseVersion":1.5,"engineVersion":1.5,"autosave":false,"autosaveInterval":5000,"autosaveHandle":null,"throttledSaves":true,"options":{"serializationMethod":"normal","destructureDelimiter":"$<\n"},"persistenceMethod":"fs","persistenceAdapter":null,"verbose":false,"events":{"init":[null],"loaded":[],"flushChanges":[],"close":[],"changes":[],"warning":[]},"ENV":"NODEJS"}