{"filename":"-120-47","collections":[{"name":"restaurants","data":[{"_id":"5c3d65bd3525a329e0c1a08c","address":"452 South Columbia Ave","location":{"type":"Point","coordinates":[-119.680916,46.89845]},"isApproved":true,"items":[],"keys":["American (Traditional)","Fast Food","Burgers"],"lastUpdated":1547527612857,"name":"Burger Factory II","phone":"(509) 234-4511","price":"$","reviewCount":11,"reviewScore":5,"meta":{"revision":0,"created":1547531148660,"version":0},"$loki":1},{"_id":"5c3d65bd3525a329e0c12edc","address":"155 Camelia St NW","location":{"type":"Point","coordinates":[-119.6314985,46.8999091]},"isApproved":true,"items":[],"keys":["Food Trucks","Mexican"],"lastUpdated":1547527612687,"name":"Taqueria Gaitan","phone":"","price":"","reviewCount":1,"reviewScore":5,"meta":{"revision":0,"created":1547531148660,"version":0},"$loki":2},{"_id":"5c3d65bd3525a329e0c0b3c3","address":"7037 Hwy 262 SE","location":{"type":"Point","coordinates":[-119.627664,46.899747]},"isApproved":true,"items":[],"keys":["Restaurants"],"lastUpdated":1547527612498,"name":"Mike’s Place","phone":"(509) 346-1611","price":"$$","reviewCount":9,"reviewScore":3,"meta":{"revision":0,"created":1547531148660,"version":0},"$loki":3},{"_id":"5c3d65bd3525a329e0c043d8","address":"810 E Main St","location":{"type":"Point","coordinates":[-119.657563,46.905964]},"isApproved":true,"items":[],"keys":["Mexican"],"lastUpdated":1547527612321,"name":"Guadalaraja Resteraunt Y","phone":"(509) 488-2828","price":"","reviewCount":8,"reviewScore":3.5,"meta":{"revision":0,"created":1547531148660,"version":0},"$loki":4},{"_id":"5c3d65bd3525a329e0c01148","address":"412 Main St","location":{"type":"Point","coordinates":[-119.829851612449,47.1041638446735]},"isApproved":true,"items":[],"keys":["Breweries","Pubs","American (New)"],"lastUpdated":1547527612239,"name":"Iron Horse Brewery","phone":"(509) 834-7838","price":"$$","reviewCount":100,"reviewScore":4,"meta":{"revision":0,"created":1547531148660,"version":0},"$loki":5},{"_id":"5c3d65bd3525a329e0c0f4f8","address":"8198 Highway 262 SE","location":{"type":"Point","coordinates":[-119.829851612449,47.1041638446735]},"isApproved":true,"items":[],"keys":["Restaurants"],"lastUpdated":1547527612592,"name":"Mar Don Restaurant & Lounge","phone":"(509) 346-9688","price":"","reviewCount":3,"reviewScore":4.5,"meta":{"revision":0,"created":1547531148660,"version":0},"$loki":6},{"_id":"5c3d65bd3525a329e0c02a74","address":"301 Rope Rider Dr","location":{"type":"Point","coordinates":[-119.8555944,47.0842352]},"isApproved":true,"items":[],"keys":["American (New)","Wineries"],"lastUpdated":1547527612286,"name":"Swiftwater Cellars","phone":"(509) 674-6555","price":"$$$","reviewCount":163,"reviewScore":4,"meta":{"revision":0,"created":1547531148660,"version":0},"$loki":7},{"_id":"5c3d65bd3525a329e0c19ef3","address":"Unnamed Rd","location":{"type":"Point","coordinates":[-119.858149915752,47.0825303282841]},"isApproved":true,"items":[],"keys":["American (New)","Campgrounds","Gun/Rifle Ranges"],"lastUpdated":1547527612851,"name":"FOB Ghost Cat","phone":"","price":"","reviewCount":1,"reviewScore":5,"meta":{"revision":0,"created":1547531148660,"version":0},"$loki":8},{"_id":"5c3d65bd3525a329e0c12bb4","address":"205 West Tacoma","location":{"type":"Point","coordinates":[-119.8598507,47.0826346]},"isApproved":true,"items":[],"keys":["Pizza"],"lastUpdated":1547527612680,"name":"Papa Murphy’s","phone":"(509) 962-9282","price":"$$","reviewCount":6,"reviewScore":3.5,"meta":{"revision":0,"created":1547531148660,"version":0},"$loki":9},{"_id":"5c3d65bd3525a329e0c17325","address":"23772 Crescent Bay Dr","location":{"type":"Point","coordinates":[-119.860783956548,47.0823712893247]},"isApproved":true,"items":[],"keys":["Wine Bars","American (New)","Mediterranean"],"lastUpdated":1547527612783,"name":"Friends Riviera Bistro","phone":"(509) 787-2135","price":"","reviewCount":8,"reviewScore":4.5,"meta":{"revision":0,"created":1547531148660,"version":0},"$loki":10},{"_id":"5c3d65bd3525a329e0c09a62","address":"101 S Wenatchee Ave","location":{"type":"Point","coordinates":[-119.8423266,47.2336545]},"isApproved":true,"items":[],"keys":["Cocktail Bars","Tapas/Small Plates"],"lastUpdated":1547527612463,"name":"The Sidecar Lounge","phone":"(509) 316-9112","price":"$$","reviewCount":32,"reviewScore":4.5,"meta":{"revision":0,"created":1547531148660,"version":0},"$loki":11},{"_id":"5c3d65bd3525a329e0c0430a","address":"1720 S Canyon Rd","location":{"type":"Point","coordinates":[-119.8520245,47.2326144]},"isApproved":true,"items":[],"keys":["Indian"],"lastUpdated":1547527612321,"name":"Nirvana Inn & Grill","phone":"(509) 968-5300","price":"$$","reviewCount":23,"reviewScore":2.5,"meta":{"revision":0,"created":1547531148660,"version":0},"$loki":12},{"_id":"5c3d65bd3525a329e0c007e8","address":"7 N Worthen St","location":{"type":"Point","coordinates":[-119.8531309,47.2321383]},"isApproved":true,"items":[],"keys":["Mexican","Latin American","Bars"],"lastUpdated":1547527612228,"name":"South - Pybus","phone":"(509) 888-5463","price":"$$","reviewCount":93,"reviewScore":3.5,"meta":{"revision":0,"created":1547531148660,"version":0},"$loki":13},{"_id":"5c3d65bd3525a329e0c17818","address":"111 Orondo Ave","location":{"type":"Point","coordinates":[-119.8530952,47.2277514]},"isApproved":true,"items":[],"keys":["American (New)","Salad","Bars"],"lastUpdated":1547527612792,"name":"McGlinn’s Public House","phone":"(509) 663-9073","price":"$$","reviewCount":381,"reviewScore":4,"meta":{"revision":0,"created":1547531148660,"version":0},"$loki":14},{"_id":"5c3d65bd3525a329e0c03dd6","address":"115 W University Way","location":{"type":"Point","coordinates":[-119.8538233,47.230613]},"isApproved":true,"items":[],"keys":["Fast Food"],"lastUpdated":1547527612313,"name":"Jack in the Box","phone":"(509) 933-2833","price":"$$","reviewCount":16,"reviewScore":3,"meta":{"revision":0,"created":1547531148660,"version":0},"$loki":15},{"_id":"5c3d65bd3525a329e0c15054","address":"8381 Washington 903","location":{"type":"Point","coordinates":[-119.8529926,47.2313649]},"isApproved":true,"items":[],"keys":["American (Traditional)","Salad","Seafood"],"lastUpdated":1547527612736,"name":"The Old #3 Restaurant","phone":"(509) 649-3301","price":"$$","reviewCount":27,"reviewScore":3.5,"meta":{"revision":0,"created":1547531148660,"version":0},"$loki":16},{"_id":"5c3d65bd3525a329e0c06992","address":"390 Valley Mall Pkwy","location":{"type":"Point","coordinates":[-119.8539135,47.2310295]},"isApproved":true,"items":[],"keys":["Cafes","Bubble Tea","Asian Fusion"],"lastUpdated":1547527612379,"name":"Papaya Asian Café","phone":"(509) 888-2260","price":"","reviewCount":5,"reviewScore":3,"meta":{"revision":0,"created":1547531148660,"version":0},"$loki":17},{"_id":"5c3d65bd3525a329e0c143ba","address":"409 S Main St","location":{"type":"Point","coordinates":[-119.854328,47.231843]},"isApproved":true,"items":[],"keys":["Pizza"],"lastUpdated":1547527612714,"name":"Cattledog","phone":"(509) 933-1212","price":"","reviewCount":6,"reviewScore":4.5,"meta":{"revision":0,"created":1547531148660,"version":0},"$loki":18},{"_id":"5c3d65bd3525a329e0c0996f","address":"7 N Worthen St","location":{"type":"Point","coordinates":[-119.8750852,47.2309279]},"isApproved":true,"items":[],"keys":["Breweries","Pizza"],"lastUpdated":1547527612463,"name":"Wenatchee Valley Brewing Company","phone":"(509) 888-8088","price":"$$","reviewCount":60,"reviewScore":4,"meta":{"revision":0,"created":1547531148660,"version":0},"$loki":19},{"_id":"5c3d65bd3525a329e0c05af6","address":"201 W University Way","location":{"type":"Point","coordinates":[-119.8750852,47.2309303487804]},"isApproved":true,"items":[],"keys":["Mexican"],"lastUpdated":1547527612356,"name":"El Caporal","phone":"(509) 962-5228","price":"$$","reviewCount":39,"reviewScore":3,"meta":{"revision":0,"created":1547531148660,"version":0},"$loki":20},{"_id":"5c3d65bd3525a329e0c19352","address":"212 E 1st St","location":{"type":"Point","coordinates":[-119.8739377,47.2306943]},"isApproved":true,"items":[],"keys":["American (New)"],"lastUpdated":1547527612834,"name":"Orchard Restaurant","phone":"(509) 852-2900","price":"$$$$","reviewCount":21,"reviewScore":3.5,"meta":{"revision":0,"created":1547531148660,"version":0},"$loki":21},{"_id":"5c3d65bd3525a329e0c09991","address":"8 N Wenatchee Ave","location":{"type":"Point","coordinates":[-119.8740319,47.2326455]},"isApproved":true,"items":[],"keys":["Sushi Bars","Japanese"],"lastUpdated":1547527612463,"name":"Iwa Sushi and Grill","phone":"(509) 667-8744","price":"$$","reviewCount":101,"reviewScore":4,"meta":{"revision":0,"created":1547531148660,"version":0},"$loki":22},{"_id":"5c3d65bd3525a329e0c0385e","address":"309 S 1st St","location":{"type":"Point","coordinates":[-119.871579058599,47.2331168249858]},"isApproved":true,"items":[],"keys":["Pizza"],"lastUpdated":1547527612304,"name":"Magic’s Pizza Shack","phone":"(509) 697-4441","price":"$","reviewCount":10,"reviewScore":4,"meta":{"revision":0,"created":1547531148660,"version":0},"$loki":23},{"_id":"5c3d65bd3525a329e0c1195f","address":"1512 N Wenatchee Ave","location":{"type":"Point","coordinates":[-119.861077,47.2329971]},"isApproved":true,"items":[],"keys":["Mexican"],"lastUpdated":1547527612651,"name":"Taco Time","phone":"(509) 662-9680","price":"$","reviewCount":6,"reviewScore":2.5,"meta":{"revision":0,"created":1547531148660,"version":0},"$loki":24},{"_id":"5c3d65bd3525a329e0bffc43","address":"602 Maple St","location":{"type":"Point","coordinates":[-119.8591472,47.2329578]},"isApproved":true,"items":[],"keys":["Delis","Sandwiches","Grocery"],"lastUpdated":1547527612221,"name":"Roberts’ Market","phone":"(509) 673-2581","price":"","reviewCount":1,"reviewScore":3,"meta":{"revision":0,"created":1547531148660,"version":0},"$loki":25},{"_id":"5c3d65bd3525a329e0c0339b","address":"921 Valley Mall Pkwy","location":{"type":"Point","coordinates":[-119.8545688,47.2349192]},"isApproved":true,"items":[],"keys":["Chicken Wings","Sports Bars"],"lastUpdated":1547527612302,"name":"Joe’s sports bar","phone":"(509) 888-0300","price":"","reviewCount":1,"reviewScore":5,"meta":{"revision":0,"created":1547531148660,"version":0},"$loki":26},{"_id":"5c3d65bd3525a329e0c04683","address":"1337 N Wenatchee Ave","location":{"type":"Point","coordinates":[-119.854316711426,47.2330927422235]},"isApproved":true,"items":[],"keys":["American (Traditional)","Breakfast & Brunch","Diners"],"lastUpdated":1547527612328,"name":"Denny’s","phone":"(509) 662-7169","price":"$$","reviewCount":27,"reviewScore":3,"meta":{"revision":0,"created":1547531148660,"version":0},"$loki":27},{"_id":"5c3d65bd3525a329e0c0421b","address":"179 Valley Mall Pkwy","location":{"type":"Point","coordinates":[-119.8539636,47.2330205]},"isApproved":true,"items":[],"keys":["Fast Food","Sandwiches"],"lastUpdated":1547527612321,"name":"Arby’s","phone":"(509) 884-9700","price":"","reviewCount":3,"reviewScore":2.5,"meta":{"revision":0,"created":1547531148660,"version":0},"$loki":28},{"_id":"5c3d65bd3525a329e0c00da0","address":"402 Central Ave S","location":{"type":"Point","coordinates":[-119.853012,47.2342328]},"isApproved":true,"items":[],"keys":["Sandwiches","Mediterranean","Fast Food"],"lastUpdated":1547527612237,"name":"Pita Pit","phone":"(509) 797-7612","price":"$","reviewCount":9,"reviewScore":4.5,"meta":{"revision":0,"created":1547531148660,"version":0},"$loki":29},{"_id":"5c3d65bd3525a329e0c12c8f","address":"702 E University Way","location":{"type":"Point","coordinates":[-119.8505147,47.2337983]},"isApproved":true,"items":[],"keys":["Japanese"],"lastUpdated":1547527612680,"name":"Kiku-Chan Japanese Food","phone":"(509) 962-1200","price":"$$","reviewCount":25,"reviewScore":3.5,"meta":{"revision":0,"created":1547531148660,"version":0},"$loki":30},{"_id":"5c3d65bd3525a329e0c0b9f6","address":"1005 E University Way","location":{"type":"Point","coordinates":[-119.84958,47.2342609]},"isApproved":true,"items":[],"keys":["Fast Food","Sandwiches"],"lastUpdated":1547527612507,"name":"Subway","phone":"(509) 925-4422","price":"$","reviewCount":5,"reviewScore":1.5,"meta":{"revision":0,"created":1547531148660,"version":0},"$loki":31},{"_id":"5c3d65bd3525a329e0c0965a","address":"1501 N Wenatchee Ave","location":{"type":"Point","coordinates":[-119.8497355,47.2341257]},"isApproved":true,"items":[],"keys":["Steakhouses","Desserts","Seafood"],"lastUpdated":1547527612454,"name":"The Windmill","phone":"(509) 665-9529","price":"$$$","reviewCount":75,"reviewScore":4,"meta":{"revision":0,"created":1547531148660,"version":0},"$loki":32},{"_id":"5c3d65bd3525a329e0c1394f","address":"12160 US Hwy 12","location":{"type":"Point","coordinates":[-119.852394,47.2360965]},"isApproved":true,"items":[],"keys":["Pizza","Pubs"],"lastUpdated":1547527612698,"name":"Bron Yr Aur","phone":"(509) 653-1109","price":"$$","reviewCount":66,"reviewScore":4.5,"meta":{"revision":0,"created":1547531148660,"version":0},"$loki":33},{"_id":"5c3d65bd3525a329e0c14907","address":"16791 Summitview Rd","location":{"type":"Point","coordinates":[-119.853276,47.23603]},"isApproved":true,"items":[],"keys":["Mexican"],"lastUpdated":1547527612727,"name":"Cocina Zacatecas","phone":"","price":"$","reviewCount":3,"reviewScore":5,"meta":{"revision":0,"created":1547531148660,"version":0},"$loki":34},{"_id":"5c3d65bd3525a329e0c13a07","address":"905 N Wenatchee Ave","location":{"type":"Point","coordinates":[-120.000633,47.22395]},"isApproved":true,"items":[],"keys":["Barbeque"],"lastUpdated":1547527612698,"name":"Sweetwood BBQ","phone":"(509) 888-4557","price":"$$","reviewCount":107,"reviewScore":5,"meta":{"revision":0,"created":1547531148660,"version":0},"$loki":35},{"_id":"5c3d65bd3525a329e0c0017e","address":"318 E 1st St","location":{"type":"Point","coordinates":[-119.9956541,47.2205127]},"isApproved":true,"items":[],"keys":["American (Traditional)","Coffee & Tea","Breakfast & Brunch"],"lastUpdated":1547527612224,"name":"Sunset Cafe","phone":"(509) 674-2241","price":"$$","reviewCount":189,"reviewScore":4,"meta":{"revision":0,"created":1547531148660,"version":0},"$loki":36},{"_id":"5c3d65bd3525a329e0c13b0c","address":"3600 Suncadia Trl","location":{"type":"Point","coordinates":[-119.9934,47.216969]},"isApproved":true,"items":[],"keys":["American (Traditional)","Diners","Breakfast & Brunch"],"lastUpdated":1547527612699,"name":"Portals","phone":"(509) 649-6473","price":"$$","reviewCount":94,"reviewScore":3,"meta":{"revision":0,"created":1547531148660,"version":0},"$loki":37},{"_id":"5c3d65bd3525a329e0c16f54","address":"206 N Main St","location":{"type":"Point","coordinates":[-120.0566015625,46.9675130914803]},"isApproved":true,"items":[],"keys":["Brewpubs","German"],"lastUpdated":1547527612781,"name":"Ellensburg Brewery & Tilted Tree Cidery","phone":"(509) 933-4005","price":"","reviewCount":4,"reviewScore":4.5,"meta":{"revision":0,"created":1547531148660,"version":0},"$loki":38},{"_id":"5c3d65bd3525a329e0c0fad5","address":"801 Milwaukee Rd","location":{"type":"Point","coordinates":[-119.996408,47.098768]},"isApproved":true,"items":[],"keys":["Barbeque","Comfort Food","Breakfast & Brunch"],"lastUpdated":1547527612601,"name":"Smokey’s Bar-B-Que","phone":"(509) 674-2006","price":"$$","reviewCount":183,"reviewScore":4,"meta":{"revision":0,"created":1547531148660,"version":0},"$loki":39},{"_id":"5c3d65bd3525a329e0c18555","address":"813 W Wine Country Rd","location":{"type":"Point","coordinates":[-119.9218807,46.7385246]},"isApproved":true,"items":[],"keys":["American (New)","Fast Food"],"lastUpdated":1547527612815,"name":"Eli and Kathy’s Family Restaurant","phone":"(509) 882-1044","price":"$","reviewCount":21,"reviewScore":4,"meta":{"revision":0,"created":1547531148660,"version":0},"$loki":40},{"_id":"5c3d65bd3525a329e0c07089","address":"413 Wine Country Rd","location":{"type":"Point","coordinates":[-119.9014514,46.7380075]},"isApproved":true,"items":[],"keys":["American (Traditional)","Diners","Breakfast & Brunch"],"lastUpdated":1547527612389,"name":"The Roza Grill","phone":"(509) 781-6315","price":"$","reviewCount":19,"reviewScore":4,"meta":{"revision":0,"created":1547531148660,"version":0},"$loki":41},{"_id":"5c3d65bd3525a329e0c0bc1e","address":"609 N Wenatchee Ave","location":{"type":"Point","coordinates":[-119.9014514,46.7380075]},"isApproved":true,"items":[],"keys":["Mexican"],"lastUpdated":1547527612509,"name":"Alma’s Mexican Kitchen","phone":"(509) 470-8371","price":"$","reviewCount":104,"reviewScore":4,"meta":{"revision":0,"created":1547531148660,"version":0},"$loki":42},{"_id":"5c3d65bd3525a329e0c1229b","address":"433 S Elm St","location":{"type":"Point","coordinates":[-119.9020405,46.7380408]},"isApproved":true,"items":[],"keys":["Breakfast & Brunch","Burgers"],"lastUpdated":1547527612669,"name":"Dad’s Family Restaurant","phone":"(509) 865-4349","price":"$","reviewCount":20,"reviewScore":3,"meta":{"revision":0,"created":1547531148660,"version":0},"$loki":43},{"_id":"5c3d65bd3525a329e0c15384","address":"704 Wisconsin Ave","location":{"type":"Point","coordinates":[-119.9020405,46.7380408]},"isApproved":true,"items":[],"keys":["Mexican","Salvadoran"],"lastUpdated":1547527612738,"name":"Don Mateo Salvadorean & Mexican Cuisine","phone":"(509) 901-5963","price":"","reviewCount":10,"reviewScore":5,"meta":{"revision":0,"created":1547531148660,"version":0},"$loki":44},{"_id":"5c3d65bd3525a329e0c1950f","address":"300 Grant Rd","location":{"type":"Point","coordinates":[-119.902161,46.7377893]},"isApproved":true,"items":[],"keys":["Burgers","Fast Food"],"lastUpdated":1547527612840,"name":"Carl’s Jr","phone":"(509) 884-7785","price":"$","reviewCount":9,"reviewScore":2,"meta":{"revision":0,"created":1547531148660,"version":0},"$loki":45},{"_id":"5c3d65bd3525a329e0c1771c","address":"614 6th St","location":{"type":"Point","coordinates":[-119.9068516,46.7384892]},"isApproved":true,"items":[],"keys":["Thai"],"lastUpdated":1547527612791,"name":"Thai Vintage","phone":"(509) 781-6511","price":"","reviewCount":32,"reviewScore":4.5,"meta":{"revision":0,"created":1547531148660,"version":0},"$loki":46},{"_id":"5c3d65bd3525a329e0c1a24d","address":"120 N Wenatchee Ave","location":{"type":"Point","coordinates":[-119.9068516,46.7384892]},"isApproved":true,"items":[],"keys":["Coffee & Tea","Gastropubs","Wine Bars"],"lastUpdated":1547527612858,"name":"Stones Gastropub","phone":"(509) 470-2296","price":"$$","reviewCount":74,"reviewScore":4,"meta":{"revision":0,"created":1547531148660,"version":0},"$loki":47},{"_id":"5c3d65bd3525a329e0c0a468","address":"111 E University Way","location":{"type":"Point","coordinates":[-120.413286052644,46.9725992349868]},"isApproved":true,"items":[],"keys":["Filipino"],"lastUpdated":1547527612480,"name":"Lutong Pinoy","phone":"(509) 307-7841","price":"","reviewCount":4,"reviewScore":5,"meta":{"revision":0,"created":1547531148660,"version":0},"$loki":48}],"idIndex":[1,2,3,4,5,6,7,8,9,10,11,12,13,14,15,16,17,18,19,20,21,22,23,24,25,26,27,28,29,30,31,32,33,34,35,36,37,38,39,40,41,42,43,44,45,46,47,48],"binaryIndices":{},"constraints":null,"uniqueNames":[],"transforms":{},"objType":"restaurants","dirty":true,"cachedIndex":null,"cachedBinaryIndex":null,"cachedData":null,"adaptiveBinaryIndices":true,"transactional":false,"cloneObjects":false,"cloneMethod":"parse-stringify","asyncListeners":false,"disableMeta":false,"disableChangesApi":true,"disableDeltaChangesApi":true,"autoupdate":false,"serializableIndices":true,"ttl":null,"maxId":48,"DynamicViews":[],"events":{"insert":[],"update":[],"pre-insert":[],"pre-update":[],"close":[],"flushbuffer":[],"error":[],"delete":[null],"warning":[null]},"changes":[]}],"databaseVersion":1.5,"engineVersion":1.5,"autosave":false,"autosaveInterval":5000,"autosaveHandle":null,"throttledSaves":true,"options":{"serializationMethod":"normal","destructureDelimiter":"$<\n"},"persistenceMethod":"fs","persistenceAdapter":null,"verbose":false,"events":{"init":[null],"loaded":[],"flushChanges":[],"close":[],"changes":[],"warning":[]},"ENV":"NODEJS"}