{"filename":"-120.5-46.25","collections":[{"name":"restaurants","data":[{"_id":"5c3d65bd3525a329e0c034fa","address":"1320 S Fair Ave","location":{"type":"Point","coordinates":[-120.6222464,46.5585157]},"isApproved":true,"items":[],"keys":["American (New)","Food Stands","Mexican"],"lastUpdated":1547527612303,"name":"Taqueria Uruapan","phone":"","price":"$","reviewCount":6,"reviewScore":4,"meta":{"revision":0,"created":1547531148280,"version":0},"$loki":1},{"_id":"5c3d65bd3525a329e0c1b34a","address":"3706 Tieton Dr","location":{"type":"Point","coordinates":[-120.5300387,46.5706408]},"isApproved":true,"items":[],"keys":["Coffee & Tea","Sandwiches"],"lastUpdated":1547527612884,"name":"Espresso Express","phone":"(509) 452-3004","price":"$","reviewCount":8,"reviewScore":4.5,"meta":{"revision":0,"created":1547531148280,"version":0},"$loki":2},{"_id":"5c3d65bd3525a329e0c16127","address":"1204 Yakima Valley Hwy","location":{"type":"Point","coordinates":[-120.5098674,46.5705083]},"isApproved":true,"items":[],"keys":["Restaurants"],"lastUpdated":1547527612762,"name":"La Fogata","phone":"(509) 839-9019","price":"","reviewCount":3,"reviewScore":2.5,"meta":{"revision":0,"created":1547531148280,"version":0},"$loki":3},{"_id":"5c3d65bd3525a329e0c00b3a","address":"6 N. Fair Ave, Suite 115","location":{"type":"Point","coordinates":[-120.509224,46.570535]},"isApproved":true,"items":[],"keys":["Pizza"],"lastUpdated":1547527612230,"name":"Pizza Hut","phone":"(509) 453-9999","price":"$$","reviewCount":10,"reviewScore":1.5,"meta":{"revision":0,"created":1547531148280,"version":0},"$loki":4},{"_id":"5c3d65bd3525a329e0c129ef","address":"415 S Wapato Ave","location":{"type":"Point","coordinates":[-120.475704,46.547486]},"isApproved":true,"items":[],"keys":["Mexican"],"lastUpdated":1547527612679,"name":"Restaurante San Juan","phone":"(509) 877-7664","price":"","reviewCount":1,"reviewScore":5,"meta":{"revision":0,"created":1547531148280,"version":0},"$loki":5},{"_id":"5c3d65bd3525a329e0c10eb5","address":"2706 W Nob Hill Blvd","location":{"type":"Point","coordinates":[-120.4564746,46.4881938]},"isApproved":true,"items":[],"keys":["Barbeque","American (Traditional)","Southern"],"lastUpdated":1547527612634,"name":"Dickey’s Barbecue Pit","phone":"(509) 388-0637","price":"$$","reviewCount":30,"reviewScore":3,"meta":{"revision":0,"created":1547531148280,"version":0},"$loki":6},{"_id":"5c3d65bd3525a329e0c09e84","address":"2560 Donald Wapato Rd","location":{"type":"Point","coordinates":[-120.396924,46.47493]},"isApproved":true,"items":[],"keys":["Pizza"],"lastUpdated":1547527612471,"name":"HopTown Wood Fired Pizza","phone":"(509) 952-4414","price":"$$","reviewCount":58,"reviewScore":4.5,"meta":{"revision":0,"created":1547531148280,"version":0},"$loki":7},{"_id":"5c3d65bd3525a329e0c1a9ea","address":"4671 N Track Rd","location":{"type":"Point","coordinates":[-120.417392849922,46.44910633564]},"isApproved":true,"items":[],"keys":["Mexican"],"lastUpdated":1547527612868,"name":"El Noa Noa","phone":"(509) 985-9698","price":"$","reviewCount":26,"reviewScore":4.5,"meta":{"revision":0,"created":1547531148280,"version":0},"$loki":8},{"_id":"5c3d65bd3525a329e0c00255","address":"Yakima Valley Hwy &amp; 9th Ave","location":{"type":"Point","coordinates":[-120.4281419,46.4482108]},"isApproved":true,"items":[],"keys":["Mexican","Food Stands"],"lastUpdated":1547527612225,"name":"El Mejor Taqueria Taco Truck","phone":"","price":"$","reviewCount":9,"reviewScore":4.5,"meta":{"revision":0,"created":1547531148280,"version":0},"$loki":9},{"_id":"5c3d65bd3525a329e0c129c9","address":"3602 Kern Rd","location":{"type":"Point","coordinates":[-120.421897599666,46.4467564569865]},"isApproved":true,"items":[],"keys":["Breakfast & Brunch","Cafes"],"lastUpdated":1547527612679,"name":"White House Cafe","phone":"(509) 469-2644","price":"$$","reviewCount":202,"reviewScore":4.5,"meta":{"revision":0,"created":1547531148280,"version":0},"$loki":10},{"_id":"5c3d65bd3525a329e0c1329f","address":"25 N Front St","location":{"type":"Point","coordinates":[-120.419452,46.4445369]},"isApproved":true,"items":[],"keys":["French","Cocktail Bars"],"lastUpdated":1547527612689,"name":"Carousel Restaurant & Bistro","phone":"(509) 248-6720","price":"$$$","reviewCount":93,"reviewScore":4,"meta":{"revision":0,"created":1547531148280,"version":0},"$loki":11},{"_id":"5c3d65bd3525a329e0c0ca23","address":"1600 Yakima Valley Hwy","location":{"type":"Point","coordinates":[-120.4203018,46.4454132]},"isApproved":true,"items":[],"keys":["Sports Bars","Lounges","Dance Clubs","American (New)"],"lastUpdated":1547527612532,"name":"Fuego Lounge","phone":"(509) 515-0550","price":"","reviewCount":1,"reviewScore":1,"meta":{"revision":0,"created":1547531148280,"version":0},"$loki":12},{"_id":"5c3d65bd3525a329e0c05aba","address":"Corner of Nob Hill &amp; and Fair Ave","location":{"type":"Point","coordinates":[-120.4281561,46.4474844]},"isApproved":true,"items":[],"keys":["Mexican"],"lastUpdated":1547527612356,"name":"Taco El Grande","phone":"(509) 833-8835","price":"$","reviewCount":31,"reviewScore":4.5,"meta":{"revision":0,"created":1547531148280,"version":0},"$loki":13},{"_id":"5c3d65bd3525a329e0c12857","address":"3807 River Rd","location":{"type":"Point","coordinates":[-120.5444731,46.4048872]},"isApproved":true,"items":[],"keys":["Seafood","American (Traditional)","Diners"],"lastUpdated":1547527612678,"name":"Powerhouse Grill","phone":"(509) 469-9900","price":"$$","reviewCount":64,"reviewScore":3.5,"meta":{"revision":0,"created":1547531148280,"version":0},"$loki":14},{"_id":"5c3d65bd3525a329e0c01835","address":"523 W Yakima Ave","location":{"type":"Point","coordinates":[-120.326893,46.375463]},"isApproved":true,"items":[],"keys":["Barbeque"],"lastUpdated":1547527612251,"name":"Miz Dee’s BBQ","phone":"","price":"$$","reviewCount":16,"reviewScore":5,"meta":{"revision":0,"created":1547531148280,"version":0},"$loki":15},{"_id":"5c3d65bd3525a329e0c144f8","address":"1827 Wine Country Rd","location":{"type":"Point","coordinates":[-120.326521803585,46.3749396553428]},"isApproved":true,"items":[],"keys":["Fast Food"],"lastUpdated":1547527612715,"name":"Ready & Out","phone":"(509) 786-1480","price":"","reviewCount":3,"reviewScore":5,"meta":{"revision":0,"created":1547531148280,"version":0},"$loki":16},{"_id":"5c3d65bd3525a329e0c12524","address":"822-898 W 1st Ave","location":{"type":"Point","coordinates":[-120.3258421379,46.3748819415124]},"isApproved":true,"items":[],"keys":["Mexican","Barbeque"],"lastUpdated":1547527612670,"name":"Los 3 Panchos","phone":"(509) 985-1399","price":"$","reviewCount":29,"reviewScore":5,"meta":{"revision":0,"created":1547531148280,"version":0},"$loki":17},{"_id":"5c3d65bd3525a329e0c13a84","address":"15 S Elm St","location":{"type":"Point","coordinates":[-120.3162482,46.3782416]},"isApproved":true,"items":[],"keys":["Mexican"],"lastUpdated":1547527612698,"name":"Las Palomas","phone":"(509) 865-4133","price":"$$","reviewCount":26,"reviewScore":4.5,"meta":{"revision":0,"created":1547531148280,"version":0},"$loki":18},{"_id":"5c3d65bd3525a329e0c0247f","address":"1012 E Lincoln Ave","location":{"type":"Point","coordinates":[-120.3074276,46.3768844]},"isApproved":true,"items":[],"keys":["Mexican"],"lastUpdated":1547527612277,"name":"El Compadre","phone":"(509) 836-2136","price":"","reviewCount":1,"reviewScore":1,"meta":{"revision":0,"created":1547531148280,"version":0},"$loki":19},{"_id":"5c3d65bd3525a329e0c17610","address":"","location":{"type":"Point","coordinates":[-120.3086667,46.3773509]},"isApproved":true,"items":[],"keys":["Mexican"],"lastUpdated":1547527612791,"name":"Taqueria Mexicana","phone":"(509) 865-7116","price":"$$","reviewCount":13,"reviewScore":4.5,"meta":{"revision":0,"created":1547531148280,"version":0},"$loki":20},{"_id":"5c3d65bd3525a329e0c0d5b7","address":"629 Wine Country Rd","location":{"type":"Point","coordinates":[-120.3085665,46.3773542]},"isApproved":true,"items":[],"keys":["Mexican"],"lastUpdated":1547527612548,"name":"La Cabaña","phone":"(509) 882-1703","price":"","reviewCount":1,"reviewScore":4,"meta":{"revision":0,"created":1547531148280,"version":0},"$loki":21},{"_id":"5c3d65bd3525a329e0c17556","address":"13 E Toppenish Ave","location":{"type":"Point","coordinates":[-120.308489935021,46.3772871934493]},"isApproved":true,"items":[],"keys":["Thai","Salad","Soup"],"lastUpdated":1547527612790,"name":"Topp Thai Cuisine","phone":"(509) 314-6556","price":"","reviewCount":14,"reviewScore":4,"meta":{"revision":0,"created":1547531148280,"version":0},"$loki":22},{"_id":"5c3d65bd3525a329e0c0d48f","address":"479 E Toppenish Ave","location":{"type":"Point","coordinates":[-120.308809769656,46.3774423130116]},"isApproved":true,"items":[],"keys":["Mexican"],"lastUpdated":1547527612547,"name":"Mi Pueblito","phone":"(509) 865-1010","price":"","reviewCount":1,"reviewScore":5,"meta":{"revision":0,"created":1547531148280,"version":0},"$loki":23},{"_id":"5c3d65bd3525a329e0c10d02","address":"5110 Tieton Dr","location":{"type":"Point","coordinates":[-120.310049519363,46.3765305934345]},"isApproved":true,"items":[],"keys":["Italian"],"lastUpdated":1547527612633,"name":"Zesta Cucina","phone":"(509) 972-2000","price":"$$","reviewCount":126,"reviewScore":4,"meta":{"revision":0,"created":1547531148280,"version":0},"$loki":24},{"_id":"5c3d65bd3525a329e0c183d1","address":"4108 Terrace Heights Dr","location":{"type":"Point","coordinates":[-120.3153741,46.3753665]},"isApproved":true,"items":[],"keys":["Breakfast & Brunch"],"lastUpdated":1547527612814,"name":"Papa Baird’s","phone":"(509) 453-5103","price":"$$$","reviewCount":15,"reviewScore":4,"meta":{"revision":0,"created":1547531148280,"version":0},"$loki":25},{"_id":"5c3d65bd3525a329e0c15509","address":"20 N 2nd St","location":{"type":"Point","coordinates":[-120.3117121,46.3741299]},"isApproved":true,"items":[],"keys":["Sandwiches","Breakfast & Brunch","Soup"],"lastUpdated":1547527612745,"name":"Sub Shop of Yakima","phone":"(509) 853-2691","price":"$","reviewCount":26,"reviewScore":4,"meta":{"revision":0,"created":1547531148280,"version":0},"$loki":26},{"_id":"5c3d65bd3525a329e0c0280f","address":"208 S Toppenish Ave","location":{"type":"Point","coordinates":[-120.3109953,46.3747673]},"isApproved":true,"items":[],"keys":["Mexican"],"lastUpdated":1547527612285,"name":"El Portal","phone":"(509) 314-6396","price":"","reviewCount":2,"reviewScore":5,"meta":{"revision":0,"created":1547531148280,"version":0},"$loki":27},{"_id":"5c3d65bd3525a329e0c0e491","address":"500-598 W Walnut St","location":{"type":"Point","coordinates":[-120.316648559961,46.3752397627341]},"isApproved":true,"items":[],"keys":["Tacos"],"lastUpdated":1547527612572,"name":"Tacos El Escorpion","phone":"","price":"$$","reviewCount":1,"reviewScore":3,"meta":{"revision":0,"created":1547531148280,"version":0},"$loki":28},{"_id":"5c3d65bd3525a329e0c02d77","address":"1427 Wine Country Rd","location":{"type":"Point","coordinates":[-120.32,46.3744]},"isApproved":true,"items":[],"keys":["American (Traditional)","Brewpubs"],"lastUpdated":1547527612294,"name":"Green Oak Brewing","phone":"(509) 786-4922","price":"","reviewCount":2,"reviewScore":2.5,"meta":{"revision":0,"created":1547531148280,"version":0},"$loki":29},{"_id":"5c3d65bd3525a329e0c01aa3","address":"214 E Moxee Ave","location":{"type":"Point","coordinates":[-120.3206564,46.3734944]},"isApproved":true,"items":[],"keys":["Japanese"],"lastUpdated":1547527612257,"name":"New York Teriyaki","phone":"(509) 452-5200","price":"$$","reviewCount":16,"reviewScore":5,"meta":{"revision":0,"created":1547531148280,"version":0},"$loki":30},{"_id":"5c3d65bd3525a329e0c11338","address":"8501 Ahtanum Rd","location":{"type":"Point","coordinates":[-120.321098,46.373965]},"isApproved":true,"items":[],"keys":["Pizza","Sandwiches","Sports Bars"],"lastUpdated":1547527612642,"name":"Wild Fired Pizza","phone":"(509) 966-3820","price":"$$","reviewCount":7,"reviewScore":4,"meta":{"revision":0,"created":1547531148280,"version":0},"$loki":31},{"_id":"5c3d65bd3525a329e0c0ea1a","address":"61311 US Hwy 97","location":{"type":"Point","coordinates":[-120.319758,46.3681311]},"isApproved":true,"items":[],"keys":["American (Traditional)","Breakfast & Brunch","Sandwiches"],"lastUpdated":1547527612581,"name":"The Branding Iron Restaurant","phone":"(509) 865-5440","price":"$$","reviewCount":30,"reviewScore":3,"meta":{"revision":0,"created":1547531148280,"version":0},"$loki":32},{"_id":"5c3d65bd3525a329e0c15ea4","address":"1504 E Washington Ave","location":{"type":"Point","coordinates":[-120.7332924,46.3788197]},"isApproved":true,"items":[],"keys":["Barbeque","Comfort Food","American (Traditional)"],"lastUpdated":1547527612755,"name":"Famous Dave’s Bar-B-Que","phone":"(509) 469-7427","price":"$$","reviewCount":50,"reviewScore":3,"meta":{"revision":0,"created":1547531148280,"version":0},"$loki":33},{"_id":"5c3d65bd3525a329e0c0a2f6","address":"530 Cherry Hill Rd","location":{"type":"Point","coordinates":[-120.175897,46.340732]},"isApproved":true,"items":[],"keys":["Fast Food","Pizza"],"lastUpdated":1547527612474,"name":"Doc’s Pizza","phone":"(509) 854-2294","price":"$$","reviewCount":7,"reviewScore":4,"meta":{"revision":0,"created":1547531148280,"version":0},"$loki":34},{"_id":"5c3d65bd3525a329e0c010b1","address":"1829 S 1st","location":{"type":"Point","coordinates":[-120.252551080647,46.3971121711553]},"isApproved":true,"items":[],"keys":["Cafes"],"lastUpdated":1547527612239,"name":"“Holy” Pies! Deli and Coffee","phone":"(509) 515-2121","price":"","reviewCount":5,"reviewScore":4,"meta":{"revision":0,"created":1547531148280,"version":0},"$loki":35},{"_id":"5c3d65bd3525a329e0c196a6","address":"703 Railroad Ave","location":{"type":"Point","coordinates":[-120.25958,46.4004]},"isApproved":true,"items":[],"keys":["Lounges","American (Traditional)"],"lastUpdated":1547527612841,"name":"The Old Warehouse Restaurant & Lounge / Event Center","phone":"(509) 314-6266","price":"$$","reviewCount":47,"reviewScore":3.5,"meta":{"revision":0,"created":1547531148280,"version":0},"$loki":36},{"_id":"5c3d65bd3525a329e0c011e8","address":"505 1st Ave","location":{"type":"Point","coordinates":[-120.2617422,46.4020364]},"isApproved":true,"items":[],"keys":["Mexican"],"lastUpdated":1547527612239,"name":"Taqueria La Placita","phone":"(509) 314-6455","price":"","reviewCount":8,"reviewScore":4.5,"meta":{"revision":0,"created":1547531148280,"version":0},"$loki":37},{"_id":"5c3d65bd3525a329e0c108ae","address":"611 1st Ave","location":{"type":"Point","coordinates":[-120.260276794434,46.4015884399414]},"isApproved":true,"items":[],"keys":["American (New)"],"lastUpdated":1547527612625,"name":"Squeeze Inn Restaurant","phone":"(509) 790-7041","price":"","reviewCount":3,"reviewScore":3.5,"meta":{"revision":0,"created":1547531148280,"version":0},"$loki":38},{"_id":"5c3d65bd3525a329e0c12ac5","address":"603 1st Ave","location":{"type":"Point","coordinates":[-120.260721,46.4017624]},"isApproved":true,"items":[],"keys":["Bars","Trivia Hosts","American (Traditional)"],"lastUpdated":1547527612680,"name":"Stonehenge Tavern","phone":"(509) 829-9411","price":"$$","reviewCount":5,"reviewScore":3.5,"meta":{"revision":0,"created":1547531148280,"version":0},"$loki":39},{"_id":"5c3d65bd3525a329e0c01b53","address":"905 Vintage Valley Pkwy","location":{"type":"Point","coordinates":[-120.2782948,46.4062071]},"isApproved":true,"items":[],"keys":["Mexican"],"lastUpdated":1547527612258,"name":"El Porton","phone":"(509) 829-9100","price":"$$","reviewCount":46,"reviewScore":4,"meta":{"revision":0,"created":1547531148280,"version":0},"$loki":40},{"_id":"5c3d65bd3525a329e0c189b8","address":"1901 Boggess Ln","location":{"type":"Point","coordinates":[-120.2790578,46.4059992]},"isApproved":true,"items":[],"keys":["Casinos","Bars","American (Traditional)"],"lastUpdated":1547527612823,"name":"Casino Caribbean","phone":"(509) 853-7777","price":"$","reviewCount":10,"reviewScore":2.5,"meta":{"revision":0,"created":1547531148280,"version":0},"$loki":41},{"_id":"5c3d65bd3525a329e0c14711","address":"1002 Vintage Valley Pkwy","location":{"type":"Point","coordinates":[-120.2827569,46.4056642]},"isApproved":true,"items":[],"keys":["Mexican","Meat Shops"],"lastUpdated":1547527612716,"name":"Santa Fe Restaurant","phone":"(509) 314-6868","price":"","reviewCount":2,"reviewScore":5,"meta":{"revision":0,"created":1547531148280,"version":0},"$loki":42},{"_id":"5c3d65bd3525a329e0c0080b","address":"808 N 1st St","location":{"type":"Point","coordinates":[-120.276195332408,46.4041943541632]},"isApproved":true,"items":[],"keys":["Mexican","Bakeries"],"lastUpdated":1547527612228,"name":"Cali Style Panaderia & Restaurante","phone":"","price":"$$","reviewCount":2,"reviewScore":5,"meta":{"revision":0,"created":1547531148280,"version":0},"$loki":43},{"_id":"5c3d65bd3525a329e0c1954a","address":"703 E Wine Country Rd","location":{"type":"Point","coordinates":[-120.384911634028,46.5547330389013]},"isApproved":true,"items":[],"keys":["Cafes"],"lastUpdated":1547527612840,"name":"10-4 Cafe","phone":"(509) 882-3122","price":"$","reviewCount":20,"reviewScore":3.5,"meta":{"revision":0,"created":1547531148280,"version":0},"$loki":44},{"_id":"5c3d65bd3525a329e0c05323","address":"28 N 2nd St","location":{"type":"Point","coordinates":[-120.3852413,46.554746]},"isApproved":true,"items":[],"keys":["American (New)","Cocktail Bars"],"lastUpdated":1547527612346,"name":"Second Street Grill","phone":"(509) 469-1486","price":"$$","reviewCount":236,"reviewScore":4,"meta":{"revision":0,"created":1547531148280,"version":0},"$loki":45},{"_id":"5c3d65bd3525a329e0c02cfa","address":"2415 S 1st St","location":{"type":"Point","coordinates":[-120.383414116533,46.5542090329685]},"isApproved":true,"items":[],"keys":["American (Traditional)"],"lastUpdated":1547527612293,"name":"Miner’s Drive-In Restaurant","phone":"(509) 457-8194","price":"$$","reviewCount":376,"reviewScore":3.5,"meta":{"revision":0,"created":1547531148280,"version":0},"$loki":46},{"_id":"5c3d65bd3525a329e0c1aeaa","address":"1019 W Wine Country Rd","location":{"type":"Point","coordinates":[-120.4756376,46.5499915]},"isApproved":true,"items":[],"keys":["Restaurants"],"lastUpdated":1547527612876,"name":"Cafe Grande Vue","phone":"(509) 882-3559","price":"","reviewCount":5,"reviewScore":5,"meta":{"revision":0,"created":1547531148280,"version":0},"$loki":47},{"_id":"5c3d65bd3525a329e0c1a8d9","address":"2512 Main St","location":{"type":"Point","coordinates":[-120.476994702612,46.5602493919667]},"isApproved":true,"items":[],"keys":["Mexican"],"lastUpdated":1547527612867,"name":"El Porton","phone":"(509) 248-4015","price":"$$","reviewCount":23,"reviewScore":3.5,"meta":{"revision":0,"created":1547531148280,"version":0},"$loki":48},{"_id":"5c3d65bd3525a329e0c12522","address":"415 South Elm Street","location":{"type":"Point","coordinates":[-120.475326538086,46.5566596984863]},"isApproved":true,"items":[],"keys":["Fast Food","Mexican","Chicken Wings"],"lastUpdated":1547527612670,"name":"Taco Bell","phone":"(509) 865-3533","price":"","reviewCount":2,"reviewScore":1,"meta":{"revision":0,"created":1547531148280,"version":0},"$loki":49},{"_id":"5c3d65bd3525a329e0c16519","address":"1605 Terrace Heights Way","location":{"type":"Point","coordinates":[-120.4765834,46.562731]},"isApproved":true,"items":[],"keys":["Fast Food","Burgers"],"lastUpdated":1547527612764,"name":"Burger King","phone":"(509) 453-9981","price":"$","reviewCount":8,"reviewScore":4,"meta":{"revision":0,"created":1547531148280,"version":0},"$loki":50},{"_id":"5c3d65bd3525a329e0c090ca","address":"212 W Walnut St","location":{"type":"Point","coordinates":[-120.478893073402,46.5647618755891]},"isApproved":true,"items":[],"keys":["American (New)"],"lastUpdated":1547527612439,"name":"Java Heaven","phone":"(509) 469-3422","price":"","reviewCount":6,"reviewScore":4.5,"meta":{"revision":0,"created":1547531148280,"version":0},"$loki":51},{"_id":"5c3d65bd3525a329e0c09628","address":"2710 W Nob Hill Blvd","location":{"type":"Point","coordinates":[-120.479099750519,46.5656321909978]},"isApproved":true,"items":[],"keys":["Indian","Pizza","Bars"],"lastUpdated":1547527612454,"name":"Taj Palace","phone":"(509) 494-1001","price":"$$","reviewCount":193,"reviewScore":4,"meta":{"revision":0,"created":1547531148280,"version":0},"$loki":52},{"_id":"5c3d65bd3525a329e0c0de5b","address":"1227 S 1st St","location":{"type":"Point","coordinates":[-120.480055,46.566026]},"isApproved":true,"items":[],"keys":["Burgers"],"lastUpdated":1547527612563,"name":"Burger Broiler","phone":"(509) 452-8984","price":"$$","reviewCount":28,"reviewScore":3,"meta":{"revision":0,"created":1547531148280,"version":0},"$loki":53},{"_id":"5c3d65bd3525a329e0c16d4b","address":"14 N 2nd St","location":{"type":"Point","coordinates":[-120.4822287,46.5649584]},"isApproved":true,"items":[],"keys":["Thai","Seafood"],"lastUpdated":1547527612774,"name":"Thai House Restaurant","phone":"(509) 469-8986","price":"$$","reviewCount":37,"reviewScore":4,"meta":{"revision":0,"created":1547531148280,"version":0},"$loki":54},{"_id":"5c3d65bd3525a329e0c01ffb","address":"911 Summitview Ave","location":{"type":"Point","coordinates":[-120.4815014,46.5648751]},"isApproved":true,"items":[],"keys":["American (Traditional)","Burgers","Hot Dogs"],"lastUpdated":1547527612274,"name":"Burger Ranch of Yakima - Summitview","phone":"(509) 453-4376","price":"$","reviewCount":16,"reviewScore":2.5,"meta":{"revision":0,"created":1547531148280,"version":0},"$loki":55},{"_id":"5c3d65bd3525a329e0c03c27","address":"913 W Yakima Ave","location":{"type":"Point","coordinates":[-120.4812915,46.5642819]},"isApproved":true,"items":[],"keys":["Burgers","Fish & Chips"],"lastUpdated":1547527612312,"name":"Ahoy Fish And Chips","phone":"(509) 317-2235","price":"$","reviewCount":17,"reviewScore":3.5,"meta":{"revision":0,"created":1547531148280,"version":0},"$loki":56},{"_id":"5c3d65bd3525a329e0c05827","address":"2326 S 1st St","location":{"type":"Point","coordinates":[-120.485138,46.567396]},"isApproved":true,"items":[],"keys":["Fast Food","Burgers","Coffee & Tea"],"lastUpdated":1547527612349,"name":"McDonald’s","phone":"(509) 248-4335","price":"$","reviewCount":6,"reviewScore":2,"meta":{"revision":0,"created":1547531148280,"version":0},"$loki":57},{"_id":"5c3d65bd3525a329e0c05c7b","address":"208 S Wapato Ave","location":{"type":"Point","coordinates":[-120.4825464,46.5664941]},"isApproved":true,"items":[],"keys":["Mexican"],"lastUpdated":1547527612357,"name":"Antojitos Mexicanos “Doña Teo”","phone":"(509) 830-9174","price":"","reviewCount":1,"reviewScore":5,"meta":{"revision":0,"created":1547531148280,"version":0},"$loki":58},{"_id":"5c3d65bd3525a329e0c157be","address":"2325 South 1st St","location":{"type":"Point","coordinates":[-120.4843456,46.5679291]},"isApproved":true,"items":[],"keys":["Burgers","Fast Food","Hot Dogs"],"lastUpdated":1547527612746,"name":"A&W","phone":"(509) 469-8823","price":"","reviewCount":1,"reviewScore":1,"meta":{"revision":0,"created":1547531148280,"version":0},"$loki":59},{"_id":"5c3d65bd3525a329e0c1a9d5","address":"2317 S 1st St","location":{"type":"Point","coordinates":[-120.4855935,46.5689324]},"isApproved":true,"items":[],"keys":["Fast Food","Burgers"],"lastUpdated":1547527612868,"name":"Jack in the Box","phone":"(509) 248-3796","price":"$","reviewCount":9,"reviewScore":2,"meta":{"revision":0,"created":1547531148280,"version":0},"$loki":60},{"_id":"5c3d65bd3525a329e0c101d0","address":"32 N Front St","location":{"type":"Point","coordinates":[-120.4873622,46.5696374]},"isApproved":true,"items":[],"keys":["American (Traditional)"],"lastUpdated":1547527612610,"name":"The Depot","phone":"(509) 949-4233","price":"","reviewCount":6,"reviewScore":1.5,"meta":{"revision":0,"created":1547531148280,"version":0},"$loki":61},{"_id":"5c3d65bd3525a329e0c01c5b","address":"123 E Yakima Ave","location":{"type":"Point","coordinates":[-120.487435,46.570434]},"isApproved":true,"items":[],"keys":["Sandwiches","Fast Food"],"lastUpdated":1547527612259,"name":"Subway","phone":"(509) 453-3327","price":"","reviewCount":2,"reviewScore":3,"meta":{"revision":0,"created":1547531148280,"version":0},"$loki":62},{"_id":"5c3d65bd3525a329e0c15596","address":"2616 W Nob Hill Blvd","location":{"type":"Point","coordinates":[-120.4875687,46.571235]},"isApproved":true,"items":[],"keys":["Chinese","Buffets"],"lastUpdated":1547527612745,"name":"World Bistro Asian Buffet","phone":"(509) 469-8126","price":"$$","reviewCount":19,"reviewScore":1.5,"meta":{"revision":0,"created":1547531148280,"version":0},"$loki":63},{"_id":"5c3d65bd3525a329e0c000f9","address":"5110 Tieton Dr","location":{"type":"Point","coordinates":[-120.4801975,46.5709565]},"isApproved":true,"items":[],"keys":["Mexican","Wine Bars"],"lastUpdated":1547527612224,"name":"Xochimilco Tequila Bar","phone":"(509) 966-9000","price":"$$","reviewCount":56,"reviewScore":3.5,"meta":{"revision":0,"created":1547531148280,"version":0},"$loki":64},{"_id":"5c3d65bd3525a329e0c02599","address":"2000 Yakima Valley Hwy","location":{"type":"Point","coordinates":[-120.4801975,46.5709537]},"isApproved":true,"items":[],"keys":["Sushi Bars"],"lastUpdated":1547527612278,"name":"Sakura Teriyaki & Sushi","phone":"(509) 839-2525","price":"$$","reviewCount":42,"reviewScore":3.5,"meta":{"revision":0,"created":1547531148280,"version":0},"$loki":65},{"_id":"5c3d65bd3525a329e0c191de","address":"1601 E Washington Ave","location":{"type":"Point","coordinates":[-120.48040394947,46.5704713870359]},"isApproved":true,"items":[],"keys":["Vietnamese"],"lastUpdated":1547527612833,"name":"Pho King Crab","phone":"(509) 453-4044","price":"$","reviewCount":103,"reviewScore":4.5,"meta":{"revision":0,"created":1547531148280,"version":0},"$loki":66},{"_id":"5c3d65bd3525a329e0c0c111","address":"3990 Harrah Rd","location":{"type":"Point","coordinates":[-120.480174430548,46.5690473650087]},"isApproved":true,"items":[],"keys":["Restaurants"],"lastUpdated":1547527612516,"name":"La Guadalupana","phone":"(509) 848-2740","price":"$","reviewCount":2,"reviewScore":5,"meta":{"revision":0,"created":1547531148280,"version":0},"$loki":67},{"_id":"5c3d65bd3525a329e0c15b67","address":"1300 N 40th Ave","location":{"type":"Point","coordinates":[-120.4733271,46.5684089]},"isApproved":true,"items":[],"keys":["Pizza"],"lastUpdated":1547527612754,"name":"Round Table Pizza Restaurants","phone":"(509) 248-7210","price":"$$","reviewCount":21,"reviewScore":4,"meta":{"revision":0,"created":1547531148280,"version":0},"$loki":68},{"_id":"5c3d65bd3525a329e0c0aeec","address":"214 E Yakima Ave","location":{"type":"Point","coordinates":[-120.4745617,46.5636313]},"isApproved":true,"items":[],"keys":["Sports Bars","American (Traditional)"],"lastUpdated":1547527612491,"name":"Sports Center Restaurant and Bar","phone":"(509) 453-4647","price":"$$","reviewCount":91,"reviewScore":3.5,"meta":{"revision":0,"created":1547531148280,"version":0},"$loki":69}],"idIndex":[1,2,3,4,5,6,7,8,9,10,11,12,13,14,15,16,17,18,19,20,21,22,23,24,25,26,27,28,29,30,31,32,33,34,35,36,37,38,39,40,41,42,43,44,45,46,47,48,49,50,51,52,53,54,55,56,57,58,59,60,61,62,63,64,65,66,67,68,69],"binaryIndices":{},"constraints":null,"uniqueNames":[],"transforms":{},"objType":"restaurants","dirty":true,"cachedIndex":null,"cachedBinaryIndex":null,"cachedData":null,"adaptiveBinaryIndices":true,"transactional":false,"cloneObjects":false,"cloneMethod":"parse-stringify","asyncListeners":false,"disableMeta":false,"disableChangesApi":true,"disableDeltaChangesApi":true,"autoupdate":false,"serializableIndices":true,"ttl":null,"maxId":69,"DynamicViews":[],"events":{"insert":[],"update":[],"pre-insert":[],"pre-update":[],"close":[],"flushbuffer":[],"error":[],"delete":[null],"warning":[null]},"changes":[]}],"databaseVersion":1.5,"engineVersion":1.5,"autosave":false,"autosaveInterval":5000,"autosaveHandle":null,"throttledSaves":true,"options":{"serializationMethod":"normal","destructureDelimiter":"$<\n"},"persistenceMethod":"fs","persistenceAdapter":null,"verbose":false,"events":{"init":[null],"loaded":[],"flushChanges":[],"close":[],"changes":[],"warning":[]},"ENV":"NODEJS"}