{"filename":"-120.5-39.5","collections":[{"name":"restaurants","data":[{"_id":"5c3d65bd3525a329e0bffa62","address":"30870 Magra Rd","location":{"type":"Point","coordinates":[-120.800212,39.35924]},"isApproved":true,"items":[],"keys":["Sports Bars","Barbeque","Burgers"],"lastUpdated":1547527612220,"name":"Mountain Springs Hitch N Post","phone":"(530) 389-8221","price":"$","reviewCount":19,"reviewScore":4.5,"meta":{"revision":0,"created":1547531148999,"version":0},"$loki":1},{"_id":"5c3d65bd3525a329e0c024ae","address":"107 Sacramento St","location":{"type":"Point","coordinates":[-120.678372,39.291843]},"isApproved":true,"items":[],"keys":["American (New)"],"lastUpdated":1547527612277,"name":"The Stone House","phone":"(530) 265-5050","price":"$$","reviewCount":96,"reviewScore":3.5,"meta":{"revision":0,"created":1547531148999,"version":0},"$loki":2},{"_id":"5c3d65bd3525a329e0c0130c","address":"10115 Donner Pass Rd","location":{"type":"Point","coordinates":[-120.6503235,39.3036315]},"isApproved":true,"items":[],"keys":["American (Traditional)","Cafes","Breakfast & Brunch"],"lastUpdated":1547527612241,"name":"Marty’s Cafe","phone":"(530) 550-8208","price":"$$","reviewCount":664,"reviewScore":4.5,"meta":{"revision":0,"created":1547531148999,"version":0},"$loki":3},{"_id":"5c3d65bd3525a329e0c036a8","address":"780 N Lake Blvd","location":{"type":"Point","coordinates":[-120.4127161,39.2616304]},"isApproved":true,"items":[],"keys":["American (New)","Hawaiian","Bars"],"lastUpdated":1547527612303,"name":"Jake’s On The Lake","phone":"(530) 583-0188","price":"$$","reviewCount":530,"reviewScore":3.5,"meta":{"revision":0,"created":1547531148999,"version":0},"$loki":4},{"_id":"5c3d65bd3525a329e0c0be79","address":"521 N Lake Blvd","location":{"type":"Point","coordinates":[-120.222380317545,39.3257070942862]},"isApproved":true,"items":[],"keys":["Cocktail Bars","American (New)","Pizza"],"lastUpdated":1547527612515,"name":"The Pioneer Cocktail Club","phone":"(530) 523-0402","price":"$$","reviewCount":79,"reviewScore":4.5,"meta":{"revision":0,"created":1547531148999,"version":0},"$loki":5},{"_id":"5c3d65bd3525a329e0c0a3e9","address":"11760 Donner Pass Rd","location":{"type":"Point","coordinates":[-120.2163872,39.3261776]},"isApproved":true,"items":[],"keys":["Mexican"],"lastUpdated":1547527612480,"name":"La Bamba","phone":"(530) 587-3516","price":"$$","reviewCount":79,"reviewScore":3.5,"meta":{"revision":0,"created":1547531148999,"version":0},"$loki":6},{"_id":"5c3d65bd3525a329e0c15025","address":"2279 Lake Tahoe Blvd","location":{"type":"Point","coordinates":[-120.2058133,39.3264408]},"isApproved":true,"items":[],"keys":["Coffee & Tea","Sandwiches","Cafes"],"lastUpdated":1547527612736,"name":"Keys Cafe","phone":"(530) 542-3800","price":"$","reviewCount":457,"reviewScore":4,"meta":{"revision":0,"created":1547531148999,"version":0},"$loki":7},{"_id":"5c3d65bd3525a329e0c17efd","address":"10040 Donner Pass Rd","location":{"type":"Point","coordinates":[-120.2091225,39.325541]},"isApproved":true,"items":[],"keys":["Bars","American (Traditional)"],"lastUpdated":1547527612802,"name":"Bar of America","phone":"(530) 587-2626","price":"$$","reviewCount":382,"reviewScore":3.5,"meta":{"revision":0,"created":1547531148999,"version":0},"$loki":8},{"_id":"5c3d65bd3525a329e0c17f46","address":"11357 Donner Pass Rd","location":{"type":"Point","coordinates":[-120.2091225,39.325541]},"isApproved":true,"items":[],"keys":["Cafes"],"lastUpdated":1547527612802,"name":"Crescent Cafe","phone":"(530) 587-7426","price":"","reviewCount":9,"reviewScore":5,"meta":{"revision":0,"created":1547531148999,"version":0},"$loki":9},{"_id":"5c3d65bd3525a329e0c1846b","address":"11357 Donner Pass Rd","location":{"type":"Point","coordinates":[-120.2091225,39.325541]},"isApproved":true,"items":[],"keys":["Sushi Bars","Japanese"],"lastUpdated":1547527612814,"name":"MakiAli - Sushi & Japanese Pub","phone":"(530) 582-1144","price":"$$","reviewCount":162,"reviewScore":4,"meta":{"revision":0,"created":1547531148999,"version":0},"$loki":10},{"_id":"5c3d65bd3525a329e0c0722c","address":"11400 Donner Pass Rd","location":{"type":"Point","coordinates":[-120.2102858,39.3264625]},"isApproved":true,"items":[],"keys":["Mexican"],"lastUpdated":1547527612398,"name":"Taco’s Jalisco","phone":"(530) 587-1131","price":"$","reviewCount":367,"reviewScore":3.5,"meta":{"revision":0,"created":1547531148999,"version":0},"$loki":11},{"_id":"5c3d65bd3525a329e0c1b17c","address":"11421 Deerfield Dr","location":{"type":"Point","coordinates":[-120.209124349058,39.3202510863526]},"isApproved":true,"items":[],"keys":["Indian"],"lastUpdated":1547527612877,"name":"Flame of India","phone":"(530) 563-5078","price":"$$","reviewCount":249,"reviewScore":4,"meta":{"revision":0,"created":1547531148999,"version":0},"$loki":12},{"_id":"5c3d65bd3525a329e0c11671","address":"11430 Deerfield Dr","location":{"type":"Point","coordinates":[-120.2102722,39.3216799]},"isApproved":true,"items":[],"keys":["Chinese"],"lastUpdated":1547527612649,"name":"Wong’s Garden","phone":"(530) 587-1831","price":"$$","reviewCount":83,"reviewScore":3,"meta":{"revision":0,"created":1547531148999,"version":0},"$loki":13},{"_id":"5c3d65bd3525a329e0c09478","address":"11782 Donner Pass Rd","location":{"type":"Point","coordinates":[-120.217107849633,39.3259729051895]},"isApproved":true,"items":[],"keys":["Pizza"],"lastUpdated":1547527612453,"name":"Front Street Station Pizza","phone":"(530) 536-5035","price":"$$","reviewCount":56,"reviewScore":4,"meta":{"revision":0,"created":1547531148999,"version":0},"$loki":14},{"_id":"5c3d65bd3525a329e0c15d3c","address":"12047 Donner Pass Rd","location":{"type":"Point","coordinates":[-120.220376037292,39.3250031265974]},"isApproved":true,"items":[],"keys":["Bakeries","Coffee & Tea","Breakfast & Brunch"],"lastUpdated":1547527612755,"name":"Coffeebar Bakery","phone":"(530) 587-7707","price":"$","reviewCount":36,"reviewScore":4.5,"meta":{"revision":0,"created":1547531148999,"version":0},"$loki":15},{"_id":"5c3d65bd3525a329e0c02aad","address":"6001 Northstar Dr","location":{"type":"Point","coordinates":[-120.162586230011,39.3217954126283]},"isApproved":true,"items":[],"keys":["American (New)","Pizza","Italian"],"lastUpdated":1547527612286,"name":"Rubicon Pizza Company","phone":"(530) 562-2199","price":"$$","reviewCount":453,"reviewScore":4,"meta":{"revision":0,"created":1547531148999,"version":0},"$loki":16},{"_id":"5c3d65bd3525a329e0c12f6d","address":"700 N Lake Blvd","location":{"type":"Point","coordinates":[-120.162903,39.32154]},"isApproved":true,"items":[],"keys":["Barbeque"],"lastUpdated":1547527612687,"name":"Moe’s Original Bar B Que","phone":"(530) 807-1023","price":"$$","reviewCount":466,"reviewScore":3.5,"meta":{"revision":0,"created":1547531148999,"version":0},"$loki":17},{"_id":"5c3d65bd3525a329e0c16119","address":"10918 Brockway Rd","location":{"type":"Point","coordinates":[-120.1698476,39.3240085]},"isApproved":true,"items":[],"keys":["American (New)"],"lastUpdated":1547527612762,"name":"Stella","phone":"(530) 582-5655","price":"$$$","reviewCount":130,"reviewScore":4.5,"meta":{"revision":0,"created":1547531148999,"version":0},"$loki":18},{"_id":"5c3d65bd3525a329e0c02363","address":"251 N Lake Blvd","location":{"type":"Point","coordinates":[-120.1767106,39.3255211204388]},"isApproved":true,"items":[],"keys":["Cafes","Breakfast & Brunch","Sports Bars"],"lastUpdated":1547527612276,"name":"Cafe Zenon","phone":"(530) 583-1517","price":"$$","reviewCount":57,"reviewScore":4,"meta":{"revision":0,"created":1547531148999,"version":0},"$loki":19},{"_id":"5c3d65bd3525a329e0c0bb9f","address":"10142 Rue Hilltop","location":{"type":"Point","coordinates":[-120.1817864,39.3249321]},"isApproved":true,"items":[],"keys":["American (New)","Music Venues"],"lastUpdated":1547527612509,"name":"Cottonwood Restaurant & Bar","phone":"(530) 587-5711","price":"$$$","reviewCount":479,"reviewScore":3.5,"meta":{"revision":0,"created":1547531148999,"version":0},"$loki":20},{"_id":"5c3d65bd3525a329e0c17f02","address":"350 S Canyon Way","location":{"type":"Point","coordinates":[-120.18253326416,39.3238573444283]},"isApproved":true,"items":[],"keys":["Chinese"],"lastUpdated":1547527612802,"name":"Shang Garden Chinese Restaurant","phone":"(530) 346-8669","price":"$$","reviewCount":50,"reviewScore":3.5,"meta":{"revision":0,"created":1547531148999,"version":0},"$loki":21},{"_id":"5c3d65bd3525a329e0c136de","address":"10009 E River St","location":{"type":"Point","coordinates":[-120.183448,39.3271603]},"isApproved":true,"items":[],"keys":["Barbeque"],"lastUpdated":1547527612697,"name":"1882 Bar & Grill","phone":"(530) 550-9222","price":"$$","reviewCount":164,"reviewScore":4,"meta":{"revision":0,"created":1547531148999,"version":0},"$loki":22},{"_id":"5c3d65bd3525a329e0bffc88","address":"10412 Donner Pass Rd","location":{"type":"Point","coordinates":[-120.183973,39.328654]},"isApproved":true,"items":[],"keys":["American (Traditional)","Wine Bars"],"lastUpdated":1547527612221,"name":"Philosophy","phone":"(530) 536-5129","price":"$$$","reviewCount":43,"reviewScore":4,"meta":{"revision":0,"created":1547531148999,"version":0},"$loki":23},{"_id":"5c3d65bd3525a329e0c07db6","address":"13720 Donner Pass Rd","location":{"type":"Point","coordinates":[-120.1842621,39.3292899]},"isApproved":true,"items":[],"keys":["Breakfast & Brunch"],"lastUpdated":1547527612411,"name":"Donner Lake Kitchen","phone":"(530) 587-3555","price":"$$","reviewCount":178,"reviewScore":4,"meta":{"revision":0,"created":1547531148999,"version":0},"$loki":24},{"_id":"5c3d65bd3525a329e0c03c07","address":"10010 Bridge St","location":{"type":"Point","coordinates":[-120.1842438,39.3286143]},"isApproved":true,"items":[],"keys":["Mexican"],"lastUpdated":1547527612312,"name":"Casa Baeza Mexican Restaurant","phone":"(530) 587-2161","price":"$$","reviewCount":160,"reviewScore":3,"meta":{"revision":0,"created":1547531148999,"version":0},"$loki":25},{"_id":"5c3d65bd3525a329e0c12889","address":"120 Country Club Dr","location":{"type":"Point","coordinates":[-120.1843956,39.3282517]},"isApproved":true,"items":[],"keys":["Sandwiches","Delis","Vegetarian"],"lastUpdated":1547527612678,"name":"Mountain High Sandwich Co","phone":"(775) 298-2636","price":"$$","reviewCount":309,"reviewScore":4.5,"meta":{"revision":0,"created":1547531148999,"version":0},"$loki":26},{"_id":"5c3d65bd3525a329e0c10f56","address":"10144 W River St","location":{"type":"Point","coordinates":[-120.1846419,39.3283236]},"isApproved":true,"items":[],"keys":["Diners","Breakfast & Brunch","American (Traditional)"],"lastUpdated":1547527612640,"name":"Jax At The Trax","phone":"(530) 550-7450","price":"$$","reviewCount":1174,"reviewScore":3.5,"meta":{"revision":0,"created":1547531148999,"version":0},"$loki":27},{"_id":"5c3d65bd3525a329e0c067e9","address":"10060 Donner Pass Rd","location":{"type":"Point","coordinates":[-120.184753462672,39.3280210132595]},"isApproved":true,"items":[],"keys":["Breakfast & Brunch","American (Traditional)"],"lastUpdated":1547527612378,"name":"Squeeze In","phone":"(530) 587-9814","price":"$$","reviewCount":618,"reviewScore":4,"meta":{"revision":0,"created":1547531148999,"version":0},"$loki":28},{"_id":"5c3d65bd3525a329e0c0a0aa","address":"212 N Canyon Way","location":{"type":"Point","coordinates":[-120.184017,39.327293]},"isApproved":true,"items":[],"keys":["Tacos","Food Stands"],"lastUpdated":1547527612472,"name":"Homie Joe’s Tacos","phone":"(530) 512-5059","price":"$","reviewCount":71,"reviewScore":4.5,"meta":{"revision":0,"created":1547531148999,"version":0},"$loki":29},{"_id":"5c3d65bd3525a329e0c16003","address":"43440 Laing Rd","location":{"type":"Point","coordinates":[-120.185211042813,39.3268053947731]},"isApproved":true,"items":[],"keys":["Hotels","Coffee & Tea","American (Traditional)"],"lastUpdated":1547527612756,"name":"Sierra Woods Lodge","phone":"(530) 389-8900","price":"$$","reviewCount":45,"reviewScore":4.5,"meta":{"revision":0,"created":1547531148999,"version":0},"$loki":30},{"_id":"5c3d65bd3525a329e0c052d9","address":"10130 West River St","location":{"type":"Point","coordinates":[-120.1856071,39.3270233]},"isApproved":true,"items":[],"keys":["Sandwiches","Vegetarian","Beer Bar"],"lastUpdated":1547527612346,"name":"The Station, A Truckee Eatery","phone":"(530) 563-5285","price":"","reviewCount":23,"reviewScore":4.5,"meta":{"revision":0,"created":1547531148999,"version":0},"$loki":31},{"_id":"5c3d65bd3525a329e0c0acd8","address":"629 Sugar Bowl Rd.","location":{"type":"Point","coordinates":[-120.186893,39.327355]},"isApproved":true,"items":[],"keys":["Pubs","American (Traditional)"],"lastUpdated":1547527612490,"name":"Belt Room Bar","phone":"(530) 426-9000","price":"","reviewCount":2,"reviewScore":5,"meta":{"revision":0,"created":1547531148999,"version":0},"$loki":32},{"_id":"5c3d65bd3525a329e0c04ad2","address":"10069 Bridge St","location":{"type":"Point","coordinates":[-120.1863963,39.3278166]},"isApproved":true,"items":[],"keys":["Breweries","American (New)"],"lastUpdated":1547527612331,"name":"Alibi Ale Works - Truckee Public House","phone":"(530) 536-5029","price":"$$","reviewCount":100,"reviewScore":4.5,"meta":{"revision":0,"created":1547531148999,"version":0},"$loki":33},{"_id":"5c3d65bd3525a329e0c19a79","address":"11357 Donner Pass Rd","location":{"type":"Point","coordinates":[-120.187608,39.3275777]},"isApproved":true,"items":[],"keys":["Coffee & Tea","Breakfast & Brunch"],"lastUpdated":1547527612849,"name":"Zuri Coffee","phone":"(530) 536-5151","price":"$$","reviewCount":160,"reviewScore":5,"meta":{"revision":0,"created":1547531148999,"version":0},"$loki":34},{"_id":"5c3d65bd3525a329e0c07258","address":"10087 W River St","location":{"type":"Point","coordinates":[-120.1874786,39.3275054]},"isApproved":true,"items":[],"keys":["Seafood","Salad","Fish & Chips"],"lastUpdated":1547527612398,"name":"Morgan’s Lobster Shack & Fish Market","phone":"(530) 582-5000","price":"$$","reviewCount":560,"reviewScore":4,"meta":{"revision":0,"created":1547531148999,"version":0},"$loki":35},{"_id":"5c3d65bd3525a329e0c10de7","address":"907 Tahoe Blvd","location":{"type":"Point","coordinates":[-120.1862787,39.3281849]},"isApproved":true,"items":[],"keys":["American (New)"],"lastUpdated":1547527612633,"name":"Fredrick’s Fusion Bistro","phone":"(775) 832-3007","price":"$$$","reviewCount":145,"reviewScore":4,"meta":{"revision":0,"created":1547531148999,"version":0},"$loki":36},{"_id":"5c3d65bd3525a329e0c0aca4","address":"1900 Jameson Beach Rd","location":{"type":"Point","coordinates":[-120.1853303,39.3281347]},"isApproved":true,"items":[],"keys":["Ice Cream & Frozen Yogurt","Convenience Stores","Cafes"],"lastUpdated":1547527612490,"name":"Camp Richardson General Store and Cafe","phone":"(800) 544-1801","price":"$","reviewCount":160,"reviewScore":4,"meta":{"revision":0,"created":1547531148999,"version":0},"$loki":37},{"_id":"5c3d65bd3525a329e0c0e1c9","address":"1850 Village E Rd","location":{"type":"Point","coordinates":[-120.1878619,39.3273407]},"isApproved":true,"items":[],"keys":["Sushi Bars"],"lastUpdated":1547527612565,"name":"Sukoyama Sushi","phone":"(530) 584-0110","price":"$$","reviewCount":67,"reviewScore":2,"meta":{"revision":0,"created":1547531148999,"version":0},"$loki":38},{"_id":"5c3d65bd3525a329e0c10fb5","address":"10192 Donner Pass Rd","location":{"type":"Point","coordinates":[-120.187877428342,39.3271984797924]},"isApproved":true,"items":[],"keys":["Gastropubs","Sandwiches","American (Traditional)"],"lastUpdated":1547527612640,"name":"Mellow Fellow","phone":"(530) 214-8927","price":"$$","reviewCount":153,"reviewScore":4,"meta":{"revision":0,"created":1547531148999,"version":0},"$loki":39},{"_id":"5c3d65bd3525a329e0c129d4","address":"12850 Northwoods Blvd","location":{"type":"Point","coordinates":[-120.1912028,39.32552]},"isApproved":true,"items":[],"keys":["American (New)","Pubs"],"lastUpdated":1547527612679,"name":"The Lodge Restaurant & Pub","phone":"(530) 587-9455","price":"$$$","reviewCount":171,"reviewScore":4,"meta":{"revision":0,"created":1547531148999,"version":0},"$loki":40},{"_id":"5c3d65bd3525a329e0c18f0a","address":"10770 Donner Pass","location":{"type":"Point","coordinates":[-120.197922514408,39.3267137431182]},"isApproved":true,"items":[],"keys":["Thai"],"lastUpdated":1547527612831,"name":"Siam Cuisine","phone":"(530) 550-0503","price":"$$","reviewCount":127,"reviewScore":3.5,"meta":{"revision":0,"created":1547531148999,"version":0},"$loki":41},{"_id":"5c3d65bd3525a329e0c14486","address":"10068 Donner Pass Rd","location":{"type":"Point","coordinates":[-120.180969,39.335526]},"isApproved":true,"items":[],"keys":["Pizza","Italian","American (New)"],"lastUpdated":1547527612714,"name":"Best Pies Pizzeria and Restaurant","phone":"(530) 582-1111","price":"$$","reviewCount":341,"reviewScore":3.5,"meta":{"revision":0,"created":1547531148999,"version":0},"$loki":42},{"_id":"5c3d65bd3525a329e0c00aec","address":"10825 Pioneer Trail Rd","location":{"type":"Point","coordinates":[-120.180612802505,39.3355089762896]},"isApproved":true,"items":[],"keys":["Breakfast & Brunch","Sandwiches"],"lastUpdated":1547527612230,"name":"Full Belly Deli","phone":"(530) 550-9516","price":"$","reviewCount":348,"reviewScore":4.5,"meta":{"revision":0,"created":1547531148999,"version":0},"$loki":43},{"_id":"5c3d65bd3525a329e0c16236","address":"11402 Henness Rd","location":{"type":"Point","coordinates":[-120.165997,39.349945]},"isApproved":true,"items":[],"keys":["Bars","American (Traditional)"],"lastUpdated":1547527612763,"name":"PJ’s at Gray’s Crossing","phone":"(530) 550-5801","price":"$$","reviewCount":42,"reviewScore":4,"meta":{"revision":0,"created":1547531148999,"version":0},"$loki":44},{"_id":"5c3d65bd3525a329e0c11f8b","address":"983 Tallac Ave","location":{"type":"Point","coordinates":[-120.214962,39.343674]},"isApproved":true,"items":[],"keys":["Sandwiches","Soup"],"lastUpdated":1547527612662,"name":"Yellow Submarine","phone":"(530) 541-8808","price":"$","reviewCount":132,"reviewScore":4,"meta":{"revision":0,"created":1547531148999,"version":0},"$loki":45},{"_id":"5c3d65bd3525a329e0c06c12","address":"1785 W Lake Blvd","location":{"type":"Point","coordinates":[-120.251246,39.329149]},"isApproved":true,"items":[],"keys":["American (Traditional)","Breakfast & Brunch","Cafes"],"lastUpdated":1547527612386,"name":"Fire Sign Cafe","phone":"(530) 583-0871","price":"$$","reviewCount":818,"reviewScore":4.5,"meta":{"revision":0,"created":1547531148999,"version":0},"$loki":46},{"_id":"5c3d65bd3525a329e0c028a9","address":"15432 Washington Rd","location":{"type":"Point","coordinates":[-120.2511151,39.3292946]},"isApproved":true,"items":[],"keys":["Cafes"],"lastUpdated":1547527612285,"name":"Washington Hotel Cafe","phone":"(530) 265-1990","price":"$","reviewCount":6,"reviewScore":4,"meta":{"revision":0,"created":1547531148999,"version":0},"$loki":47},{"_id":"5c3d65bd3525a329e0c02a59","address":"12716 Northwoods Blvd","location":{"type":"Point","coordinates":[-120.2316191,39.3521682]},"isApproved":true,"items":[],"keys":["Grocery","Delis"],"lastUpdated":1547527612286,"name":"Z Marketplace","phone":"(530) 587-1717","price":"$$","reviewCount":21,"reviewScore":4,"meta":{"revision":0,"created":1547531148999,"version":0},"$loki":48},{"_id":"5c3d65bd3525a329e0c07cb2","address":"475 N Lake Blvd","location":{"type":"Point","coordinates":[-120.2333775,39.3521399]},"isApproved":true,"items":[],"keys":["American (Traditional)","Beer Bar"],"lastUpdated":1547527612411,"name":"Tahoe Tap Haus","phone":"","price":"","reviewCount":9,"reviewScore":4.5,"meta":{"revision":0,"created":1547531148999,"version":0},"$loki":49},{"_id":"5c3d65bd3525a329e0c17042","address":"10046 Donner Pass Rd","location":{"type":"Point","coordinates":[-120.253485799392,39.3633823557861]},"isApproved":true,"items":[],"keys":["American (New)","Modern European"],"lastUpdated":1547527612782,"name":"Trokay","phone":"(530) 582-1040","price":"$$$$","reviewCount":265,"reviewScore":4.5,"meta":{"revision":0,"created":1547531148999,"version":0},"$loki":50},{"_id":"5c3d65bd3525a329e0c10e82","address":"341 Ski Way","location":{"type":"Point","coordinates":[-120.3300015,39.3183501]},"isApproved":true,"items":[],"keys":["American (New)","Venues & Event Spaces","Wine Bars"],"lastUpdated":1547527612634,"name":"Big Water Grille","phone":"(775) 833-0606","price":"$$$","reviewCount":181,"reviewScore":4,"meta":{"revision":0,"created":1547531148999,"version":0},"$loki":51},{"_id":"5c3d65bd3525a329e0c0c536","address":"43440 Laing Rd","location":{"type":"Point","coordinates":[-120.337383,39.304242]},"isApproved":true,"items":[],"keys":["American (New)","Coffee & Tea"],"lastUpdated":1547527612524,"name":"The Rustic Table","phone":"(530) 389-8900","price":"$$","reviewCount":202,"reviewScore":4,"meta":{"revision":0,"created":1547531148999,"version":0},"$loki":52},{"_id":"5c3d65bd3525a329e0c08469","address":"2200 Victorian Ave","location":{"type":"Point","coordinates":[-120.3481673,39.5754781]},"isApproved":true,"items":[],"keys":["Breakfast & Brunch","American (Traditional)","Sandwiches"],"lastUpdated":1547527612426,"name":"Jack’s Cafe","phone":"(775) 331-8184","price":"$","reviewCount":205,"reviewScore":4,"meta":{"revision":0,"created":1547531148999,"version":0},"$loki":53},{"_id":"5c3d65bd3525a329e0c0f0fc","address":"10164 Donner Pass Rd","location":{"type":"Point","coordinates":[-120.3481673,39.5754781]},"isApproved":true,"items":[],"keys":["Mexican","Gluten-Free"],"lastUpdated":1547527612590,"name":"Marg’s Taco Bistro","phone":"(530) 587-6274","price":"$$","reviewCount":650,"reviewScore":3.5,"meta":{"revision":0,"created":1547531148999,"version":0},"$loki":54},{"_id":"5c3d65bd3525a329e0c0d097","address":"100 S Lincoln St","location":{"type":"Point","coordinates":[-120.3667756,39.5893933]},"isApproved":true,"items":[],"keys":["Mexican"],"lastUpdated":1547527612544,"name":"Los Dos Hermanos","phone":"(530) 994-1058","price":"$$","reviewCount":89,"reviewScore":4.5,"meta":{"revision":0,"created":1547531148999,"version":0},"$loki":55},{"_id":"5c3d65bd3525a329e0c14d13","address":"1650 Squaw Valley Rd","location":{"type":"Point","coordinates":[-120.3667756,39.5893933]},"isApproved":true,"items":[],"keys":["Steakhouses","Mediterranean"],"lastUpdated":1547527612729,"name":"Graham’s At Squaw Valley","phone":"(530) 581-0454","price":"$$$","reviewCount":134,"reviewScore":4,"meta":{"revision":0,"created":1547531148999,"version":0},"$loki":56},{"_id":"5c3d65bd3525a329e0c0558a","address":"10118 Donner Pass Rd","location":{"type":"Point","coordinates":[-120.366831942446,39.5898213670231]},"isApproved":true,"items":[],"keys":["American (New)","Bars","Steakhouses"],"lastUpdated":1547527612347,"name":"Truckee Tavern and Grill","phone":"(530) 587-3766","price":"$$","reviewCount":313,"reviewScore":4,"meta":{"revision":0,"created":1547531148999,"version":0},"$loki":57},{"_id":"5c3d65bd3525a329e0c0ccde","address":"101 E Main St","location":{"type":"Point","coordinates":[-120.366831942446,39.5898213670231]},"isApproved":true,"items":[],"keys":["American (New)","Breakfast & Brunch","Burgers"],"lastUpdated":1547527612534,"name":"The Fork & Horn","phone":"(530) 994-1070","price":"$$","reviewCount":51,"reviewScore":4.5,"meta":{"revision":0,"created":1547531148999,"version":0},"$loki":58},{"_id":"5c3d65bd3525a329e0c016d2","address":"107 E Main St","location":{"type":"Point","coordinates":[-120.366090152147,39.5896737224974]},"isApproved":true,"items":[],"keys":["Coffee & Tea","Cafes","Sandwiches"],"lastUpdated":1547527612250,"name":"Smithneck Farms","phone":"(530) 994-3033","price":"$","reviewCount":77,"reviewScore":4.5,"meta":{"revision":0,"created":1547531148999,"version":0},"$loki":59},{"_id":"5c3d65bd3525a329e0c01f19","address":"599 N Lake Blvd","location":{"type":"Point","coordinates":[-120.366090152147,39.5896737224974]},"isApproved":true,"items":[],"keys":["American (Traditional)","Burgers","Bars"],"lastUpdated":1547527612261,"name":"Fat Cat Bar & Grill","phone":"(530) 583-3355","price":"$$","reviewCount":601,"reviewScore":4,"meta":{"revision":0,"created":1547531148999,"version":0},"$loki":60},{"_id":"5c3d65bd3525a329e0c07ebd","address":"711 Main St","location":{"type":"Point","coordinates":[-120.241249785686,39.6759094065215]},"isApproved":true,"items":[],"keys":["Diners","Salad","Burgers"],"lastUpdated":1547527612417,"name":"Golden West Dining","phone":"(530) 993-4467","price":"$$","reviewCount":19,"reviewScore":4,"meta":{"revision":0,"created":1547531148999,"version":0},"$loki":61},{"_id":"5c3d65bd3525a329e0c1724a","address":"348 Bear Run","location":{"type":"Point","coordinates":[-120.524454,39.769]},"isApproved":true,"items":[],"keys":["American (New)"],"lastUpdated":1547527612783,"name":"Nakoma Resort & Dining","phone":"(877) 462-5662","price":"$$$","reviewCount":13,"reviewScore":4,"meta":{"revision":0,"created":1547531148999,"version":0},"$loki":62},{"_id":"5c3d65bd3525a329e0c120cd","address":"348 Bear Run","location":{"type":"Point","coordinates":[-120.5244814,39.7686959]},"isApproved":true,"items":[],"keys":["American (Traditional)"],"lastUpdated":1547527612663,"name":"Wigwam Room","phone":"(530) 832-5067","price":"$$$","reviewCount":17,"reviewScore":3,"meta":{"revision":0,"created":1547531148999,"version":0},"$loki":63},{"_id":"5c3d65bd3525a329e0c1b0d5","address":"401 Peninsula Dr","location":{"type":"Point","coordinates":[-120.5273653,39.7698122]},"isApproved":true,"items":[],"keys":["Italian"],"lastUpdated":1547527612877,"name":"Luciano’s Cucina Di Pasta","phone":"(530) 596-4133","price":"$$","reviewCount":35,"reviewScore":3.5,"meta":{"revision":0,"created":1547531148999,"version":0},"$loki":64},{"_id":"5c3d65bd3525a329e0c07363","address":"11975 State Hwy 70","location":{"type":"Point","coordinates":[-120.467218,39.8112269]},"isApproved":true,"items":[],"keys":["Burgers","American (Traditional)","Pizza"],"lastUpdated":1547527612399,"name":"Scooters Cafe","phone":"(530) 534-4644","price":"$$","reviewCount":40,"reviewScore":4,"meta":{"revision":0,"created":1547531148999,"version":0},"$loki":65},{"_id":"5c3d65bd3525a329e0c1661f","address":"222 E Sierra St","location":{"type":"Point","coordinates":[-120.466547048901,39.811166707533]},"isApproved":true,"items":[],"keys":["Mexican"],"lastUpdated":1547527612765,"name":"Rico’s Mexican Food","phone":"(530) 832-4017","price":"$","reviewCount":47,"reviewScore":4.5,"meta":{"revision":0,"created":1547531148999,"version":0},"$loki":66},{"_id":"5c3d65bd3525a329e0c14db1","address":"1301 Lumpkin Rd","location":{"type":"Point","coordinates":[-120.4676934,39.8113338]},"isApproved":true,"items":[],"keys":["Nightlife","Cafes"],"lastUpdated":1547527612730,"name":"Gold Flake Saloon & Cafe","phone":"(530) 589-1172","price":"","reviewCount":1,"reviewScore":5,"meta":{"revision":0,"created":1547531148999,"version":0},"$loki":67},{"_id":"5c3d65bd3525a329e0c0053e","address":"109 Table Mountain Blvd","location":{"type":"Point","coordinates":[-120.468475520611,39.8106680498985]},"isApproved":true,"items":[],"keys":["American (Traditional)","Breakfast & Brunch"],"lastUpdated":1547527612226,"name":"Tabletop Restaurant","phone":"(530) 533-9655","price":"$$","reviewCount":40,"reviewScore":4.5,"meta":{"revision":0,"created":1547531148999,"version":0},"$loki":68},{"_id":"5c3d65bd3525a329e0c06971","address":"202 Crescent St","location":{"type":"Point","coordinates":[-120.4693133,39.8099869]},"isApproved":true,"items":[],"keys":["Cafes"],"lastUpdated":1547527612379,"name":"Sierra Sunrise Coffee House","phone":"(530) 284-6968","price":"","reviewCount":1,"reviewScore":4,"meta":{"revision":0,"created":1547531148999,"version":0},"$loki":69},{"_id":"5c3d65bd3525a329e0c16a86","address":"1124 Oro Dam Blvd East","location":{"type":"Point","coordinates":[-120.469798957183,39.8106661524668]},"isApproved":true,"items":[],"keys":["Pizza"],"lastUpdated":1547527612773,"name":"Round Table Pizza Clubhouse","phone":"(530) 533-6710","price":"$$","reviewCount":34,"reviewScore":2.5,"meta":{"revision":0,"created":1547531148999,"version":0},"$loki":70},{"_id":"5c3d65bd3525a329e0c1ad22","address":"2025 Bird St","location":{"type":"Point","coordinates":[-120.4707083,39.8098394]},"isApproved":true,"items":[],"keys":["Asian Fusion"],"lastUpdated":1547527612875,"name":"Nori Asian Kitchen + Grill","phone":"(530) 353-3329","price":"$$","reviewCount":68,"reviewScore":4,"meta":{"revision":0,"created":1547531148999,"version":0},"$loki":71},{"_id":"5c3d65bd3525a329e0c089e8","address":"9607 Oroville Quincy Hwy","location":{"type":"Point","coordinates":[-120.4722928,39.8091057]},"isApproved":true,"items":[],"keys":["Cafes"],"lastUpdated":1547527612430,"name":"Canyon Creek Roadhouse Cafe","phone":"(530) 589-4383","price":"","reviewCount":2,"reviewScore":3,"meta":{"revision":0,"created":1547531148999,"version":0},"$loki":72},{"_id":"5c3d65bd3525a329e0c08cca","address":"448 W Sierra Ave","location":{"type":"Point","coordinates":[-120.4742757,39.8089466]},"isApproved":true,"items":[],"keys":["Italian","American (Traditional)","Bars"],"lastUpdated":1547527612436,"name":"The Family Corner Restaurant","phone":"(530) 832-9780","price":"$$","reviewCount":27,"reviewScore":4,"meta":{"revision":0,"created":1547531148999,"version":0},"$loki":73},{"_id":"5c3d65bd3525a329e0c0b7e7","address":"7589 Humboldt Rd","location":{"type":"Point","coordinates":[-120.470278,39.805496]},"isApproved":true,"items":[],"keys":["American (Traditional)"],"lastUpdated":1547527612505,"name":"Outpost","phone":"(530) 873-3050","price":"$$","reviewCount":17,"reviewScore":4.5,"meta":{"revision":0,"created":1547531148999,"version":0},"$loki":74},{"_id":"5c3d65bd3525a329e0c0c34e","address":"6934 Hwy 89","location":{"type":"Point","coordinates":[-120.4690045,39.8063206136211]},"isApproved":true,"items":[],"keys":["American (New)"],"lastUpdated":1547527612518,"name":"Graeagle Meadows Clubhouse Restaurant - Temp. CLOSED","phone":"(530) 836-2348","price":"$$","reviewCount":22,"reviewScore":3.5,"meta":{"revision":0,"created":1547531148999,"version":0},"$loki":75},{"_id":"5c3d65bd3525a329e0c0d51c","address":"2107 Feather River Blvd","location":{"type":"Point","coordinates":[-120.4685484,39.8062195]},"isApproved":true,"items":[],"keys":["Waffles"],"lastUpdated":1547527612547,"name":"The Waffle Shop","phone":"(530) 532-8888","price":"$","reviewCount":38,"reviewScore":4,"meta":{"revision":0,"created":1547531148999,"version":0},"$loki":76},{"_id":"5c3d65bd3525a329e0c1a686","address":"402 Poplar Valley Rd","location":{"type":"Point","coordinates":[-120.695275068283,39.761814096644]},"isApproved":true,"items":[],"keys":["American (New)"],"lastUpdated":1547527612866,"name":"Longboards","phone":"(530) 836-1111","price":"$$","reviewCount":75,"reviewScore":4,"meta":{"revision":0,"created":1547531148999,"version":0},"$loki":77},{"_id":"5c3d65bd3525a329e0c0d334","address":"28 Hwy 89","location":{"type":"Point","coordinates":[-120.620390794,39.7712635799]},"isApproved":true,"items":[],"keys":["Burgers","Hot Dogs","Desserts"],"lastUpdated":1547527612546,"name":"Graeagle Mountain Frostee","phone":"(530) 836-4811","price":"$","reviewCount":46,"reviewScore":3,"meta":{"revision":0,"created":1547531148999,"version":0},"$loki":78},{"_id":"5c3d65bd3525a329e0c0fae5","address":"8296 Hwy 89","location":{"type":"Point","coordinates":[-120.620194673538,39.7749673844823]},"isApproved":true,"items":[],"keys":["American (Traditional)","Bars"],"lastUpdated":1547527612601,"name":"Coyote Bar & Grill","phone":"(530) 836-2002","price":"$$","reviewCount":118,"reviewScore":3,"meta":{"revision":0,"created":1547531148999,"version":0},"$loki":79},{"_id":"5c3d65bd3525a329e0c14962","address":"21 Bonta St","location":{"type":"Point","coordinates":[-120.6204841,39.7825638]},"isApproved":true,"items":[],"keys":["Food Trucks","Breakfast & Brunch","Burgers"],"lastUpdated":1547527612728,"name":"Bread & Butter - Temp. CLOSED","phone":"(530) 394-0303","price":"$$","reviewCount":77,"reviewScore":4.5,"meta":{"revision":0,"created":1547531148999,"version":0},"$loki":80},{"_id":"5c3d65bd3525a329e0c043ac","address":"2932 Almanor Dr W","location":{"type":"Point","coordinates":[-120.6345,39.784235]},"isApproved":true,"items":[],"keys":["American (Traditional)","Diners","Cafes"],"lastUpdated":1547527612321,"name":"Carol’s Cafe","phone":"(530) 259-2464","price":"$$","reviewCount":35,"reviewScore":4,"meta":{"revision":0,"created":1547531148999,"version":0},"$loki":81},{"_id":"5c3d65bd3525a329e0c025fd","address":"90 E Main St","location":{"type":"Point","coordinates":[-120.654477,39.790913]},"isApproved":true,"items":[],"keys":["Latin American","American (Traditional)","Mexican"],"lastUpdated":1547527612284,"name":"Paradise Grill","phone":"(530) 283-0591","price":"$$","reviewCount":18,"reviewScore":3.5,"meta":{"revision":0,"created":1547531148999,"version":0},"$loki":82},{"_id":"5c3d65bd3525a329e0c02d08","address":"545 Mohawk Hwy","location":{"type":"Point","coordinates":[-120.6182142,39.7811924]},"isApproved":true,"items":[],"keys":["Italian","Pizza"],"lastUpdated":1547527612293,"name":"Cuccia’s","phone":"(530) 836-2121","price":"$$","reviewCount":69,"reviewScore":4,"meta":{"revision":0,"created":1547531148999,"version":0},"$loki":83},{"_id":"5c3d65bd3525a329e0c06bdf","address":"875 E. Main St.","location":{"type":"Point","coordinates":[-120.6170737,39.7810353]},"isApproved":true,"items":[],"keys":["Breakfast & Brunch","American (Traditional)","Mexican"],"lastUpdated":1547527612385,"name":"Express Coffee Shop","phone":"(530) 283-1949","price":"$","reviewCount":25,"reviewScore":3.5,"meta":{"revision":0,"created":1547531148999,"version":0},"$loki":84},{"_id":"5c3d65bd3525a329e0c14449","address":"350 Bonta St","location":{"type":"Point","coordinates":[-120.615381393326,39.7801136272574]},"isApproved":true,"items":[],"keys":["Pizza","Italian","Burgers"],"lastUpdated":1547527612714,"name":"Gumba’s Family Pizza","phone":"(530) 836-1212","price":"$$","reviewCount":61,"reviewScore":4.5,"meta":{"revision":0,"created":1547531148999,"version":0},"$loki":85},{"_id":"5c3d65bd3525a329e0c16443","address":"340 Bonta St","location":{"type":"Point","coordinates":[-120.615532,39.780112]},"isApproved":true,"items":[],"keys":["Bakeries","Sandwiches"],"lastUpdated":1547527612764,"name":"The Village Baker","phone":"(530) 836-4064","price":"$","reviewCount":39,"reviewScore":4,"meta":{"revision":0,"created":1547531148999,"version":0},"$loki":86},{"_id":"5c3d65bd3525a329e0c08024","address":"7539 Hwy 89","location":{"type":"Point","coordinates":[-120.619690418243,39.76830446559]},"isApproved":true,"items":[],"keys":["Coffee & Tea","Sandwiches","Breakfast & Brunch"],"lastUpdated":1547527612419,"name":"Graeagle Mill Works","phone":"(530) 836-2828","price":"$$","reviewCount":41,"reviewScore":4,"meta":{"revision":0,"created":1547531148999,"version":0},"$loki":87},{"_id":"5c3d65bd3525a329e0c19b3a","address":"7430 Hwy 89","location":{"type":"Point","coordinates":[-120.618810653687,39.766721102906]},"isApproved":true,"items":[],"keys":["American (Traditional)","Breakfast & Brunch"],"lastUpdated":1547527612849,"name":"Graeagle Restaurant","phone":"(530) 836-2393","price":"$$","reviewCount":40,"reviewScore":3,"meta":{"revision":0,"created":1547531148999,"version":0},"$loki":88},{"_id":"5c3d65bd3525a329e0c072e6","address":"8570 La Porte Rd","location":{"type":"Point","coordinates":[-120.617898702621,39.7655665446581]},"isApproved":true,"items":[],"keys":["American (Traditional)"],"lastUpdated":1547527612399,"name":"Brownsville Station Cafe","phone":"(530) 675-2544","price":"","reviewCount":8,"reviewScore":4,"meta":{"revision":0,"created":1547531148999,"version":0},"$loki":89},{"_id":"5c3d65bd3525a329e0c0812e","address":"1835 Oro Dam Blvd E","location":{"type":"Point","coordinates":[-120.60989499089,39.7618965702355]},"isApproved":true,"items":[],"keys":["Barbeque","Southern"],"lastUpdated":1547527612419,"name":"Big Mama’s BBQ Place","phone":"(530) 282-4274","price":"$$","reviewCount":22,"reviewScore":4,"meta":{"revision":0,"created":1547531148999,"version":0},"$loki":90},{"_id":"5c3d65bd3525a329e0c19fa6","address":"2043 E Main St","location":{"type":"Point","coordinates":[-120.5810956,39.7427043]},"isApproved":true,"items":[],"keys":["Burgers"],"lastUpdated":1547527612851,"name":"The Polka Dot","phone":"(530) 283-2660","price":"$","reviewCount":47,"reviewScore":3,"meta":{"revision":0,"created":1547531148999,"version":0},"$loki":91},{"_id":"5c3d65bd3525a329e0c02ac6","address":"985 Whitehawk Dr","location":{"type":"Point","coordinates":[-120.5537037,39.7150025]},"isApproved":true,"items":[],"keys":["American (New)","Seafood","Wine Bars"],"lastUpdated":1547527612286,"name":"Whitehawk Restaurant","phone":"(530) 836-4985","price":"$$$","reviewCount":17,"reviewScore":4,"meta":{"revision":0,"created":1547531148999,"version":0},"$loki":92},{"_id":"5c3d65bd3525a329e0bffd8a","address":"1041 Fremont Ave","location":{"type":"Point","coordinates":[-120.592343,39.6181539]},"isApproved":true,"items":[],"keys":["Pubs","Scottish"],"lastUpdated":1547527612222,"name":"MacDuff’s Pub","phone":"(530) 542-8777","price":"$$","reviewCount":1785,"reviewScore":4.5,"meta":{"revision":0,"created":1547531148999,"version":0},"$loki":93},{"_id":"5c3d65bd3525a329e0c06b82","address":"100 Gold Lake Rd","location":{"type":"Point","coordinates":[-120.592343,39.6181539]},"isApproved":true,"items":[],"keys":["Hotels","Diners","Grocery"],"lastUpdated":1547527612385,"name":"Bassett Station Motel","phone":"(530) 862-1297","price":"$$","reviewCount":24,"reviewScore":4,"meta":{"revision":0,"created":1547531148999,"version":0},"$loki":94},{"_id":"5c3d65bd3525a329e0c04549","address":"1730 E Main St","location":{"type":"Point","coordinates":[-120.6347481,39.5656863]},"isApproved":true,"items":[],"keys":["Chinese"],"lastUpdated":1547527612323,"name":"Golden King Chinese Restaurant","phone":"(530) 283-3338","price":"$","reviewCount":9,"reviewScore":2.5,"meta":{"revision":0,"created":1547531148999,"version":0},"$loki":95},{"_id":"5c3d65bd3525a329e0c089c8","address":"11 Hwy 89","location":{"type":"Point","coordinates":[-120.636107,39.565304]},"isApproved":true,"items":[],"keys":["Hot Dogs","Music Venues","Coffee & Tea"],"lastUpdated":1547527612429,"name":"Graeagle Outpost","phone":"(530) 836-5820","price":"$","reviewCount":18,"reviewScore":4,"meta":{"revision":0,"created":1547531148999,"version":0},"$loki":96},{"_id":"5c3d65bd3525a329e0c096bf","address":"10015 Palisades Dr","location":{"type":"Point","coordinates":[-120.636107,39.565304]},"isApproved":true,"items":[],"keys":["American (Traditional)","Burgers","Sports Bars"],"lastUpdated":1547527612454,"name":"Blue Coyote Bar and Grill","phone":"(530) 587-7777","price":"$$","reviewCount":123,"reviewScore":3.5,"meta":{"revision":0,"created":1547531148999,"version":0},"$loki":97},{"_id":"5c3d65bd3525a329e0c07bd4","address":"224 Main St","location":{"type":"Point","coordinates":[-120.827953889966,39.5601041050363]},"isApproved":true,"items":[],"keys":["Breakfast & Brunch","Cafes"],"lastUpdated":1547527612410,"name":"Red Moose Cafe","phone":"(530) 862-1024","price":"$$","reviewCount":28,"reviewScore":4.5,"meta":{"revision":0,"created":1547531148999,"version":0},"$loki":98},{"_id":"5c3d65bd3525a329e0c0ba47","address":"505 W Lake Blvd","location":{"type":"Point","coordinates":[-120.827953889966,39.5601041050363]},"isApproved":true,"items":[],"keys":["Vegan","Grocery","Gluten-Free"],"lastUpdated":1547527612507,"name":"Stony Ridge Uncommon Kitchen","phone":"(530) 583-3663","price":"$$","reviewCount":73,"reviewScore":4,"meta":{"revision":0,"created":1547531148999,"version":0},"$loki":99},{"_id":"5c3d65bd3525a329e0c0a11e","address":"5417 Main St","location":{"type":"Point","coordinates":[-120.827427,39.5603559]},"isApproved":true,"items":[],"keys":["American (New)"],"lastUpdated":1547527612473,"name":"The Iron Door","phone":"","price":"$$$","reviewCount":37,"reviewScore":4.5,"meta":{"revision":0,"created":1547531148999,"version":0},"$loki":100},{"_id":"5c3d65bd3525a329e0c16dfc","address":"10121 Pine St","location":{"type":"Point","coordinates":[-120.827427,39.5603559]},"isApproved":true,"items":[],"keys":["Cafeteria","American (Traditional)","Comfort Food"],"lastUpdated":1547527612780,"name":"Pine Street Cafe","phone":"","price":"","reviewCount":4,"reviewScore":4,"meta":{"revision":0,"created":1547531148999,"version":0},"$loki":101},{"_id":"5c3d65bd3525a329e0c160f4","address":"1825 Main St","location":{"type":"Point","coordinates":[-120.8291441,39.5599619]},"isApproved":true,"items":[],"keys":["Bars","Cafes"],"lastUpdated":1547527612762,"name":"Reillys Saloon & Cafe","phone":"(530) 675-2359","price":"$$","reviewCount":8,"reviewScore":3.5,"meta":{"revision":0,"created":1547531148999,"version":0},"$loki":102},{"_id":"5c3d65bd3525a329e0c00ea1","address":"10096 Donner Pass Rd","location":{"type":"Point","coordinates":[-120.840346888224,39.5603296780096]},"isApproved":true,"items":[],"keys":["Italian","Wine Bars","Cocktail Bars"],"lastUpdated":1547527612237,"name":"Pianeta","phone":"(530) 587-4694","price":"$$$","reviewCount":322,"reviewScore":4,"meta":{"revision":0,"created":1547531148999,"version":0},"$loki":103},{"_id":"5c3d65bd3525a329e0c1910f","address":"16525 Bucks Lake Rd","location":{"type":"Point","coordinates":[-120.840346888224,39.5603296780096]},"isApproved":true,"items":[],"keys":["Hotels","American (New)"],"lastUpdated":1547527612832,"name":"Bucks Lake Lodge","phone":"","price":"$$","reviewCount":20,"reviewScore":2.5,"meta":{"revision":0,"created":1547531148999,"version":0},"$loki":104},{"_id":"5c3d65bd3525a329e0c00179","address":"234 Main St","location":{"type":"Point","coordinates":[-120.843297,39.470255]},"isApproved":true,"items":[],"keys":["American (Traditional)"],"lastUpdated":1547527612224,"name":"Casey’s Place","phone":"(530) 287-9809","price":"$","reviewCount":7,"reviewScore":5,"meta":{"revision":0,"created":1547531148999,"version":0},"$loki":105}],"idIndex":[1,2,3,4,5,6,7,8,9,10,11,12,13,14,15,16,17,18,19,20,21,22,23,24,25,26,27,28,29,30,31,32,33,34,35,36,37,38,39,40,41,42,43,44,45,46,47,48,49,50,51,52,53,54,55,56,57,58,59,60,61,62,63,64,65,66,67,68,69,70,71,72,73,74,75,76,77,78,79,80,81,82,83,84,85,86,87,88,89,90,91,92,93,94,95,96,97,98,99,100,101,102,103,104,105],"binaryIndices":{},"constraints":null,"uniqueNames":[],"transforms":{},"objType":"restaurants","dirty":true,"cachedIndex":null,"cachedBinaryIndex":null,"cachedData":null,"adaptiveBinaryIndices":true,"transactional":false,"cloneObjects":false,"cloneMethod":"parse-stringify","asyncListeners":false,"disableMeta":false,"disableChangesApi":true,"disableDeltaChangesApi":true,"autoupdate":false,"serializableIndices":true,"ttl":null,"maxId":105,"DynamicViews":[],"events":{"insert":[],"update":[],"pre-insert":[],"pre-update":[],"close":[],"flushbuffer":[],"error":[],"delete":[null],"warning":[null]},"changes":[]}],"databaseVersion":1.5,"engineVersion":1.5,"autosave":false,"autosaveInterval":5000,"autosaveHandle":null,"throttledSaves":true,"options":{"serializationMethod":"normal","destructureDelimiter":"$<\n"},"persistenceMethod":"fs","persistenceAdapter":null,"verbose":false,"events":{"init":[null],"loaded":[],"flushChanges":[],"close":[],"changes":[],"warning":[]},"ENV":"NODEJS"}