{"filename":"-121.5-35.75","collections":[{"name":"restaurants","data":[{"_id":"5c3d65bd3525a329e0c08f95","address":"104 El Camino Real","location":{"type":"Point","coordinates":[-121.4553039,35.8842555]},"isApproved":true,"items":[],"keys":["Mexican"],"lastUpdated":1547527612438,"name":"Tacos El Grullense","phone":"(831) 674-5841","price":"$","reviewCount":12,"reviewScore":4,"meta":{"revision":0,"created":1547531149684,"version":0},"$loki":1},{"_id":"5c3d65bd3525a329e0c1b17e","address":"2248 Main St","location":{"type":"Point","coordinates":[-121.4553039,35.8842555]},"isApproved":true,"items":[],"keys":["Cafes","Seafood","Steakhouses"],"lastUpdated":1547527612877,"name":"The Sow’s Ear","phone":"(805) 927-4865","price":"$$","reviewCount":417,"reviewScore":4,"meta":{"revision":0,"created":1547531149684,"version":0},"$loki":2},{"_id":"5c3d65bd3525a329e0c10208","address":"55 W Carmel Valley Rd","location":{"type":"Point","coordinates":[-121.446070902039,35.8765534947398]},"isApproved":true,"items":[],"keys":["American (Traditional)","Cafes","Pizza"],"lastUpdated":1547527612610,"name":"Corkscrew Cafe","phone":"(831) 659-8888","price":"$$","reviewCount":374,"reviewScore":4,"meta":{"revision":0,"created":1547531149684,"version":0},"$loki":3},{"_id":"5c3d65bd3525a329e0c107eb","address":"1145 24th St","location":{"type":"Point","coordinates":[-121.446070902039,35.8765534947398]},"isApproved":true,"items":[],"keys":["Pizza","Italian"],"lastUpdated":1547527612619,"name":"Rustic Fire","phone":"(805) 238-7711","price":"$$","reviewCount":537,"reviewScore":4,"meta":{"revision":0,"created":1547531149684,"version":0},"$loki":4},{"_id":"5c3d65bd3525a329e0c03749","address":"6350 Webster Rd","location":{"type":"Point","coordinates":[-121.3194664,35.7645035]},"isApproved":true,"items":[],"keys":["American (Traditional)","Steakhouses"],"lastUpdated":1547527612304,"name":"Loading Chute","phone":"(805) 237-1259","price":"$$","reviewCount":143,"reviewScore":4,"meta":{"revision":0,"created":1547531149684,"version":0},"$loki":5},{"_id":"5c3d65bd3525a329e0c01d29","address":"19019 Cabrillo Hwy 1","location":{"type":"Point","coordinates":[-121.329574584961,35.7813351414414]},"isApproved":true,"items":[],"keys":["American (Traditional)"],"lastUpdated":1547527612259,"name":"Ragged Point Restaurant","phone":"(805) 927-5708","price":"$$","reviewCount":152,"reviewScore":2.5,"meta":{"revision":0,"created":1547531149684,"version":0},"$loki":6},{"_id":"5c3d65bd3525a329e0c0853b","address":"9240 Castillo Dr","location":{"type":"Point","coordinates":[-121.143451356361,35.6127643814364]},"isApproved":true,"items":[],"keys":["Seafood","Steakhouses","Italian"],"lastUpdated":1547527612427,"name":"Manta Rey Restaurant","phone":"(805) 924-1032","price":"$$","reviewCount":247,"reviewScore":3.5,"meta":{"revision":0,"created":1547531149684,"version":0},"$loki":7},{"_id":"5c3d65bd3525a329e0c1654b","address":"1000 Main St","location":{"type":"Point","coordinates":[-121.146072596312,35.6138975450152]},"isApproved":true,"items":[],"keys":["Barbeque"],"lastUpdated":1547527612764,"name":"Linn’s Bar-B-Que","phone":"","price":"","reviewCount":4,"reviewScore":5,"meta":{"revision":0,"created":1547531149684,"version":0},"$loki":8},{"_id":"5c3d65bd3525a329e0c19b0a","address":"819 12th St","location":{"type":"Point","coordinates":[-121.145488,35.614865]},"isApproved":true,"items":[],"keys":["American (Traditional)","Wine Bars","Beer Bar"],"lastUpdated":1547527612849,"name":"Jeffry’s Wine Country BBQ","phone":"(805) 369-2132","price":"$$","reviewCount":140,"reviewScore":4.5,"meta":{"revision":0,"created":1547531149684,"version":0},"$loki":9},{"_id":"5c3d65bd3525a329e0c05949","address":"2174 W Hwy 46","location":{"type":"Point","coordinates":[-121.143228,35.6113998]},"isApproved":true,"items":[],"keys":["Wine Tasting Room","Sandwiches"],"lastUpdated":1547527612355,"name":"Barton’s Kitchen Window","phone":"(805) 237-0771","price":"$$","reviewCount":96,"reviewScore":4,"meta":{"revision":0,"created":1547531149684,"version":0},"$loki":10},{"_id":"5c3d65bd3525a329e0c044f6","address":"3450 Riverside Dr","location":{"type":"Point","coordinates":[-121.1875503,35.644033]},"isApproved":true,"items":[],"keys":["Meat Shops","Sandwiches","Butcher"],"lastUpdated":1547527612322,"name":"J&R Natural Meats","phone":"(805) 237-8100","price":"$$","reviewCount":28,"reviewScore":4,"meta":{"revision":0,"created":1547531149684,"version":0},"$loki":11},{"_id":"5c3d65bd3525a329e0c10e0a","address":"El Camino Real","location":{"type":"Point","coordinates":[-121.1893211,35.6440143]},"isApproved":true,"items":[],"keys":["Burgers","American (Traditional)"],"lastUpdated":1547527612634,"name":"Sylvester’s Burgers","phone":"(805) 466-7591","price":"$","reviewCount":378,"reviewScore":4,"meta":{"revision":0,"created":1547531149684,"version":0},"$loki":12},{"_id":"5c3d65bd3525a329e0c110a8","address":"442 Slo San Simeon Rd","location":{"type":"Point","coordinates":[-121.191825,35.6439043]},"isApproved":true,"items":[],"keys":["Sandwiches","Cafes","Burgers"],"lastUpdated":1547527612640,"name":"Sebastian’s","phone":"","price":"$$","reviewCount":617,"reviewScore":4,"meta":{"revision":0,"created":1547531149684,"version":0},"$loki":13}],"idIndex":[1,2,3,4,5,6,7,8,9,10,11,12,13],"binaryIndices":{},"constraints":null,"uniqueNames":[],"transforms":{},"objType":"restaurants","dirty":true,"cachedIndex":null,"cachedBinaryIndex":null,"cachedData":null,"adaptiveBinaryIndices":true,"transactional":false,"cloneObjects":false,"cloneMethod":"parse-stringify","asyncListeners":false,"disableMeta":false,"disableChangesApi":true,"disableDeltaChangesApi":true,"autoupdate":false,"serializableIndices":true,"ttl":null,"maxId":13,"DynamicViews":[],"events":{"insert":[],"update":[],"pre-insert":[],"pre-update":[],"close":[],"flushbuffer":[],"error":[],"delete":[null],"warning":[null]},"changes":[]}],"databaseVersion":1.5,"engineVersion":1.5,"autosave":false,"autosaveInterval":5000,"autosaveHandle":null,"throttledSaves":true,"options":{"serializationMethod":"normal","destructureDelimiter":"$<\n"},"persistenceMethod":"fs","persistenceAdapter":null,"verbose":false,"events":{"init":[null],"loaded":[],"flushChanges":[],"close":[],"changes":[],"warning":[]},"ENV":"NODEJS"}