{"filename":"-121.25-47.5","collections":[{"name":"restaurants","data":[{"_id":"5c3d65bd3525a329e0c0ce4b","address":"1000 Garden Ave N","location":{"type":"Point","coordinates":[-121.7182885,47.468334]},"isApproved":true,"items":[],"keys":["Food Trucks","Hot Dogs"],"lastUpdated":1547527612534,"name":"Sizzle Dogs","phone":"(425) 484-9433","price":"$","reviewCount":24,"reviewScore":5,"meta":{"revision":0,"created":1547531152626,"version":0},"$loki":1},{"_id":"5c3d65bd3525a329e0c14693","address":"13003 SE Kent Kangley Rd","location":{"type":"Point","coordinates":[-121.7184452,47.4681954]},"isApproved":true,"items":[],"keys":["Japanese","Chinese"],"lastUpdated":1547527612716,"name":"Happy At the Bay Teriyaki","phone":"(253) 630-6665","price":"$","reviewCount":53,"reviewScore":4,"meta":{"revision":0,"created":1547531152626,"version":0},"$loki":2},{"_id":"5c3d65bd3525a329e0c1437b","address":"14420 468th Ave SE","location":{"type":"Point","coordinates":[-121.71572,47.4689123]},"isApproved":true,"items":[],"keys":["Barbeque","Burgers","Wraps"],"lastUpdated":1547527612714,"name":"Hammer Lane BBQ & Grill","phone":"(425) 396-0990","price":"$$","reviewCount":63,"reviewScore":4.5,"meta":{"revision":0,"created":1547531152626,"version":0},"$loki":3},{"_id":"5c3d65bd3525a329e0c1a92e","address":"","location":{"type":"Point","coordinates":[-121.18537902832,47.2475133899407]},"isApproved":true,"items":[],"keys":["Cafes"],"lastUpdated":1547527612867,"name":"Parkside Cafe & Turtle Lounge","phone":"(509) 656-2531","price":"$","reviewCount":37,"reviewScore":4,"meta":{"revision":0,"created":1547531152626,"version":0},"$loki":4},{"_id":"5c3d65bd3525a329e0c1a001","address":"2941 W Sparks Rd","location":{"type":"Point","coordinates":[-121.1820424,47.2445564]},"isApproved":true,"items":[],"keys":["Burgers"],"lastUpdated":1547527612852,"name":"Mountain High Hamburgers","phone":"(509) 656-3037","price":"$","reviewCount":88,"reviewScore":4,"meta":{"revision":0,"created":1547531152626,"version":0},"$loki":5},{"_id":"5c3d65bd3525a329e0c02ce1","address":"1203 Porter Way","location":{"type":"Point","coordinates":[-121.1796257,47.2378432]},"isApproved":true,"items":[],"keys":["Fish & Chips","Food Trucks"],"lastUpdated":1547527612293,"name":"The Frying Dutchman","phone":"(206) 713-2210","price":"$","reviewCount":19,"reviewScore":4.5,"meta":{"revision":0,"created":1547531152626,"version":0},"$loki":6},{"_id":"5c3d65bd3525a329e0c19475","address":"404 N Pine St","location":{"type":"Point","coordinates":[-121.1796257,47.2378432]},"isApproved":true,"items":[],"keys":["Country Dance Halls","Bars","Southern"],"lastUpdated":1547527612840,"name":"Blue Rock Saloon","phone":"(509) 933-1008","price":"$$","reviewCount":38,"reviewScore":4.5,"meta":{"revision":0,"created":1547531152626,"version":0},"$loki":7},{"_id":"5c3d65bd3525a329e0c16c50","address":"432 E Goodlander Rd","location":{"type":"Point","coordinates":[-121.025782,47.237585]},"isApproved":true,"items":[],"keys":["Coffee & Tea","Wraps","Juice Bars & Smoothies"],"lastUpdated":1547527612774,"name":"Nana Kate’s","phone":"(509) 697-4804","price":"$","reviewCount":22,"reviewScore":4,"meta":{"revision":0,"created":1547531152626,"version":0},"$loki":8},{"_id":"5c3d65bd3525a329e0c0e0a9","address":"20638 84th Ave S","location":{"type":"Point","coordinates":[-121.4211049,47.42044]},"isApproved":true,"items":[],"keys":["Coffee & Tea","Bakeries","Sandwiches"],"lastUpdated":1547527612565,"name":"Cravings","phone":"(253) 480-6124","price":"","reviewCount":1,"reviewScore":5,"meta":{"revision":0,"created":1547531152626,"version":0},"$loki":9},{"_id":"5c3d65bd3525a329e0c11174","address":"10 Pass Life Way","location":{"type":"Point","coordinates":[-121.4123182,47.4230253]},"isApproved":true,"items":[],"keys":["Burgers","Sandwiches","Pubs"],"lastUpdated":1547527612641,"name":"The Commonwealth","phone":"(425) 434-0808","price":"$$","reviewCount":151,"reviewScore":4,"meta":{"revision":0,"created":1547531152626,"version":0},"$loki":10},{"_id":"5c3d65bd3525a329e0c1323f","address":"9807 224th St E","location":{"type":"Point","coordinates":[-121.4123181,47.4230253]},"isApproved":true,"items":[],"keys":["Italian","Seafood","Pasta Shops"],"lastUpdated":1547527612689,"name":"Amici Italian Eatery","phone":"(253) 235-0274","price":"$$","reviewCount":118,"reviewScore":4,"meta":{"revision":0,"created":1547531152626,"version":0},"$loki":11},{"_id":"5c3d65bd3525a329e0c1b55c","address":"311 Center St E","location":{"type":"Point","coordinates":[-121.4123183,47.4220987]},"isApproved":true,"items":[],"keys":["Chinese","Vietnamese"],"lastUpdated":1547527612886,"name":"Chopstix","phone":"(360) 832-6261","price":"$$","reviewCount":24,"reviewScore":3.5,"meta":{"revision":0,"created":1547531152626,"version":0},"$loki":12},{"_id":"5c3d65bd3525a329e0bffcaf","address":"21230 84th Ave S","location":{"type":"Point","coordinates":[-121.411488242447,47.4213868186988]},"isApproved":true,"items":[],"keys":["Filipino","Hawaiian"],"lastUpdated":1547527612221,"name":"Big Boys Kainan","phone":"(253) 246-7450","price":"$$","reviewCount":212,"reviewScore":4,"meta":{"revision":0,"created":1547531152626,"version":0},"$loki":13},{"_id":"5c3d65bd3525a329e0c0be97","address":"1001 State Rte 906","location":{"type":"Point","coordinates":[-121.4110704,47.4213852]},"isApproved":true,"items":[],"keys":["American (New)","Burgers"],"lastUpdated":1547527612515,"name":"Webb’s Mountain Grill","phone":"(425) 434-6725","price":"$$","reviewCount":25,"reviewScore":4,"meta":{"revision":0,"created":1547531152626,"version":0},"$loki":14},{"_id":"5c3d65bd3525a329e0c18444","address":"117 Roosevelt Ave","location":{"type":"Point","coordinates":[-121.412671096623,47.4212296126503]},"isApproved":true,"items":[],"keys":["Pizza"],"lastUpdated":1547527612814,"name":"Frankies Pizza","phone":"(360) 825-7744","price":"$$","reviewCount":57,"reviewScore":3.5,"meta":{"revision":0,"created":1547531152626,"version":0},"$loki":15},{"_id":"5c3d65bd3525a329e0c0ad90","address":"33818 Crystal Mountain Blvd","location":{"type":"Point","coordinates":[-121.413049,47.420885]},"isApproved":true,"items":[],"keys":["American (Traditional)"],"lastUpdated":1547527612490,"name":"Alpine Inn Restaurant","phone":"(360) 663-2262","price":"$$","reviewCount":40,"reviewScore":3,"meta":{"revision":0,"created":1547531152626,"version":0},"$loki":16},{"_id":"5c3d65bd3525a329e0c0fc22","address":"282 Hwy 410 N","location":{"type":"Point","coordinates":[-121.413034,47.41727]},"isApproved":true,"items":[],"keys":["American (Traditional)"],"lastUpdated":1547527612607,"name":"Wally’s Drive-In","phone":"(360) 829-0871","price":"$","reviewCount":135,"reviewScore":3.5,"meta":{"revision":0,"created":1547531152626,"version":0},"$loki":17},{"_id":"5c3d65bd3525a329e0c0b59a","address":"13820 Tukwila International Blvd","location":{"type":"Point","coordinates":[-121.4130449,47.4134381]},"isApproved":true,"items":[],"keys":["African"],"lastUpdated":1547527612499,"name":"Salama Restaurant and Cafe","phone":"(206) 277-9621","price":"$","reviewCount":113,"reviewScore":4.5,"meta":{"revision":0,"created":1547531152626,"version":0},"$loki":18},{"_id":"5c3d65bd3525a329e0c033f7","address":"485 Renton Center Way SW","location":{"type":"Point","coordinates":[-121.411783,47.408835]},"isApproved":true,"items":[],"keys":["Buffets","Asian Fusion"],"lastUpdated":1547527612302,"name":"Feast Buffet","phone":"(425) 235-1888","price":"$$","reviewCount":904,"reviewScore":3.5,"meta":{"revision":0,"created":1547531152626,"version":0},"$loki":19},{"_id":"5c3d65bd3525a329e0c0fbf4","address":"4802 Pacific Hwy E","location":{"type":"Point","coordinates":[-121.4118092,47.4082502]},"isApproved":true,"items":[],"keys":["Burgers"],"lastUpdated":1547527612601,"name":"Herfy’s Burgers","phone":"(253) 896-5001","price":"$","reviewCount":43,"reviewScore":4,"meta":{"revision":0,"created":1547531152626,"version":0},"$loki":20}],"idIndex":[1,2,3,4,5,6,7,8,9,10,11,12,13,14,15,16,17,18,19,20],"binaryIndices":{},"constraints":null,"uniqueNames":[],"transforms":{},"objType":"restaurants","dirty":true,"cachedIndex":null,"cachedBinaryIndex":null,"cachedData":null,"adaptiveBinaryIndices":true,"transactional":false,"cloneObjects":false,"cloneMethod":"parse-stringify","asyncListeners":false,"disableMeta":false,"disableChangesApi":true,"disableDeltaChangesApi":true,"autoupdate":false,"serializableIndices":true,"ttl":null,"maxId":20,"DynamicViews":[],"events":{"insert":[],"update":[],"pre-insert":[],"pre-update":[],"close":[],"flushbuffer":[],"error":[],"delete":[null],"warning":[null]},"changes":[]}],"databaseVersion":1.5,"engineVersion":1.5,"autosave":false,"autosaveInterval":5000,"autosaveHandle":null,"throttledSaves":true,"options":{"serializationMethod":"normal","destructureDelimiter":"$<\n"},"persistenceMethod":"fs","persistenceAdapter":null,"verbose":false,"events":{"init":[null],"loaded":[],"flushChanges":[],"close":[],"changes":[],"warning":[]},"ENV":"NODEJS"}