{"filename":"-121-37.5","collections":[{"name":"restaurants","data":[{"_id":"5c3d65bd3525a329e0c017b7","address":"39200 Paseo Padre Pkwy","location":{"type":"Point","coordinates":[-121.2684038,37.5422851]},"isApproved":true,"items":[],"keys":["Indian","Food Trucks","Kebab"],"lastUpdated":1547527612250,"name":"Keeku da Dhaba","phone":"(510) 789-3437","price":"","reviewCount":14,"reviewScore":4.5,"meta":{"revision":0,"created":1547531153013,"version":0},"$loki":1},{"_id":"5c3d65bd3525a329e0c0465e","address":"2050 Lewelling Blvd","location":{"type":"Point","coordinates":[-121.2634121,37.5388145]},"isApproved":true,"items":[],"keys":["Vietnamese"],"lastUpdated":1547527612328,"name":"Pho T&T","phone":"(510) 483-5400","price":"$","reviewCount":221,"reviewScore":4,"meta":{"revision":0,"created":1547531153013,"version":0},"$loki":2},{"_id":"5c3d65bd3525a329e0c133fc","address":"129 4th St","location":{"type":"Point","coordinates":[-121.2634121,37.5388145]},"isApproved":true,"items":[],"keys":["Mexican"],"lastUpdated":1547527612690,"name":"Mariscos Guayabito","phone":"(209) 667-0224","price":"$$","reviewCount":33,"reviewScore":3,"meta":{"revision":0,"created":1547531153013,"version":0},"$loki":3},{"_id":"5c3d65bd3525a329e0c12b5f","address":"506 E Yosemite Ave","location":{"type":"Point","coordinates":[-121.1435189,37.7973521]},"isApproved":true,"items":[],"keys":["American (Traditional)","Breakfast & Brunch"],"lastUpdated":1547527612680,"name":"Mangy Moose Cafe","phone":"(209) 239-1958","price":"$","reviewCount":382,"reviewScore":4.5,"meta":{"revision":0,"created":1547531153013,"version":0},"$loki":4},{"_id":"5c3d65bd3525a329e0c0696f","address":"823 Mellon Ave","location":{"type":"Point","coordinates":[-121.1409685,37.7528833]},"isApproved":true,"items":[],"keys":["Barbeque","Soul Food"],"lastUpdated":1547527612379,"name":"Mama Weber’s BBQ and More","phone":"(209) 823-4227","price":"$$","reviewCount":318,"reviewScore":4,"meta":{"revision":0,"created":1547531153013,"version":0},"$loki":5},{"_id":"5c3d65bd3525a329e0c18163","address":"","location":{"type":"Point","coordinates":[-121.1368953,37.7536268]},"isApproved":true,"items":[],"keys":["Caterers","Tacos","Food Stands"],"lastUpdated":1547527612809,"name":"Tacos La Palmita","phone":"(209) 302-6825","price":"$","reviewCount":44,"reviewScore":4.5,"meta":{"revision":0,"created":1547531153013,"version":0},"$loki":6},{"_id":"5c3d65bd3525a329e0c06385","address":"1201 W Main St","location":{"type":"Point","coordinates":[-121.1365726,37.740265]},"isApproved":true,"items":[],"keys":["Meat Shops","Mexican"],"lastUpdated":1547527612369,"name":"La Mexicana de Ripon","phone":"(209) 599-6820","price":"$","reviewCount":38,"reviewScore":4.5,"meta":{"revision":0,"created":1547531153013,"version":0},"$loki":7},{"_id":"5c3d65bd3525a329e0c034d7","address":"14971 N Hwy 88","location":{"type":"Point","coordinates":[-121.1360141,37.7470466]},"isApproved":true,"items":[],"keys":["Mexican"],"lastUpdated":1547527612303,"name":"Taqueria La Mexicana","phone":"(209) 334-2528","price":"","reviewCount":7,"reviewScore":4.5,"meta":{"revision":0,"created":1547531153013,"version":0},"$loki":8},{"_id":"5c3d65bd3525a329e0c00c1c","address":"6029 N Winton Way","location":{"type":"Point","coordinates":[-121.135192258939,37.7536600073198]},"isApproved":true,"items":[],"keys":["Food Trucks","Mexican"],"lastUpdated":1547527612230,"name":"Tacos Y Mariscos Chapala","phone":"(209) 626-0763","price":"$","reviewCount":6,"reviewScore":4,"meta":{"revision":0,"created":1547531153013,"version":0},"$loki":9},{"_id":"5c3d65bd3525a329e0c1487b","address":"1061 C St","location":{"type":"Point","coordinates":[-121.135192258939,37.7536600073198]},"isApproved":true,"items":[],"keys":["Chinese","Soup"],"lastUpdated":1547527612727,"name":"Galt China Express","phone":"(209) 912-4270","price":"$","reviewCount":54,"reviewScore":4.5,"meta":{"revision":0,"created":1547531153013,"version":0},"$loki":10},{"_id":"5c3d65bd3525a329e0c0312b","address":"2625 Coffee Rd","location":{"type":"Point","coordinates":[-121.136132329702,37.7527152232228]},"isApproved":true,"items":[],"keys":["Butcher","Delis"],"lastUpdated":1547527612296,"name":"Chopping Block - Butcher Shop & Deli","phone":"(209) 408-8850","price":"$$","reviewCount":96,"reviewScore":4,"meta":{"revision":0,"created":1547531153013,"version":0},"$loki":11},{"_id":"5c3d65bd3525a329e0c17821","address":"10761 Hood Franklin Rd","location":{"type":"Point","coordinates":[-121.136132329702,37.7527152232228]},"isApproved":true,"items":[],"keys":["American (New)","Cocktail Bars"],"lastUpdated":1547527612792,"name":"Hood Supply Company","phone":"(916) 775-4494","price":"$$","reviewCount":219,"reviewScore":3.5,"meta":{"revision":0,"created":1547531153013,"version":0},"$loki":12},{"_id":"5c3d65bd3525a329e0c052a6","address":"","location":{"type":"Point","coordinates":[-121.1233256,37.7395217]},"isApproved":true,"items":[],"keys":["Chicken Wings","Food Trucks","Fast Food"],"lastUpdated":1547527612346,"name":"The Hot Spot","phone":"(209) 658-1736","price":"","reviewCount":2,"reviewScore":5,"meta":{"revision":0,"created":1547531153013,"version":0},"$loki":13},{"_id":"5c3d65bd3525a329e0c17d11","address":"234 E Lodi Ave","location":{"type":"Point","coordinates":[-121.1233256,37.7395217]},"isApproved":true,"items":[],"keys":["Mexican"],"lastUpdated":1547527612800,"name":"Noriega’s Chicken Grill Family Restaurant","phone":"(209) 625-8741","price":"$","reviewCount":15,"reviewScore":3.5,"meta":{"revision":0,"created":1547531153013,"version":0},"$loki":14},{"_id":"5c3d65bd3525a329e0c19946","address":"3203 Atchison St","location":{"type":"Point","coordinates":[-121.2001852,37.5496059]},"isApproved":true,"items":[],"keys":["American (New)"],"lastUpdated":1547527612843,"name":"Nifty’s Restaurant","phone":"(209) 863-9979","price":"$","reviewCount":67,"reviewScore":4,"meta":{"revision":0,"created":1547531153013,"version":0},"$loki":15},{"_id":"5c3d65bd3525a329e0c0d8ae","address":"1545 Tully Rd","location":{"type":"Point","coordinates":[-121.122595,37.6376605]},"isApproved":true,"items":[],"keys":["Mexican"],"lastUpdated":1547527612555,"name":"Tesoro Fine Mexican Restaurant","phone":"(209) 248-5550","price":"$","reviewCount":101,"reviewScore":4,"meta":{"revision":0,"created":1547531153013,"version":0},"$loki":16},{"_id":"5c3d65bd3525a329e0c0ccea","address":"1055 W 15th St","location":{"type":"Point","coordinates":[-121.0836441,37.7075358]},"isApproved":true,"items":[],"keys":["Food Trucks","Burgers","Sandwiches"],"lastUpdated":1547527612534,"name":"Two Angry Guys","phone":"(209) 769-0349","price":"$","reviewCount":40,"reviewScore":4,"meta":{"revision":0,"created":1547531153013,"version":0},"$loki":17},{"_id":"5c3d65bd3525a329e0c147c9","address":"100 S Cherokee Ln","location":{"type":"Point","coordinates":[-121.0836441,37.7075358]},"isApproved":true,"items":[],"keys":["American (Traditional)"],"lastUpdated":1547527612721,"name":"Richmaid Restaurant","phone":"(209) 368-4279","price":"$$","reviewCount":120,"reviewScore":4,"meta":{"revision":0,"created":1547531153013,"version":0},"$loki":18},{"_id":"5c3d65bd3525a329e0c0be1f","address":"4546-4556 Salida Blvd","location":{"type":"Point","coordinates":[-121.0786967,37.704769]},"isApproved":true,"items":[],"keys":["Food Trucks","Tacos"],"lastUpdated":1547527612515,"name":"Tacos El Hidalguense","phone":"","price":"$","reviewCount":74,"reviewScore":4.5,"meta":{"revision":0,"created":1547531153013,"version":0},"$loki":19},{"_id":"5c3d65bd3525a329e0c07edc","address":"2501 Mchenry Ave","location":{"type":"Point","coordinates":[-121.0675301,37.6988994]},"isApproved":true,"items":[],"keys":["Italian"],"lastUpdated":1547527612417,"name":"Famiglia Bistro Ristorante","phone":"(209) 544-1784","price":"$$","reviewCount":78,"reviewScore":4,"meta":{"revision":0,"created":1547531153013,"version":0},"$loki":20},{"_id":"5c3d65bd3525a329e0bff44b","address":"818 N Yosemite Ave","location":{"type":"Point","coordinates":[-121.0679994,37.7004165]},"isApproved":true,"items":[],"keys":["Vietnamese","Chinese","Noodles"],"lastUpdated":1547527612216,"name":"Pho 38 Noodle House","phone":"(209) 845-8617","price":"$","reviewCount":203,"reviewScore":4.5,"meta":{"revision":0,"created":1547531153013,"version":0},"$loki":21},{"_id":"5c3d65bd3525a329e0c07f5b","address":"1505 J St","location":{"type":"Point","coordinates":[-121.0679994,37.7004165]},"isApproved":true,"items":[],"keys":["American (New)","Steakhouses"],"lastUpdated":1547527612418,"name":"Dewz Restaurant","phone":"(209) 549-1101","price":"$$$","reviewCount":442,"reviewScore":4,"meta":{"revision":0,"created":1547531153013,"version":0},"$loki":22},{"_id":"5c3d65bd3525a329e0c1431c","address":"3250 Dale Rd","location":{"type":"Point","coordinates":[-121.0493912,37.6879675]},"isApproved":true,"items":[],"keys":["American (Traditional)"],"lastUpdated":1547527612714,"name":"Velvet Grill & Creamery","phone":"(209) 527-2662","price":"$","reviewCount":156,"reviewScore":4,"meta":{"revision":0,"created":1547531153013,"version":0},"$loki":23},{"_id":"5c3d65bd3525a329e0c15458","address":"3200 Sisk Rd","location":{"type":"Point","coordinates":[-121.050441,37.685592]},"isApproved":true,"items":[],"keys":["Fish & Chips"],"lastUpdated":1547527612739,"name":"London Fish & Chips","phone":"(209) 526-7288","price":"$","reviewCount":165,"reviewScore":4,"meta":{"revision":0,"created":1547531153013,"version":0},"$loki":24},{"_id":"5c3d65bd3525a329e0c00955","address":"1320 Standiford Ave","location":{"type":"Point","coordinates":[-121.049627065659,37.7035841820419]},"isApproved":true,"items":[],"keys":["Greek","Mediterranean"],"lastUpdated":1547527612229,"name":"Papapavlos Mediterranean Bistro & Bar","phone":"(209) 525-3995","price":"$$","reviewCount":166,"reviewScore":4,"meta":{"revision":0,"created":1547531153013,"version":0},"$loki":25},{"_id":"5c3d65bd3525a329e0c0756c","address":"800 N Yosemite Ave","location":{"type":"Point","coordinates":[-121.049627065659,37.7035841820419]},"isApproved":true,"items":[],"keys":["American (Traditional)","Mexican"],"lastUpdated":1547527612400,"name":"Cindy’s Restaurant","phone":"(209) 847-7897","price":"$","reviewCount":51,"reviewScore":3.5,"meta":{"revision":0,"created":1547531153013,"version":0},"$loki":26},{"_id":"5c3d65bd3525a329e0c14eb5","address":"4742 McHenry Ave","location":{"type":"Point","coordinates":[-120.9936938,37.7078346]},"isApproved":true,"items":[],"keys":["Delis"],"lastUpdated":1547527612736,"name":"The Pit Stop","phone":"(209) 338-3354","price":"$","reviewCount":22,"reviewScore":4.5,"meta":{"revision":0,"created":1547531153013,"version":0},"$loki":27},{"_id":"5c3d65bd3525a329e0c0fb6b","address":"600 S Golden State Blvd","location":{"type":"Point","coordinates":[-120.988421,37.710388]},"isApproved":true,"items":[],"keys":["Mexican","Food Trucks","Breakfast & Brunch"],"lastUpdated":1547527612601,"name":"Sanchez Taqueria","phone":"(209) 416-2182","price":"$$","reviewCount":5,"reviewScore":5,"meta":{"revision":0,"created":1547531153013,"version":0},"$loki":28},{"_id":"5c3d65bd3525a329e0bffd0f","address":"","location":{"type":"Point","coordinates":[-120.997558619938,37.703747391565]},"isApproved":true,"items":[],"keys":["Caterers","Pizza"],"lastUpdated":1547527612221,"name":"Paul’s Rustic Oven","phone":"(209) 604-8838","price":"$$","reviewCount":18,"reviewScore":4.5,"meta":{"revision":0,"created":1547531153013,"version":0},"$loki":29},{"_id":"5c3d65bd3525a329e0c0bbae","address":"501 Bangs Ave","location":{"type":"Point","coordinates":[-121.000400747762,37.7039899672726]},"isApproved":true,"items":[],"keys":["American (Traditional)","Burgers","Sandwiches"],"lastUpdated":1547527612509,"name":"Smokey’s Neighborhood Grill","phone":"(209) 554-6999","price":"$$","reviewCount":74,"reviewScore":4.5,"meta":{"revision":0,"created":1547531153013,"version":0},"$loki":30},{"_id":"5c3d65bd3525a329e0c15392","address":"136 N Maag Ave","location":{"type":"Point","coordinates":[-121.0321662,37.6894082]},"isApproved":true,"items":[],"keys":["Mexican"],"lastUpdated":1547527612738,"name":"Javi’s Oakdale Mexican Restaurant","phone":"(209) 845-8880","price":"$$","reviewCount":72,"reviewScore":3.5,"meta":{"revision":0,"created":1547531153013,"version":0},"$loki":31},{"_id":"5c3d65bd3525a329e0c164d0","address":"622 Doctor Mlk Jr Blvd","location":{"type":"Point","coordinates":[-121.032644788455,37.6821973818311]},"isApproved":true,"items":[],"keys":["Food Stands"],"lastUpdated":1547527612764,"name":"Dulceria La Piedad","phone":"(209) 641-4775","price":"","reviewCount":1,"reviewScore":5,"meta":{"revision":0,"created":1547531153013,"version":0},"$loki":32},{"_id":"5c3d65bd3525a329e0c0976d","address":"3071 Countryside Dr","location":{"type":"Point","coordinates":[-121.01199,37.687717]},"isApproved":true,"items":[],"keys":["Fast Food","Burgers"],"lastUpdated":1547527612461,"name":"In-N-Out Burger","phone":"(800) 786-1000","price":"$","reviewCount":86,"reviewScore":4,"meta":{"revision":0,"created":1547531153013,"version":0},"$loki":33},{"_id":"5c3d65bd3525a329e0c0bc27","address":"3507 Tully Rd","location":{"type":"Point","coordinates":[-121.012838269714,37.6896448446191]},"isApproved":true,"items":[],"keys":["Japanese"],"lastUpdated":1547527612509,"name":"Modesto Sukiyaki","phone":"(209) 526-3494","price":"$$","reviewCount":147,"reviewScore":4.5,"meta":{"revision":0,"created":1547531153013,"version":0},"$loki":34},{"_id":"5c3d65bd3525a329e0c07994","address":"35 Main St","location":{"type":"Point","coordinates":[-121.0139848,37.6887913]},"isApproved":true,"items":[],"keys":["Italian"],"lastUpdated":1547527612409,"name":"Luka’s Restaurant & Bar","phone":"(209) 289-0535","price":"","reviewCount":16,"reviewScore":4.5,"meta":{"revision":0,"created":1547531153013,"version":0},"$loki":35},{"_id":"5c3d65bd3525a329e0c0d632","address":"624 N Golden State Blvd","location":{"type":"Point","coordinates":[-121.0139848,37.6887913]},"isApproved":true,"items":[],"keys":["Mexican","Seafood"],"lastUpdated":1547527612548,"name":"Mi Casa Seafood & Fine Mexican Cuisine","phone":"(209) 632-9449","price":"$$","reviewCount":134,"reviewScore":3,"meta":{"revision":0,"created":1547531153013,"version":0},"$loki":36},{"_id":"5c3d65bd3525a329e0c03035","address":"3080 Countryside Dr","location":{"type":"Point","coordinates":[-120.993281293868,37.6939159365083]},"isApproved":true,"items":[],"keys":["Hawaiian","Barbeque"],"lastUpdated":1547527612295,"name":"Ono Hawaiian BBQ","phone":"(209) 632-3788","price":"$","reviewCount":90,"reviewScore":3.5,"meta":{"revision":0,"created":1547531153013,"version":0},"$loki":37},{"_id":"5c3d65bd3525a329e0c01193","address":"3501 McHenry Ave","location":{"type":"Point","coordinates":[-120.995405875146,37.6904539669365]},"isApproved":true,"items":[],"keys":["Poke","Sushi Bars","Hawaiian"],"lastUpdated":1547527612239,"name":"Poke Bowl","phone":"(209) 214-8008","price":"$$","reviewCount":230,"reviewScore":4.5,"meta":{"revision":0,"created":1547531153013,"version":0},"$loki":38},{"_id":"5c3d65bd3525a329e0c08598","address":"1200 I St","location":{"type":"Point","coordinates":[-120.9956082,37.6777632]},"isApproved":true,"items":[],"keys":["Sushi Bars","Japanese","Asian Fusion"],"lastUpdated":1547527612427,"name":"Raw Sushi Bistro","phone":"(209) 566-9560","price":"$$","reviewCount":430,"reviewScore":4.5,"meta":{"revision":0,"created":1547531153013,"version":0},"$loki":39},{"_id":"5c3d65bd3525a329e0c1498d","address":"310 E Main St","location":{"type":"Point","coordinates":[-120.995345728836,37.6759255416941]},"isApproved":true,"items":[],"keys":["Breakfast & Brunch","Coffee & Tea","Bagels"],"lastUpdated":1547527612728,"name":"La Mo Cafe","phone":"(209) 632-6655","price":"$$","reviewCount":343,"reviewScore":4.5,"meta":{"revision":0,"created":1547531153013,"version":0},"$loki":40},{"_id":"5c3d65bd3525a329e0c0e16a","address":"161 Atwater Blvd","location":{"type":"Point","coordinates":[-120.9930541,37.6759836]},"isApproved":true,"items":[],"keys":["Mexican","Seafood"],"lastUpdated":1547527612565,"name":"Mariscos La Playa","phone":"(209) 812-6505","price":"","reviewCount":2,"reviewScore":4,"meta":{"revision":0,"created":1547531153013,"version":0},"$loki":41},{"_id":"5c3d65bd3525a329e0c105ce","address":"2252 McHenry Ave","location":{"type":"Point","coordinates":[-120.993695433066,37.6754032098948]},"isApproved":true,"items":[],"keys":["Middle Eastern","Mediterranean","Salad"],"lastUpdated":1547527612618,"name":"Super Gyros","phone":"(209) 578-6690","price":"$","reviewCount":238,"reviewScore":4.5,"meta":{"revision":0,"created":1547531153013,"version":0},"$loki":42},{"_id":"5c3d65bd3525a329e0c04640","address":"1612 Pacific Ave","location":{"type":"Point","coordinates":[-120.9991032,37.6697463]},"isApproved":true,"items":[],"keys":["Cafes"],"lastUpdated":1547527612328,"name":"Manny’s California Fresh Cafe","phone":"(209) 463-6415","price":"$","reviewCount":708,"reviewScore":3.5,"meta":{"revision":0,"created":1547531153013,"version":0},"$loki":43},{"_id":"5c3d65bd3525a329e0c14cbc","address":"2231 Geer Rd","location":{"type":"Point","coordinates":[-120.9991032,37.6697463]},"isApproved":true,"items":[],"keys":["Chinese"],"lastUpdated":1547527612729,"name":"Yummy House","phone":"(209) 668-8608","price":"$","reviewCount":36,"reviewScore":4,"meta":{"revision":0,"created":1547531153013,"version":0},"$loki":44},{"_id":"5c3d65bd3525a329e0c1b5d4","address":"235 W Main St","location":{"type":"Point","coordinates":[-120.9991032,37.6697463]},"isApproved":true,"items":[],"keys":["Thai"],"lastUpdated":1547527612886,"name":"Bangkok Thai Restaurant","phone":"(209) 383-9999","price":"$","reviewCount":117,"reviewScore":4,"meta":{"revision":0,"created":1547531153013,"version":0},"$loki":45},{"_id":"5c3d65bd3525a329e0c04466","address":"1707 McHenry Ave","location":{"type":"Point","coordinates":[-120.994465,37.669503]},"isApproved":true,"items":[],"keys":["Sandwiches","Gluten-Free","Vegetarian"],"lastUpdated":1547527612322,"name":"Ike’s Love and Sandwiches","phone":"(209) 300-7893","price":"","reviewCount":13,"reviewScore":4,"meta":{"revision":0,"created":1547531153013,"version":0},"$loki":46},{"_id":"5c3d65bd3525a329e0bff838","address":"124 S Western Ave","location":{"type":"Point","coordinates":[-120.991087,37.669596]},"isApproved":true,"items":[],"keys":["Chinese"],"lastUpdated":1547527612218,"name":"Golden Bowl","phone":"(209) 874-3838","price":"$$","reviewCount":28,"reviewScore":3.5,"meta":{"revision":0,"created":1547531153013,"version":0},"$loki":47},{"_id":"5c3d65bd3525a329e0c00563","address":"1700 Mchenry Ave","location":{"type":"Point","coordinates":[-120.991087,37.669596]},"isApproved":true,"items":[],"keys":["American (New)","Vegan","Burgers"],"lastUpdated":1547527612227,"name":"Bauer’s 66 1/2","phone":"(209) 985-1199","price":"$$","reviewCount":464,"reviewScore":4.5,"meta":{"revision":0,"created":1547531153013,"version":0},"$loki":48},{"_id":"5c3d65bd3525a329e0bff5bc","address":"110 E Granger Ave","location":{"type":"Point","coordinates":[-120.9931662,37.6670861]},"isApproved":true,"items":[],"keys":["Mexican"],"lastUpdated":1547527612217,"name":"La Casa Adobe Restaurant","phone":"(209) 530-0891","price":"$","reviewCount":49,"reviewScore":4,"meta":{"revision":0,"created":1547531153013,"version":0},"$loki":49},{"_id":"5c3d65bd3525a329e0bffa4f","address":"2515 N Tracy Blvd","location":{"type":"Point","coordinates":[-121.00326038897,37.661113090818]},"isApproved":true,"items":[],"keys":["Korean","Barbeque"],"lastUpdated":1547527612220,"name":"Maroo Korean BBQ And Catering","phone":"(209) 833-9292","price":"$$","reviewCount":107,"reviewScore":4.5,"meta":{"revision":0,"created":1547531153013,"version":0},"$loki":50},{"_id":"5c3d65bd3525a329e0c19d8c","address":"3801 Yosemite Blvd","location":{"type":"Point","coordinates":[-121.012515999945,37.6670922142333]},"isApproved":true,"items":[],"keys":["Mediterranean","Burgers","Greek"],"lastUpdated":1547527612850,"name":"George’s Gyro’s","phone":"(209) 521-6666","price":"$","reviewCount":44,"reviewScore":4,"meta":{"revision":0,"created":1547531153013,"version":0},"$loki":51},{"_id":"5c3d65bd3525a329e0c08ab7","address":"1439 Crowell St","location":{"type":"Point","coordinates":[-121.021497984114,37.6643508966431]},"isApproved":true,"items":[],"keys":["Shaved Ice","Mexican"],"lastUpdated":1547527612435,"name":"Frutal Raspados","phone":"(209) 394-7759","price":"","reviewCount":9,"reviewScore":3,"meta":{"revision":0,"created":1547531153013,"version":0},"$loki":52},{"_id":"5c3d65bd3525a329e0c0be3e","address":"3220 Atchison St","location":{"type":"Point","coordinates":[-121.030465252644,37.6558386375037]},"isApproved":true,"items":[],"keys":["Mexican"],"lastUpdated":1547527612515,"name":"Taqueria Riverbank","phone":"(209) 869-0114","price":"$","reviewCount":31,"reviewScore":4.5,"meta":{"revision":0,"created":1547531153013,"version":0},"$loki":53},{"_id":"5c3d65bd3525a329e0c086ac","address":"2305-2399 N Walnut Rd","location":{"type":"Point","coordinates":[-121.0313072,37.6519872]},"isApproved":true,"items":[],"keys":["Food Trucks","Mexican"],"lastUpdated":1547527612427,"name":"Taqueria La Pequeña","phone":"","price":"$","reviewCount":5,"reviewScore":4.5,"meta":{"revision":0,"created":1547531153013,"version":0},"$loki":54},{"_id":"5c3d65bd3525a329e0c0cf82","address":"4912 Yosemite Blvd","location":{"type":"Point","coordinates":[-121.03849145471,37.6715354912897]},"isApproved":true,"items":[],"keys":["Mexican"],"lastUpdated":1547527612539,"name":"Empire’s Taco Truck","phone":"","price":"$","reviewCount":18,"reviewScore":4.5,"meta":{"revision":0,"created":1547531153013,"version":0},"$loki":55},{"_id":"5c3d65bd3525a329e0c03667","address":"3113 Crows Landing Rd","location":{"type":"Point","coordinates":[-120.996028,37.589021]},"isApproved":true,"items":[],"keys":["Mexican","Food Trucks","Latin American"],"lastUpdated":1547527612303,"name":"Gorditas El Sabor De Mi Pueblo","phone":"(209) 232-5373","price":"$$","reviewCount":5,"reviewScore":5,"meta":{"revision":0,"created":1547531153013,"version":0},"$loki":56},{"_id":"5c3d65bd3525a329e0c148cc","address":"1125 K St","location":{"type":"Point","coordinates":[-120.99598,37.58904]},"isApproved":true,"items":[],"keys":["Sandwiches"],"lastUpdated":1547527612727,"name":"Brighter Side","phone":"(209) 524-7531","price":"$","reviewCount":132,"reviewScore":4.5,"meta":{"revision":0,"created":1547531153013,"version":0},"$loki":57},{"_id":"5c3d65bd3525a329e0c0e148","address":"130 S Walnut Rd","location":{"type":"Point","coordinates":[-120.998464890703,37.6096083113096]},"isApproved":true,"items":[],"keys":["Breakfast & Brunch","Diners","American (Traditional)"],"lastUpdated":1547527612565,"name":"Hot Rod Diner","phone":"(209) 669-3500","price":"$","reviewCount":142,"reviewScore":3.5,"meta":{"revision":0,"created":1547531153013,"version":0},"$loki":58},{"_id":"5c3d65bd3525a329e0c06b97","address":"","location":{"type":"Point","coordinates":[-120.993763128407,37.6055555920188]},"isApproved":true,"items":[],"keys":["Creperies","Food Trucks"],"lastUpdated":1547527612385,"name":"Petite Paris Cafe","phone":"(650) 722-0680","price":"","reviewCount":1,"reviewScore":4,"meta":{"revision":0,"created":1547531153013,"version":0},"$loki":59},{"_id":"5c3d65bd3525a329e0c0bfcb","address":"1100 Crows Landing Rd","location":{"type":"Point","coordinates":[-120.9936397,37.6141108]},"isApproved":true,"items":[],"keys":["Mexican"],"lastUpdated":1547527612516,"name":"Jessica’s Taqueria","phone":"(209) 581-0245","price":"$","reviewCount":48,"reviewScore":4,"meta":{"revision":0,"created":1547531153013,"version":0},"$loki":60},{"_id":"5c3d65bd3525a329e0c0bef0","address":"431 12th St","location":{"type":"Point","coordinates":[-120.992627,37.6368012]},"isApproved":true,"items":[],"keys":["Asian Fusion","Seafood"],"lastUpdated":1547527612515,"name":"Surla’s","phone":"(209) 550-5555","price":"$$","reviewCount":281,"reviewScore":4,"meta":{"revision":0,"created":1547531153013,"version":0},"$loki":61},{"_id":"5c3d65bd3525a329e0c0c9c8","address":"36 S 3rd St","location":{"type":"Point","coordinates":[-120.9895823,37.6376089]},"isApproved":true,"items":[],"keys":["Chinese"],"lastUpdated":1547527612527,"name":"Mandarin House","phone":"(209) 892-4270","price":"$$","reviewCount":37,"reviewScore":4,"meta":{"revision":0,"created":1547531153013,"version":0},"$loki":62},{"_id":"5c3d65bd3525a329e0c195e8","address":"1410 H St","location":{"type":"Point","coordinates":[-120.9936591,37.6416034]},"isApproved":true,"items":[],"keys":["Sandwiches","American (New)"],"lastUpdated":1547527612841,"name":"My Chef Restaurant & Catering","phone":"(209) 571-2220","price":"$","reviewCount":56,"reviewScore":4.5,"meta":{"revision":0,"created":1547531153013,"version":0},"$loki":63},{"_id":"5c3d65bd3525a329e0c18aab","address":"1222 H St","location":{"type":"Point","coordinates":[-120.995276,37.6404452]},"isApproved":true,"items":[],"keys":["Vietnamese","Noodles"],"lastUpdated":1547527612823,"name":"Phoenix Noodle House","phone":"(209) 526-9706","price":"$","reviewCount":459,"reviewScore":4,"meta":{"revision":0,"created":1547531153013,"version":0},"$loki":64},{"_id":"5c3d65bd3525a329e0c06b24","address":"","location":{"type":"Point","coordinates":[-120.9968782,37.6390972]},"isApproved":true,"items":[],"keys":["Food Trucks","Southern"],"lastUpdated":1547527612380,"name":"Southern Comfort Express","phone":"(209) 352-2204","price":"$","reviewCount":7,"reviewScore":3.5,"meta":{"revision":0,"created":1547531153013,"version":0},"$loki":65},{"_id":"5c3d65bd3525a329e0c094b6","address":"820 H St","location":{"type":"Point","coordinates":[-120.9990405,37.6373159]},"isApproved":true,"items":[],"keys":["Mexican","Food Trucks"],"lastUpdated":1547527612453,"name":"Fonzi’ Tacos","phone":"(209) 596-8871","price":"","reviewCount":13,"reviewScore":4,"meta":{"revision":0,"created":1547531153013,"version":0},"$loki":66},{"_id":"5c3d65bd3525a329e0c096d3","address":"942 N Golden State Blvd","location":{"type":"Point","coordinates":[-121.0040608,37.6337332]},"isApproved":true,"items":[],"keys":["Mexican"],"lastUpdated":1547527612454,"name":"El Charro","phone":"(209) 668-2650","price":"$$","reviewCount":99,"reviewScore":3.5,"meta":{"revision":0,"created":1547531153013,"version":0},"$loki":67},{"_id":"5c3d65bd3525a329e0c0bacb","address":"411 H St","location":{"type":"Point","coordinates":[-121.0034494,37.6347077]},"isApproved":true,"items":[],"keys":["Asian Fusion","Thai"],"lastUpdated":1547527612508,"name":"Lanxang Kitchen","phone":"(209) 589-0712","price":"$","reviewCount":71,"reviewScore":5,"meta":{"revision":0,"created":1547531153013,"version":0},"$loki":68},{"_id":"5c3d65bd3525a329e0c17298","address":"2022 Monte Vista Ave","location":{"type":"Point","coordinates":[-120.9994393,37.6385684]},"isApproved":true,"items":[],"keys":["Sushi Bars"],"lastUpdated":1547527612783,"name":"Fuji Sushi","phone":"(209) 250-2132","price":"$$","reviewCount":154,"reviewScore":4,"meta":{"revision":0,"created":1547531153013,"version":0},"$loki":69},{"_id":"5c3d65bd3525a329e0c0bca9","address":"950 10th St","location":{"type":"Point","coordinates":[-120.9998196,37.64033]},"isApproved":true,"items":[],"keys":["Thai","Vegan"],"lastUpdated":1547527612509,"name":"Thailand Restaurant","phone":"(209) 544-0505","price":"$$","reviewCount":169,"reviewScore":4.5,"meta":{"revision":0,"created":1547531153013,"version":0},"$loki":70},{"_id":"5c3d65bd3525a329e0c0e5a8","address":"9810 Stephens St","location":{"type":"Point","coordinates":[-120.999951213598,37.6403723323835]},"isApproved":true,"items":[],"keys":["Mexican"],"lastUpdated":1547527612573,"name":"La Michoacana","phone":"(209) 664-9247","price":"$$","reviewCount":4,"reviewScore":5,"meta":{"revision":0,"created":1547531153013,"version":0},"$loki":71},{"_id":"5c3d65bd3525a329e0c11ac7","address":"1521 Geer Rd","location":{"type":"Point","coordinates":[-121.0004045,37.6402935]},"isApproved":true,"items":[],"keys":["Sandwiches","Soup","Salad"],"lastUpdated":1547527612652,"name":"Mr. Pickle’s Sandwich Shop","phone":"(209) 669-9096","price":"$","reviewCount":72,"reviewScore":3.5,"meta":{"revision":0,"created":1547531153013,"version":0},"$loki":72},{"_id":"5c3d65bd3525a329e0c0ba03","address":"259 W Main St","location":{"type":"Point","coordinates":[-121.0003802,37.6400649]},"isApproved":true,"items":[],"keys":["Mexican"],"lastUpdated":1547527612507,"name":"Marie’s Mexican Kitchen","phone":"(209) 626-5330","price":"$","reviewCount":57,"reviewScore":3.5,"meta":{"revision":0,"created":1547531153013,"version":0},"$loki":73},{"_id":"5c3d65bd3525a329e0c14435","address":"1801 H St","location":{"type":"Point","coordinates":[-121.013146,37.645711]},"isApproved":true,"items":[],"keys":["Burgers"],"lastUpdated":1547527612714,"name":"Bob’s Giant Burger","phone":"(209) 284-0748","price":"$","reviewCount":98,"reviewScore":3.5,"meta":{"revision":0,"created":1547531153013,"version":0},"$loki":74},{"_id":"5c3d65bd3525a329e0c08830","address":"901 N Carpenter Rd","location":{"type":"Point","coordinates":[-121.031557001452,37.6476577175883]},"isApproved":true,"items":[],"keys":["Vietnamese","Noodles"],"lastUpdated":1547527612428,"name":"Saigon One","phone":"(209) 248-7612","price":"$$","reviewCount":91,"reviewScore":4,"meta":{"revision":0,"created":1547531153013,"version":0},"$loki":75},{"_id":"5c3d65bd3525a329e0c04f05","address":"2930 4th St","location":{"type":"Point","coordinates":[-121.0060481,37.645704]},"isApproved":true,"items":[],"keys":["Italian"],"lastUpdated":1547527612339,"name":"Pastas Pronto","phone":"(209) 248-5444","price":"","reviewCount":40,"reviewScore":4,"meta":{"revision":0,"created":1547531153013,"version":0},"$loki":76},{"_id":"5c3d65bd3525a329e0c07371","address":"3240 E Hammer Ln","location":{"type":"Point","coordinates":[-121.0060481,37.645704]},"isApproved":true,"items":[],"keys":["Seafood","Cajun/Creole"],"lastUpdated":1547527612399,"name":"The Crab Zone","phone":"(209) 477-9111","price":"$$","reviewCount":247,"reviewScore":3,"meta":{"revision":0,"created":1547531153013,"version":0},"$loki":77},{"_id":"5c3d65bd3525a329e0c00863","address":"34 S Del Puerto Ave","location":{"type":"Point","coordinates":[-121.0040319,37.6417338]},"isApproved":true,"items":[],"keys":["Delis","Coffee & Tea","Bagels"],"lastUpdated":1547527612228,"name":"Blues Cafe","phone":"(209) 892-5282","price":"$","reviewCount":98,"reviewScore":4.5,"meta":{"revision":0,"created":1547531153013,"version":0},"$loki":78},{"_id":"5c3d65bd3525a329e0c085ce","address":"821 L St","location":{"type":"Point","coordinates":[-121.0040319,37.6417338]},"isApproved":true,"items":[],"keys":["Mediterranean","Persian/Iranian"],"lastUpdated":1547527612427,"name":"Skewers Kabob House","phone":"(209) 525-3611","price":"$$","reviewCount":525,"reviewScore":4,"meta":{"revision":0,"created":1547531153013,"version":0},"$loki":79},{"_id":"5c3d65bd3525a329e0c06d0c","address":"142 W Main St","location":{"type":"Point","coordinates":[-121.000698,37.640512]},"isApproved":true,"items":[],"keys":["American (New)","Barbeque","Beer Bar"],"lastUpdated":1547527612387,"name":"Hauck’s Grill","phone":"(209) 250-2653","price":"$$","reviewCount":168,"reviewScore":3.5,"meta":{"revision":0,"created":1547531153013,"version":0},"$loki":80},{"_id":"5c3d65bd3525a329e0c18f10","address":"1432 Main St","location":{"type":"Point","coordinates":[-121.0007224,37.6414132]},"isApproved":true,"items":[],"keys":["Mexican","Meat Shops"],"lastUpdated":1547527612831,"name":"Carniceria DOS Aguas","phone":"(209) 862-2335","price":"$","reviewCount":8,"reviewScore":4.5,"meta":{"revision":0,"created":1547531153013,"version":0},"$loki":81},{"_id":"5c3d65bd3525a329e0c062fc","address":"1002 10th St","location":{"type":"Point","coordinates":[-121.00049,37.640885]},"isApproved":true,"items":[],"keys":["Hot Dogs"],"lastUpdated":1547527612369,"name":"Graffiti Dogs","phone":"(209) 238-9990","price":"","reviewCount":66,"reviewScore":4,"meta":{"revision":0,"created":1547531153013,"version":0},"$loki":82},{"_id":"5c3d65bd3525a329e0c0e85d","address":"1515 Herndon Rd","location":{"type":"Point","coordinates":[-120.9999624,37.6410004]},"isApproved":true,"items":[],"keys":["Diners"],"lastUpdated":1547527612575,"name":"Hot Rod Diner","phone":"(209) 581-0150","price":"$$","reviewCount":85,"reviewScore":3,"meta":{"revision":0,"created":1547531153013,"version":0},"$loki":83},{"_id":"5c3d65bd3525a329e0c0ef40","address":"950 Oakdale Rd","location":{"type":"Point","coordinates":[-120.9995065,37.6409024]},"isApproved":true,"items":[],"keys":["American (Traditional)"],"lastUpdated":1547527612584,"name":"Coach’s Corner","phone":"(209) 491-2805","price":"$$","reviewCount":40,"reviewScore":3.5,"meta":{"revision":0,"created":1547531153013,"version":0},"$loki":84},{"_id":"5c3d65bd3525a329e0c15f26","address":"1040 W Las Palmas Ave","location":{"type":"Point","coordinates":[-120.9992793,37.6409551]},"isApproved":true,"items":[],"keys":["Mexican"],"lastUpdated":1547527612756,"name":"Ricky’s Taqueria","phone":"(209) 892-6938","price":"$","reviewCount":78,"reviewScore":3.5,"meta":{"revision":0,"created":1547531153013,"version":0},"$loki":85},{"_id":"5c3d65bd3525a329e0c11b6b","address":"1325 J St","location":{"type":"Point","coordinates":[-120.9994169,37.641531]},"isApproved":true,"items":[],"keys":["Pizza","Italian"],"lastUpdated":1547527612659,"name":"Chefs Of New York","phone":"(209) 857-5102","price":"$$","reviewCount":128,"reviewScore":4,"meta":{"revision":0,"created":1547531153013,"version":0},"$loki":86},{"_id":"5c3d65bd3525a329e0c18cc0","address":"1022 11th St","location":{"type":"Point","coordinates":[-120.9998116,37.6419666]},"isApproved":true,"items":[],"keys":["Beer Bar","Burgers","Pizza"],"lastUpdated":1547527612825,"name":"Commonwealth","phone":"(209) 248-7451","price":"$$","reviewCount":789,"reviewScore":4,"meta":{"revision":0,"created":1547531153013,"version":0},"$loki":87},{"_id":"5c3d65bd3525a329e0c013fa","address":"2340 W Monta Vista Ave","location":{"type":"Point","coordinates":[-120.999946,37.6429157]},"isApproved":true,"items":[],"keys":["Grocery","Mediterranean"],"lastUpdated":1547527612249,"name":"Ishtar Mediterranean Market And Grill","phone":"(209) 250-1237","price":"$","reviewCount":32,"reviewScore":4.5,"meta":{"revision":0,"created":1547531153013,"version":0},"$loki":88},{"_id":"5c3d65bd3525a329e0c147bb","address":"330 Needham St","location":{"type":"Point","coordinates":[-120.9970256,37.645598]},"isApproved":true,"items":[],"keys":["Vegan","Cafes"],"lastUpdated":1547527612721,"name":"TNK Vegan Cafe","phone":"(209) 567-2232","price":"$","reviewCount":41,"reviewScore":4.5,"meta":{"revision":0,"created":1547531153013,"version":0},"$loki":89},{"_id":"5c3d65bd3525a329e0c0c5ef","address":"2307 Oakdale Rd","location":{"type":"Point","coordinates":[-120.9983383,37.642246]},"isApproved":true,"items":[],"keys":["Bars","American (Traditional)"],"lastUpdated":1547527612524,"name":"Rivets American Grill","phone":"(209) 846-0501","price":"$$","reviewCount":327,"reviewScore":3.5,"meta":{"revision":0,"created":1547531153013,"version":0},"$loki":90},{"_id":"5c3d65bd3525a329e0c13378","address":"441 S Ctr St","location":{"type":"Point","coordinates":[-120.997533165723,37.6414198208761]},"isApproved":true,"items":[],"keys":["Food Trucks","Mexican"],"lastUpdated":1547527612689,"name":"Silva’s Taco Truck","phone":"(209) 634-5283","price":"$","reviewCount":41,"reviewScore":4.5,"meta":{"revision":0,"created":1547531153013,"version":0},"$loki":91},{"_id":"5c3d65bd3525a329e0c01ec0","address":"918 13th St","location":{"type":"Point","coordinates":[-120.996753,37.642253]},"isApproved":true,"items":[],"keys":["Cajun/Creole","Bars","American (Traditional)"],"lastUpdated":1547527612260,"name":"The Bayou Bar and Grill","phone":"(209) 360-2983","price":"$$","reviewCount":141,"reviewScore":3.5,"meta":{"revision":0,"created":1547531153013,"version":0},"$loki":92},{"_id":"5c3d65bd3525a329e0c0c8a3","address":"1540 Yosemite Pkwy","location":{"type":"Point","coordinates":[-120.996763102719,37.6433251440637]},"isApproved":true,"items":[],"keys":["Mexican"],"lastUpdated":1547527612526,"name":"Carnitas Michoacan","phone":"(209) 383-2605","price":"$","reviewCount":56,"reviewScore":3.5,"meta":{"revision":0,"created":1547531153013,"version":0},"$loki":93},{"_id":"5c3d65bd3525a329e0c10113","address":"2413 3rd St","location":{"type":"Point","coordinates":[-120.9954933,37.6443896]},"isApproved":true,"items":[],"keys":["Bakeries","Delis","Coffee & Tea"],"lastUpdated":1547527612610,"name":"Main Street Deli & Bakery","phone":"(209) 883-0597","price":"$","reviewCount":24,"reviewScore":4.5,"meta":{"revision":0,"created":1547531153013,"version":0},"$loki":94},{"_id":"5c3d65bd3525a329e0c0882e","address":"963 10th St","location":{"type":"Point","coordinates":[-120.9912207,37.6452296]},"isApproved":true,"items":[],"keys":["Delis","Sandwiches","Cafes"],"lastUpdated":1547527612428,"name":"Picassos Gourmet Deli","phone":"(209) 491-4840","price":"$","reviewCount":141,"reviewScore":4.5,"meta":{"revision":0,"created":1547531153013,"version":0},"$loki":95},{"_id":"5c3d65bd3525a329e0c08d30","address":"405 Downey Ave","location":{"type":"Point","coordinates":[-120.988859965241,37.6456019495743]},"isApproved":true,"items":[],"keys":["Restaurants"],"lastUpdated":1547527612437,"name":"Bauhaus","phone":"(209) 857-5819","price":"$$","reviewCount":72,"reviewScore":4.5,"meta":{"revision":0,"created":1547531153013,"version":0},"$loki":96},{"_id":"5c3d65bd3525a329e0c076e4","address":"8615 Hwy 33","location":{"type":"Point","coordinates":[-120.9766185,37.6646088]},"isApproved":true,"items":[],"keys":["Bars","American (Traditional)"],"lastUpdated":1547527612402,"name":"Westley Hotel","phone":"(209) 894-3663","price":"$$","reviewCount":59,"reviewScore":4,"meta":{"revision":0,"created":1547531153013,"version":0},"$loki":97},{"_id":"5c3d65bd3525a329e0c03eba","address":"2401 E Orangeburg Ave","location":{"type":"Point","coordinates":[-120.9534333,37.6639749]},"isApproved":true,"items":[],"keys":["Italian","Beer, Wine & Spirits"],"lastUpdated":1547527612313,"name":"Ciao Bella Ristorante","phone":"(209) 521-2426","price":"$$","reviewCount":174,"reviewScore":4,"meta":{"revision":0,"created":1547531153013,"version":0},"$loki":98},{"_id":"5c3d65bd3525a329e0c005c7","address":"1717 Oakdale Rd","location":{"type":"Point","coordinates":[-120.9588549,37.6685646]},"isApproved":true,"items":[],"keys":["Mexican"],"lastUpdated":1547527612227,"name":"Taqueria El Mexicano","phone":"(209) 661-4094","price":"$","reviewCount":74,"reviewScore":4,"meta":{"revision":0,"created":1547531153013,"version":0},"$loki":99},{"_id":"5c3d65bd3525a329e0c0a112","address":"1219 N Carpenter Rd","location":{"type":"Point","coordinates":[-120.9571834,37.6555211]},"isApproved":true,"items":[],"keys":["Mexican"],"lastUpdated":1547527612473,"name":"El Capitan Mariscos & Taqueria","phone":"(209) 408-0831","price":"$$","reviewCount":53,"reviewScore":4,"meta":{"revision":0,"created":1547531153013,"version":0},"$loki":100},{"_id":"5c3d65bd3525a329e0c1a219","address":"401 1st St","location":{"type":"Point","coordinates":[-120.9480093,37.6381458]},"isApproved":true,"items":[],"keys":["Mexican"],"lastUpdated":1547527612858,"name":"El Paisa Taqueria","phone":"(209) 312-8154","price":"$","reviewCount":6,"reviewScore":4.5,"meta":{"revision":0,"created":1547531153013,"version":0},"$loki":101},{"_id":"5c3d65bd3525a329e0c078c9","address":"1751 Yosemite Blvd","location":{"type":"Point","coordinates":[-120.9665201,37.638379]},"isApproved":true,"items":[],"keys":["Mexican","Breakfast & Brunch"],"lastUpdated":1547527612408,"name":"El Rincon Tapatio","phone":"(209) 284-0519","price":"$","reviewCount":23,"reviewScore":4.5,"meta":{"revision":0,"created":1547531153013,"version":0},"$loki":102},{"_id":"5c3d65bd3525a329e0c0cc02","address":"1578 E Whitmore Ave","location":{"type":"Point","coordinates":[-120.969285853207,37.5943861173258]},"isApproved":true,"items":[],"keys":["Mexican","Juice Bars & Smoothies"],"lastUpdated":1547527612533,"name":"La Casa Del Clamato","phone":"(209) 567-2215","price":"$","reviewCount":18,"reviewScore":4.5,"meta":{"revision":0,"created":1547531153013,"version":0},"$loki":103},{"_id":"5c3d65bd3525a329e0c0d5de","address":"1667 E Hatch Rd","location":{"type":"Point","coordinates":[-120.9665242,37.6105492]},"isApproved":true,"items":[],"keys":["Mexican","Sports Bars"],"lastUpdated":1547527612548,"name":"La Morenita","phone":"(209) 537-7900","price":"$$","reviewCount":142,"reviewScore":3.5,"meta":{"revision":0,"created":1547531153013,"version":0},"$loki":104},{"_id":"5c3d65bd3525a329e0c0ce08","address":"6901 Hughson Ave","location":{"type":"Point","coordinates":[-120.924763,37.638646]},"isApproved":true,"items":[],"keys":["Mexican","Seafood"],"lastUpdated":1547527612534,"name":"Durango Taqueria & Seafood","phone":"(209) 542-7110","price":"$$","reviewCount":8,"reviewScore":4.5,"meta":{"revision":0,"created":1547531153013,"version":0},"$loki":105},{"_id":"5c3d65bd3525a329e0c16e3d","address":"8394 Lander Ave","location":{"type":"Point","coordinates":[-120.940862,37.609735]},"isApproved":true,"items":[],"keys":["Mexican"],"lastUpdated":1547527612780,"name":"Javi’s Hilmar Mexican Restaurant","phone":"(209) 668-4357","price":"$$","reviewCount":25,"reviewScore":3,"meta":{"revision":0,"created":1547531153013,"version":0},"$loki":106},{"_id":"5c3d65bd3525a329e0c17d52","address":"1571 Mitchell Rd","location":{"type":"Point","coordinates":[-120.938936104575,37.607910877761]},"isApproved":true,"items":[],"keys":["Mexican"],"lastUpdated":1547527612801,"name":"Taqueria Lagos","phone":"(209) 538-1525","price":"$","reviewCount":63,"reviewScore":3.5,"meta":{"revision":0,"created":1547531153013,"version":0},"$loki":107},{"_id":"5c3d65bd3525a329e0bff421","address":"1301 Commerce Ave","location":{"type":"Point","coordinates":[-120.9394954,37.6030476]},"isApproved":true,"items":[],"keys":["Bars","American (Traditional)","Mexican"],"lastUpdated":1547527612216,"name":"Josie’s Mexican American Bar & Grill","phone":"(209) 358-0425","price":"$$","reviewCount":127,"reviewScore":3.5,"meta":{"revision":0,"created":1547531153013,"version":0},"$loki":108},{"_id":"5c3d65bd3525a329e0c132a6","address":"1778 Mitchell Rd","location":{"type":"Point","coordinates":[-120.9381057,37.6046942]},"isApproved":true,"items":[],"keys":["Indian","Breakfast & Brunch"],"lastUpdated":1547527612689,"name":"Mother India Cuisine","phone":"(209) 566-8020","price":"","reviewCount":1,"reviewScore":5,"meta":{"revision":0,"created":1547531153013,"version":0},"$loki":109},{"_id":"5c3d65bd3525a329e0bff5e6","address":"1778 Mitchell Rd","location":{"type":"Point","coordinates":[-120.93819,37.60509]},"isApproved":true,"items":[],"keys":["American (Traditional)"],"lastUpdated":1547527612217,"name":"Fired Up Grill & Meal Prep","phone":"(209) 290-0555","price":"","reviewCount":39,"reviewScore":3.5,"meta":{"revision":0,"created":1547531153013,"version":0},"$loki":110},{"_id":"5c3d65bd3525a329e0c078cf","address":"26 Macready Dr","location":{"type":"Point","coordinates":[-120.9033279,37.6382618]},"isApproved":true,"items":[],"keys":["Barbeque","Sports Bars"],"lastUpdated":1547527612408,"name":"Hangar BBQ","phone":"(209) 678-9009","price":"$$","reviewCount":165,"reviewScore":3.5,"meta":{"revision":0,"created":1547531153013,"version":0},"$loki":111},{"_id":"5c3d65bd3525a329e0c02e25","address":"4821 Yosemite Blvd","location":{"type":"Point","coordinates":[-120.905922635582,37.6384381591694]},"isApproved":true,"items":[],"keys":["Burgers","American (Traditional)","Sandwiches"],"lastUpdated":1547527612294,"name":"Lula’s Neighborhood Grill","phone":"(209) 526-0009","price":"$","reviewCount":247,"reviewScore":4.5,"meta":{"revision":0,"created":1547531153013,"version":0},"$loki":112},{"_id":"5c3d65bd3525a329e0c162ff","address":"3020 Floyd Ave","location":{"type":"Point","coordinates":[-120.939157416046,37.677354372642]},"isApproved":true,"items":[],"keys":["Thai","Bars"],"lastUpdated":1547527612763,"name":"Tasty Thai","phone":"(209) 551-4200","price":"$$","reviewCount":224,"reviewScore":4,"meta":{"revision":0,"created":1547531153013,"version":0},"$loki":113},{"_id":"5c3d65bd3525a329e0c04380","address":"3948 Sylvan Ave","location":{"type":"Point","coordinates":[-120.9220245,37.6885257]},"isApproved":true,"items":[],"keys":["Mediterranean"],"lastUpdated":1547527612321,"name":"Rusty Red Grill","phone":"(209) 596-4113","price":"$$","reviewCount":112,"reviewScore":5,"meta":{"revision":0,"created":1547531153013,"version":0},"$loki":114},{"_id":"5c3d65bd3525a329e0c11fb4","address":"3532 G St","location":{"type":"Point","coordinates":[-120.9220245,37.6885257]},"isApproved":true,"items":[],"keys":["Mexican"],"lastUpdated":1547527612662,"name":"El Asadero Taco Shop","phone":"(209) 385-3880","price":"$","reviewCount":196,"reviewScore":4,"meta":{"revision":0,"created":1547531153013,"version":0},"$loki":115},{"_id":"5c3d65bd3525a329e0c12798","address":"3020 Floyd Ave","location":{"type":"Point","coordinates":[-120.939243649319,37.6776454007741]},"isApproved":true,"items":[],"keys":["Breakfast & Brunch","American (Traditional)"],"lastUpdated":1547527612672,"name":"Squeeze In","phone":"(209) 846-0719","price":"$$","reviewCount":253,"reviewScore":4,"meta":{"revision":0,"created":1547531153013,"version":0},"$loki":116},{"_id":"5c3d65bd3525a329e0c0d8e6","address":"2101 Sylvan Ave","location":{"type":"Point","coordinates":[-120.959797,37.689385]},"isApproved":true,"items":[],"keys":["Mexican"],"lastUpdated":1547527612555,"name":"Taqueria Mis Compadres","phone":"(209) 524-8035","price":"$","reviewCount":203,"reviewScore":3.5,"meta":{"revision":0,"created":1547531153013,"version":0},"$loki":117},{"_id":"5c3d65bd3525a329e0c178a4","address":"1151 Scenic Dr","location":{"type":"Point","coordinates":[-120.958549976349,37.6794177369985]},"isApproved":true,"items":[],"keys":["Sandwiches","Burgers","Desserts"],"lastUpdated":1547527612792,"name":"Scenic Drive In","phone":"(209) 577-4040","price":"$","reviewCount":102,"reviewScore":4,"meta":{"revision":0,"created":1547531153013,"version":0},"$loki":118},{"_id":"5c3d65bd3525a329e0c1415f","address":"2307 Oakdale Rd","location":{"type":"Point","coordinates":[-120.9581434,37.6761526]},"isApproved":true,"items":[],"keys":["Pizza","Italian"],"lastUpdated":1547527612707,"name":"Chefs Of New York","phone":"(209) 551-0163","price":"$$","reviewCount":472,"reviewScore":4,"meta":{"revision":0,"created":1547531153013,"version":0},"$loki":119},{"_id":"5c3d65bd3525a329e0c023d1","address":"1205 J St","location":{"type":"Point","coordinates":[-120.958008855704,37.6746144870666]},"isApproved":true,"items":[],"keys":["American (New)","Tapas/Small Plates","Wine Bars"],"lastUpdated":1547527612277,"name":"Concetta","phone":"(209) 529-3282","price":"$$","reviewCount":202,"reviewScore":4,"meta":{"revision":0,"created":1547531153013,"version":0},"$loki":120},{"_id":"5c3d65bd3525a329e0c1a18c","address":"18960 North Hwy 88","location":{"type":"Point","coordinates":[-120.975318,37.672177]},"isApproved":true,"items":[],"keys":["Bars","American (New)"],"lastUpdated":1547527612857,"name":"Lockeford Bar & Banquet","phone":"(209) 727-7188","price":"","reviewCount":0,"reviewScore":0,"meta":{"revision":0,"created":1547531153013,"version":0},"$loki":121},{"_id":"5c3d65bd3525a329e0c03a8f","address":"2020 Standiford Ave","location":{"type":"Point","coordinates":[-120.9762872,37.6774054]},"isApproved":true,"items":[],"keys":["Sports Bars","American (New)"],"lastUpdated":1547527612311,"name":"Bookies","phone":"(209) 521-1644","price":"$$","reviewCount":110,"reviewScore":3.5,"meta":{"revision":0,"created":1547531153013,"version":0},"$loki":122},{"_id":"5c3d65bd3525a329e0c0cd60","address":"2625 Coffee Rd","location":{"type":"Point","coordinates":[-120.9767873,37.6791657]},"isApproved":true,"items":[],"keys":["Italian"],"lastUpdated":1547527612534,"name":"Bella Italia","phone":"(209) 577-1094","price":"$$","reviewCount":449,"reviewScore":4,"meta":{"revision":0,"created":1547531153013,"version":0},"$loki":123},{"_id":"5c3d65bd3525a329e0c13b17","address":"1546 El Dorado St","location":{"type":"Point","coordinates":[-120.9765689,37.6797219]},"isApproved":true,"items":[],"keys":["Mexican"],"lastUpdated":1547527612699,"name":"Birrieria Jalisco","phone":"(209) 943-0425","price":"$","reviewCount":56,"reviewScore":4.5,"meta":{"revision":0,"created":1547531153013,"version":0},"$loki":124},{"_id":"5c3d65bd3525a329e0c14c2e","address":"2525 Geer Rd","location":{"type":"Point","coordinates":[-120.975010781567,37.6789408081567]},"isApproved":true,"items":[],"keys":["Cantonese"],"lastUpdated":1547527612729,"name":"Golden China Restaurant","phone":"(209) 668-1660","price":"$","reviewCount":78,"reviewScore":4,"meta":{"revision":0,"created":1547531153013,"version":0},"$loki":125},{"_id":"5c3d65bd3525a329e0c0eb99","address":"1300 Sylvan Ave","location":{"type":"Point","coordinates":[-120.9756583,37.6886132]},"isApproved":true,"items":[],"keys":["Burgers","Mediterranean"],"lastUpdated":1547527612581,"name":"George’s Burgers","phone":"(209) 248-7490","price":"$","reviewCount":143,"reviewScore":4,"meta":{"revision":0,"created":1547531153013,"version":0},"$loki":126},{"_id":"5c3d65bd3525a329e0bffc48","address":"85 E 13th St","location":{"type":"Point","coordinates":[-120.9746423,37.6900861]},"isApproved":true,"items":[],"keys":["Thai"],"lastUpdated":1547527612221,"name":"Houa Khong Restaurant","phone":"(209) 722-5541","price":"$","reviewCount":87,"reviewScore":4,"meta":{"revision":0,"created":1547531153013,"version":0},"$loki":127},{"_id":"5c3d65bd3525a329e0c12ebc","address":"2730 Patterson Rd","location":{"type":"Point","coordinates":[-120.9464633,37.7323901]},"isApproved":true,"items":[],"keys":["Chinese","Seafood"],"lastUpdated":1547527612687,"name":"Lucky House Restaurant","phone":"(209) 869-6154","price":"$","reviewCount":106,"reviewScore":4.5,"meta":{"revision":0,"created":1547531153013,"version":0},"$loki":128},{"_id":"5c3d65bd3525a329e0c0f01c","address":"2684 Shaffer Rd","location":{"type":"Point","coordinates":[-120.9461997,37.7331305]},"isApproved":true,"items":[],"keys":["Mexican"],"lastUpdated":1547527612590,"name":"La Nita’s Restaurant","phone":"(209) 358-8891","price":"$$","reviewCount":56,"reviewScore":2.5,"meta":{"revision":0,"created":1547531153013,"version":0},"$loki":129},{"_id":"5c3d65bd3525a329e0c04c30","address":"57 W Alexander Ave","location":{"type":"Point","coordinates":[-120.9591311,37.7315517]},"isApproved":true,"items":[],"keys":["Thai"],"lastUpdated":1547527612337,"name":"Thai Star","phone":"(209) 725-1958","price":"$","reviewCount":55,"reviewScore":4,"meta":{"revision":0,"created":1547531153013,"version":0},"$loki":130},{"_id":"5c3d65bd3525a329e0c1aaeb","address":"6333 Oakdale Rd","location":{"type":"Point","coordinates":[-120.9598319,37.7323034]},"isApproved":true,"items":[],"keys":["Mexican"],"lastUpdated":1547527612868,"name":"Taqueria Los Compadres","phone":"(209) 869-8035","price":"$","reviewCount":90,"reviewScore":4,"meta":{"revision":0,"created":1547531153013,"version":0},"$loki":131},{"_id":"5c3d65bd3525a329e0c17334","address":"444 Winton Pkwy","location":{"type":"Point","coordinates":[-120.9310708,37.738156]},"isApproved":true,"items":[],"keys":["Bakeries","Grocery","Delis"],"lastUpdated":1547527612783,"name":"Rancho San Miguel","phone":"(209) 394-6768","price":"$","reviewCount":30,"reviewScore":3.5,"meta":{"revision":0,"created":1547531153013,"version":0},"$loki":132},{"_id":"5c3d65bd3525a329e0c17516","address":"3048 Atchison St","location":{"type":"Point","coordinates":[-120.939781,37.7376076]},"isApproved":true,"items":[],"keys":["Bars","Seafood","Mexican"],"lastUpdated":1547527612790,"name":"El Ranchito Restaurant","phone":"(209) 869-0196","price":"$$","reviewCount":106,"reviewScore":3.5,"meta":{"revision":0,"created":1547531153013,"version":0},"$loki":133},{"_id":"5c3d65bd3525a329e0c0997e","address":"3851 Crowell Rd","location":{"type":"Point","coordinates":[-120.9371419,37.738176]},"isApproved":true,"items":[],"keys":["Pizza","Italian"],"lastUpdated":1547527612463,"name":"Vito’s Ristorante & Pizzeria","phone":"(209) 667-1010","price":"$$","reviewCount":167,"reviewScore":4,"meta":{"revision":0,"created":1547531153013,"version":0},"$loki":134},{"_id":"5c3d65bd3525a329e0c144b6","address":"3401 Dale Rd","location":{"type":"Point","coordinates":[-120.936693,37.7375823]},"isApproved":true,"items":[],"keys":["Barbeque","Burgers","Salad"],"lastUpdated":1547527612714,"name":"Buckhorn BBQ - Modesto","phone":"(209) 857-3905","price":"$$","reviewCount":147,"reviewScore":3.5,"meta":{"revision":0,"created":1547531153013,"version":0},"$loki":135},{"_id":"5c3d65bd3525a329e0c0dcd4","address":"10 Nove Way","location":{"type":"Point","coordinates":[-120.9503887,37.79355]},"isApproved":true,"items":[],"keys":["American (Traditional)","Steakhouses","Burgers"],"lastUpdated":1547527612563,"name":"Eddie’s Grill","phone":"(209) 772-3322","price":"$$","reviewCount":74,"reviewScore":4,"meta":{"revision":0,"created":1547531153013,"version":0},"$loki":136},{"_id":"5c3d65bd3525a329e0c0fe47","address":"2249 Jackson Ave","location":{"type":"Point","coordinates":[-120.984903,37.793686]},"isApproved":true,"items":[],"keys":["Pizza"],"lastUpdated":1547527612609,"name":"D’boni’s Pizza","phone":"(209) 838-1700","price":"$$","reviewCount":78,"reviewScore":4.5,"meta":{"revision":0,"created":1547531153013,"version":0},"$loki":137},{"_id":"5c3d65bd3525a329e0c11637","address":"260 W Main St","location":{"type":"Point","coordinates":[-120.984903,37.793686]},"isApproved":true,"items":[],"keys":["Donuts","Sandwiches","Bubble Tea"],"lastUpdated":1547527612649,"name":"Donut King’s","phone":"(209) 383-5411","price":"$","reviewCount":112,"reviewScore":4.5,"meta":{"revision":0,"created":1547531153013,"version":0},"$loki":138},{"_id":"5c3d65bd3525a329e0c0a6cd","address":"1379 S Lower Sacramento Rd","location":{"type":"Point","coordinates":[-120.9843385,37.794039]},"isApproved":true,"items":[],"keys":["Chicken Wings","Asian Fusion"],"lastUpdated":1547527612481,"name":"Fire Wings - Lodi","phone":"(209) 248-8044","price":"$$","reviewCount":185,"reviewScore":4.5,"meta":{"revision":0,"created":1547531153013,"version":0},"$loki":139},{"_id":"5c3d65bd3525a329e0c17da1","address":"1653 CA-26","location":{"type":"Point","coordinates":[-120.992962,37.796784]},"isApproved":true,"items":[],"keys":["American (Traditional)"],"lastUpdated":1547527612801,"name":"LC Bar and Grill","phone":"","price":"$$","reviewCount":3,"reviewScore":3.5,"meta":{"revision":0,"created":1547531153013,"version":0},"$loki":140},{"_id":"5c3d65bd3525a329e0bff46d","address":"550 S Cherokee Ln","location":{"type":"Point","coordinates":[-120.998812,37.7992985]},"isApproved":true,"items":[],"keys":["Chinese"],"lastUpdated":1547527612216,"name":"Mandarin Villa Express","phone":"(209) 368-1823","price":"$","reviewCount":23,"reviewScore":4.5,"meta":{"revision":0,"created":1547531153013,"version":0},"$loki":141},{"_id":"5c3d65bd3525a329e0c1037f","address":"601 W Lockeford St","location":{"type":"Point","coordinates":[-120.998812,37.7992985]},"isApproved":true,"items":[],"keys":["Breakfast & Brunch","American (Traditional)","Burgers"],"lastUpdated":1547527612617,"name":"California Al’s Restaurant","phone":"(209) 365-1805","price":"$","reviewCount":66,"reviewScore":4,"meta":{"revision":0,"created":1547531153013,"version":0},"$loki":142},{"_id":"5c3d65bd3525a329e0c159d1","address":"1327 W 18th St","location":{"type":"Point","coordinates":[-120.998812,37.7992985]},"isApproved":true,"items":[],"keys":["Vietnamese"],"lastUpdated":1547527612747,"name":"Noahs Vietnamese Fusion Cuisine","phone":"(209) 349-8660","price":"$$","reviewCount":206,"reviewScore":4,"meta":{"revision":0,"created":1547531153013,"version":0},"$loki":143},{"_id":"5c3d65bd3525a329e0c0ada7","address":"4479 S Whiskey Slough Rd","location":{"type":"Point","coordinates":[-120.998174,37.798511]},"isApproved":true,"items":[],"keys":["American (New)","Bars","Korean"],"lastUpdated":1547527612490,"name":"Yongs Delta Tavern","phone":"(209) 467-8747","price":"$","reviewCount":12,"reviewScore":5,"meta":{"revision":0,"created":1547531153013,"version":0},"$loki":144},{"_id":"5c3d65bd3525a329e0c11c9a","address":"2545 Geer Rd","location":{"type":"Point","coordinates":[-120.998174,37.798511]},"isApproved":true,"items":[],"keys":["Persian/Iranian","Middle Eastern"],"lastUpdated":1547527612660,"name":"Nami-No Resturant And Catering","phone":"(209) 632-6611","price":"$$","reviewCount":18,"reviewScore":5,"meta":{"revision":0,"created":1547531153013,"version":0},"$loki":145},{"_id":"5c3d65bd3525a329e0c04270","address":"755 E Yosemite Ave","location":{"type":"Point","coordinates":[-120.9969789,37.7987881]},"isApproved":true,"items":[],"keys":["Breakfast & Brunch","Diners","Burgers"],"lastUpdated":1547527612321,"name":"Bobcat Diner","phone":"(209) 354-4863","price":"$$","reviewCount":223,"reviewScore":3,"meta":{"revision":0,"created":1547531153013,"version":0},"$loki":146},{"_id":"5c3d65bd3525a329e0c07404","address":"416 W Lodi Ave","location":{"type":"Point","coordinates":[-120.9969789,37.7987881]},"isApproved":true,"items":[],"keys":["Diners","American (Traditional)","Breakfast & Brunch"],"lastUpdated":1547527612400,"name":"The Village Coffee Shop","phone":"(209) 368-1929","price":"$","reviewCount":78,"reviewScore":4.5,"meta":{"revision":0,"created":1547531153013,"version":0},"$loki":147},{"_id":"5c3d65bd3525a329e0c07ecd","address":"123 Elm St","location":{"type":"Point","coordinates":[-120.9942158,37.7966647]},"isApproved":true,"items":[],"keys":["Mexican"],"lastUpdated":1547527612417,"name":"Flakos Takos Lodi","phone":"(209) 625-8515","price":"$","reviewCount":153,"reviewScore":4,"meta":{"revision":0,"created":1547531153013,"version":0},"$loki":148},{"_id":"5c3d65bd3525a329e0c18d02","address":"2312 McHenry Ave","location":{"type":"Point","coordinates":[-120.9942158,37.7966647]},"isApproved":true,"items":[],"keys":["Cajun/Creole","Seafood","Vietnamese"],"lastUpdated":1547527612825,"name":"Crawfish Noodle & Grill","phone":"(209) 353-1458","price":"$$","reviewCount":296,"reviewScore":4,"meta":{"revision":0,"created":1547531153013,"version":0},"$loki":149},{"_id":"5c3d65bd3525a329e0c14ab4","address":"10461 Valley Home Rd","location":{"type":"Point","coordinates":[-120.866585,37.790476]},"isApproved":true,"items":[],"keys":["Burgers","Sports Bars"],"lastUpdated":1547527612728,"name":"Shively’s Bar & Grill","phone":"(209) 847-2877","price":"$$","reviewCount":24,"reviewScore":4,"meta":{"revision":0,"created":1547531153013,"version":0},"$loki":150},{"_id":"5c3d65bd3525a329e0c08774","address":"814 N Yosemite Ave","location":{"type":"Point","coordinates":[-120.8536416,37.7753057]},"isApproved":true,"items":[],"keys":["Chinese"],"lastUpdated":1547527612428,"name":"Hunan Villa Restaurant","phone":"(209) 848-0828","price":"$","reviewCount":37,"reviewScore":3.5,"meta":{"revision":0,"created":1547531153013,"version":0},"$loki":151},{"_id":"5c3d65bd3525a329e0c01bc8","address":"7840 West Ln","location":{"type":"Point","coordinates":[-120.8538176,37.7753667]},"isApproved":true,"items":[],"keys":["Chicken Wings","Korean","Asian Fusion"],"lastUpdated":1547527612258,"name":"Bonchon - Stockton","phone":"(209) 473-3888","price":"$$","reviewCount":148,"reviewScore":3.5,"meta":{"revision":0,"created":1547531153013,"version":0},"$loki":152},{"_id":"5c3d65bd3525a329e0c02953","address":"6941 N Winton Way","location":{"type":"Point","coordinates":[-120.8538176,37.7753667]},"isApproved":true,"items":[],"keys":["Bars","Mexican","Breakfast & Brunch"],"lastUpdated":1547527612285,"name":"La Sonrisa Bar & Grill","phone":"(209) 358-7472","price":"$$","reviewCount":15,"reviewScore":4.5,"meta":{"revision":0,"created":1547531153013,"version":0},"$loki":153},{"_id":"5c3d65bd3525a329e0c0a07b","address":"2113 Pacific Ave","location":{"type":"Point","coordinates":[-120.852788,37.7756743]},"isApproved":true,"items":[],"keys":["American (New)","Wine Bars","Live/Raw Food"],"lastUpdated":1547527612472,"name":"Mile Wine Company","phone":"(209) 465-9463","price":"$$","reviewCount":199,"reviewScore":4.5,"meta":{"revision":0,"created":1547531153013,"version":0},"$loki":154},{"_id":"5c3d65bd3525a329e0c13145","address":"","location":{"type":"Point","coordinates":[-120.8537818,37.7758777]},"isApproved":true,"items":[],"keys":["Pop-Up Restaurants"],"lastUpdated":1547527612688,"name":"The Smokin Oakie","phone":"(209) 499-6979","price":"","reviewCount":3,"reviewScore":4.5,"meta":{"revision":0,"created":1547531153013,"version":0},"$loki":155},{"_id":"5c3d65bd3525a329e0c12952","address":"502 N Yosemite Ave","location":{"type":"Point","coordinates":[-120.8505673,37.7714065]},"isApproved":true,"items":[],"keys":["Italian"],"lastUpdated":1547527612679,"name":"Firenze Ristorante","phone":"(209) 322-3320","price":"$$","reviewCount":189,"reviewScore":4,"meta":{"revision":0,"created":1547531153013,"version":0},"$loki":156},{"_id":"5c3d65bd3525a329e0c01eba","address":"763 W F St","location":{"type":"Point","coordinates":[-120.856382,37.762542]},"isApproved":true,"items":[],"keys":["Burgers","American (Traditional)","Sandwiches"],"lastUpdated":1547527612260,"name":"Gillman’s Classic Drive In","phone":"(209) 847-0619","price":"$","reviewCount":47,"reviewScore":4,"meta":{"revision":0,"created":1547531153013,"version":0},"$loki":157},{"_id":"5c3d65bd3525a329e0c0dc7a","address":"2685 Geer Rd","location":{"type":"Point","coordinates":[-120.856382,37.762542]},"isApproved":true,"items":[],"keys":["Barbeque","Sandwiches"],"lastUpdated":1547527612557,"name":"Carnivore’s BBQ Sandwich Shop","phone":"(209) 250-1175","price":"$$","reviewCount":130,"reviewScore":4,"meta":{"revision":0,"created":1547531153013,"version":0},"$loki":158},{"_id":"5c3d65bd3525a329e0c16247","address":"13943 Main St","location":{"type":"Point","coordinates":[-120.859709469909,37.7614552196681]},"isApproved":true,"items":[],"keys":["American (Traditional)","Bars"],"lastUpdated":1547527612763,"name":"Al the Wop’s","phone":"(916) 776-1800","price":"$$","reviewCount":162,"reviewScore":4,"meta":{"revision":0,"created":1547531153013,"version":0},"$loki":159},{"_id":"5c3d65bd3525a329e0c1561e","address":"1142 W Main St","location":{"type":"Point","coordinates":[-120.8623611,37.7595925]},"isApproved":true,"items":[],"keys":["Indian"],"lastUpdated":1547527612746,"name":"Nagina Palace","phone":"(209) 656-1300","price":"$$","reviewCount":186,"reviewScore":4,"meta":{"revision":0,"created":1547531153013,"version":0},"$loki":160},{"_id":"5c3d65bd3525a329e0c16406","address":"100 S Lee Ave","location":{"type":"Point","coordinates":[-120.8652922,37.7586149]},"isApproved":true,"items":[],"keys":["Food Trucks","Mexican"],"lastUpdated":1547527612764,"name":"Tacos Mi Jalisco","phone":"(209) 486-0815","price":"$","reviewCount":35,"reviewScore":4,"meta":{"revision":0,"created":1547531153013,"version":0},"$loki":161},{"_id":"5c3d65bd3525a329e0c18a90","address":"1-39 N Oak Ave","location":{"type":"Point","coordinates":[-120.861647129059,37.7608763520012]},"isApproved":true,"items":[],"keys":["Greek","Mediterranean","Wine Bars"],"lastUpdated":1547527612823,"name":"Papapalloni’s","phone":"(209) 848-1545","price":"$$","reviewCount":13,"reviewScore":4,"meta":{"revision":0,"created":1547531153013,"version":0},"$loki":162},{"_id":"5c3d65bd3525a329e0c0938c","address":"1472 B St","location":{"type":"Point","coordinates":[-120.861711,37.760824]},"isApproved":true,"items":[],"keys":["Chinese"],"lastUpdated":1547527612452,"name":"China Garden Restaurant","phone":"(209) 394-7768","price":"$","reviewCount":27,"reviewScore":3.5,"meta":{"revision":0,"created":1547531153013,"version":0},"$loki":163},{"_id":"5c3d65bd3525a329e0c076b7","address":"156 S Maag Ave","location":{"type":"Point","coordinates":[-120.8305575,37.7708694]},"isApproved":true,"items":[],"keys":["Sushi Bars","Japanese","Noodles"],"lastUpdated":1547527612402,"name":"Makara Japanese Bistro","phone":"(209) 848-3888","price":"$$","reviewCount":103,"reviewScore":3.5,"meta":{"revision":0,"created":1547531153013,"version":0},"$loki":164},{"_id":"5c3d65bd3525a329e0c0474f","address":"111 S Maag Ave","location":{"type":"Point","coordinates":[-120.828607,37.772452]},"isApproved":true,"items":[],"keys":["Chinese"],"lastUpdated":1547527612329,"name":"Bamboo Garden","phone":"(209) 848-4845","price":"$","reviewCount":92,"reviewScore":4,"meta":{"revision":0,"created":1547531153013,"version":0},"$loki":165},{"_id":"5c3d65bd3525a329e0c18647","address":"1570 East F St","location":{"type":"Point","coordinates":[-120.8301103,37.7744574]},"isApproved":true,"items":[],"keys":["Mexican"],"lastUpdated":1547527612815,"name":"Taqueria El Agave","phone":"(209) 845-9447","price":"$","reviewCount":91,"reviewScore":3.5,"meta":{"revision":0,"created":1547531153013,"version":0},"$loki":166},{"_id":"5c3d65bd3525a329e0c04d46","address":"3500 Coffee Rd","location":{"type":"Point","coordinates":[-120.8323928,37.7732349]},"isApproved":true,"items":[],"keys":["Dim Sum"],"lastUpdated":1547527612338,"name":"Dynasty Garden","phone":"(209) 521-8808","price":"$$","reviewCount":366,"reviewScore":3.5,"meta":{"revision":0,"created":1547531153013,"version":0},"$loki":167},{"_id":"5c3d65bd3525a329e0c0b649","address":"1230 E F St","location":{"type":"Point","coordinates":[-120.8370401,37.770659]},"isApproved":true,"items":[],"keys":["Chinese"],"lastUpdated":1547527612500,"name":"Pearl Palace","phone":"(209) 847-8702","price":"$","reviewCount":41,"reviewScore":4,"meta":{"revision":0,"created":1547531153013,"version":0},"$loki":168},{"_id":"5c3d65bd3525a329e0c10d57","address":"1275 E F St","location":{"type":"Point","coordinates":[-120.8367126,37.7689801]},"isApproved":true,"items":[],"keys":["Latin American","Mexican"],"lastUpdated":1547527612633,"name":"Cafe Bravo","phone":"(209) 847-3730","price":"$$","reviewCount":125,"reviewScore":4,"meta":{"revision":0,"created":1547531153013,"version":0},"$loki":169},{"_id":"5c3d65bd3525a329e0c176ea","address":"1005 E F St","location":{"type":"Point","coordinates":[-120.840246240543,37.7683102220116]},"isApproved":true,"items":[],"keys":["Mexican","Food Trucks"],"lastUpdated":1547527612791,"name":"Tacos Del Sol","phone":"(209) 566-6042","price":"$","reviewCount":31,"reviewScore":4,"meta":{"revision":0,"created":1547531153013,"version":0},"$loki":170},{"_id":"5c3d65bd3525a329e0c021f0","address":"2260 E Yosemite Ave","location":{"type":"Point","coordinates":[-120.8493785,37.765867]},"isApproved":true,"items":[],"keys":["American (New)","Delis","Mexican"],"lastUpdated":1547527612276,"name":"Jimmy’s Market","phone":"(209) 239-8870","price":"$","reviewCount":10,"reviewScore":5,"meta":{"revision":0,"created":1547531153013,"version":0},"$loki":171},{"_id":"5c3d65bd3525a329e0c10ec9","address":"1821 Mitchell Rd","location":{"type":"Point","coordinates":[-120.8493785,37.765867]},"isApproved":true,"items":[],"keys":["Mexican"],"lastUpdated":1547527612640,"name":"Little Mexico City","phone":"(209) 284-0157","price":"$","reviewCount":29,"reviewScore":5,"meta":{"revision":0,"created":1547531153013,"version":0},"$loki":172},{"_id":"5c3d65bd3525a329e0bffeb7","address":"4895 East Frontage Rd","location":{"type":"Point","coordinates":[-120.8471545,37.7665947]},"isApproved":true,"items":[],"keys":["Mexican"],"lastUpdated":1547527612222,"name":"Tacos Chapala","phone":"","price":"$","reviewCount":44,"reviewScore":4,"meta":{"revision":0,"created":1547531153013,"version":0},"$loki":173},{"_id":"5c3d65bd3525a329e0c190fd","address":"18945 St Rt 88","location":{"type":"Point","coordinates":[-120.8467092,37.7656738]},"isApproved":true,"items":[],"keys":["Mexican"],"lastUpdated":1547527612832,"name":"Adalbetos","phone":"(209) 759-3999","price":"$","reviewCount":42,"reviewScore":4,"meta":{"revision":0,"created":1547531153013,"version":0},"$loki":174},{"_id":"5c3d65bd3525a329e0c02730","address":"1725 Yosemite Pkwy","location":{"type":"Point","coordinates":[-120.8450941,37.7661408]},"isApproved":true,"items":[],"keys":["Burgers","Fast Food"],"lastUpdated":1547527612284,"name":"Five Star Burgers","phone":"(209) 626-5200","price":"$","reviewCount":36,"reviewScore":4,"meta":{"revision":0,"created":1547531153013,"version":0},"$loki":175},{"_id":"5c3d65bd3525a329e0c03179","address":"400 E F St","location":{"type":"Point","coordinates":[-120.8460133,37.767322]},"isApproved":true,"items":[],"keys":["Chinese"],"lastUpdated":1547527612296,"name":"China House Restaurant","phone":"(209) 847-5100","price":"$$","reviewCount":68,"reviewScore":3.5,"meta":{"revision":0,"created":1547531153013,"version":0},"$loki":176},{"_id":"5c3d65bd3525a329e0c07cc5","address":"6425 W Banner Rd","location":{"type":"Point","coordinates":[-120.8479878,37.7674676]},"isApproved":true,"items":[],"keys":["Mexican"],"lastUpdated":1547527612411,"name":"Tortilla Flats","phone":"(209) 333-9369","price":"","reviewCount":36,"reviewScore":4,"meta":{"revision":0,"created":1547531153013,"version":0},"$loki":177},{"_id":"5c3d65bd3525a329e0c0df17","address":"140 N 3rd Ave","location":{"type":"Point","coordinates":[-120.8483493,37.7669557]},"isApproved":true,"items":[],"keys":["Mexican"],"lastUpdated":1547527612564,"name":"Suzey Belen’s Authentic Mexican Restaurant","phone":"(209) 848-2849","price":"$$","reviewCount":153,"reviewScore":4,"meta":{"revision":0,"created":1547531153013,"version":0},"$loki":178},{"_id":"5c3d65bd3525a329e0c16c1e","address":"74 Main St","location":{"type":"Point","coordinates":[-120.848621986806,37.7671500648475]},"isApproved":true,"items":[],"keys":["Cafes","American (Traditional)","Breakfast & Brunch"],"lastUpdated":1547527612774,"name":"Sina’s Backroads Cafe","phone":"(209) 267-0440","price":"$","reviewCount":54,"reviewScore":4.5,"meta":{"revision":0,"created":1547531153013,"version":0},"$loki":179},{"_id":"5c3d65bd3525a329e0c0a504","address":"201 N 3rd Ave","location":{"type":"Point","coordinates":[-120.8484172,37.7677402]},"isApproved":true,"items":[],"keys":["Steakhouses","Meat Shops"],"lastUpdated":1547527612480,"name":"House of Beef","phone":"(209) 847-5991","price":"$$","reviewCount":220,"reviewScore":3.5,"meta":{"revision":0,"created":1547531153013,"version":0},"$loki":180},{"_id":"5c3d65bd3525a329e0c0f116","address":"526 N Golden State Blvd","location":{"type":"Point","coordinates":[-120.8392617,37.7691064]},"isApproved":true,"items":[],"keys":["Mexican","Coffee & Tea","Latin American"],"lastUpdated":1547527612590,"name":"Cindy’s Restaurant","phone":"(209) 664-1108","price":"$","reviewCount":60,"reviewScore":4.5,"meta":{"revision":0,"created":1547531153013,"version":0},"$loki":181},{"_id":"5c3d65bd3525a329e0c0f2ca","address":"722 W Lodi Ave","location":{"type":"Point","coordinates":[-120.8388554,37.7693182]},"isApproved":true,"items":[],"keys":["Bars","American (New)"],"lastUpdated":1547527612591,"name":"Zin Bistro","phone":"(209) 224-8223","price":"$$","reviewCount":173,"reviewScore":4.5,"meta":{"revision":0,"created":1547531153013,"version":0},"$loki":182},{"_id":"5c3d65bd3525a329e0c0363c","address":"8626 N Lower Sacramento Rd","location":{"type":"Point","coordinates":[-120.8222341,37.7755134]},"isApproved":true,"items":[],"keys":["Thai","Laotian"],"lastUpdated":1547527612303,"name":"Spice It Up!","phone":"","price":"","reviewCount":24,"reviewScore":4,"meta":{"revision":0,"created":1547531153013,"version":0},"$loki":183},{"_id":"5c3d65bd3525a329e0c0ec5a","address":"910 12th St","location":{"type":"Point","coordinates":[-120.8480551,37.637907]},"isApproved":true,"items":[],"keys":["Bars","American (Traditional)","Pizza"],"lastUpdated":1547527612582,"name":"Churchkey","phone":"(209) 422-3128","price":"$$","reviewCount":272,"reviewScore":3.5,"meta":{"revision":0,"created":1547531153013,"version":0},"$loki":184},{"_id":"5c3d65bd3525a329e0c12402","address":"2224 Sante Fe Ave","location":{"type":"Point","coordinates":[-120.870184,37.598303]},"isApproved":true,"items":[],"keys":["Hot Dogs","Fast Food","Burgers"],"lastUpdated":1547527612670,"name":"Sami’s Dogs And Burgers","phone":"(209) 883-9204","price":"$","reviewCount":13,"reviewScore":3.5,"meta":{"revision":0,"created":1547531153013,"version":0},"$loki":185},{"_id":"5c3d65bd3525a329e0c129e6","address":"3900 Pelandale Ave","location":{"type":"Point","coordinates":[-120.867868213052,37.5943631112788]},"isApproved":true,"items":[],"keys":["Indian","Pakistani"],"lastUpdated":1547527612679,"name":"Biryani Express","phone":"(209) 409-8295","price":"$$","reviewCount":88,"reviewScore":4.5,"meta":{"revision":0,"created":1547531153013,"version":0},"$loki":186},{"_id":"5c3d65bd3525a329e0c14ad9","address":"2400 Santa Fe Ave","location":{"type":"Point","coordinates":[-120.86817,37.59659]},"isApproved":true,"items":[],"keys":["Barbeque"],"lastUpdated":1547527612728,"name":"Slick Fork BBQ","phone":"(209) 883-4998","price":"","reviewCount":24,"reviewScore":4.5,"meta":{"revision":0,"created":1547531153013,"version":0},"$loki":187},{"_id":"5c3d65bd3525a329e0c141fc","address":"6916 Hughson Ave","location":{"type":"Point","coordinates":[-120.8670304,37.5961157]},"isApproved":true,"items":[],"keys":["Mexican"],"lastUpdated":1547527612713,"name":"Coco’s Taqueria","phone":"(209) 883-4243","price":"$$","reviewCount":24,"reviewScore":4,"meta":{"revision":0,"created":1547531153013,"version":0},"$loki":188},{"_id":"5c3d65bd3525a329e0c117f6","address":"3113 Crows Landing Rd","location":{"type":"Point","coordinates":[-120.8662494,37.5952963]},"isApproved":true,"items":[],"keys":["Pretzels","Food Stands"],"lastUpdated":1547527612650,"name":"Twisties Pretzels","phone":"","price":"","reviewCount":1,"reviewScore":5,"meta":{"revision":0,"created":1547531153013,"version":0},"$loki":189},{"_id":"5c3d65bd3525a329e0c17220","address":"7313 Hughson Ave","location":{"type":"Point","coordinates":[-120.8613847,37.5969667]},"isApproved":true,"items":[],"keys":["American (Traditional)"],"lastUpdated":1547527612783,"name":"Hamilton’s Cafe","phone":"(209) 883-9202","price":"$","reviewCount":43,"reviewScore":4,"meta":{"revision":0,"created":1547531153013,"version":0},"$loki":190},{"_id":"5c3d65bd3525a329e0c122c3","address":"13135 Lake Rd","location":{"type":"Point","coordinates":[-120.8633985,37.5966154]},"isApproved":true,"items":[],"keys":["Mexican","Food Stands"],"lastUpdated":1547527612669,"name":"Señor Taco and Seafood","phone":"(209) 303-1278","price":"$","reviewCount":7,"reviewScore":4.5,"meta":{"revision":0,"created":1547531153013,"version":0},"$loki":191},{"_id":"5c3d65bd3525a329e0c0de13","address":"4905 Golden State Blvd","location":{"type":"Point","coordinates":[-120.890936,37.5377874]},"isApproved":true,"items":[],"keys":["Sports Bars","Barbeque","Breakfast & Brunch"],"lastUpdated":1547527612563,"name":"Grizzly Rock Cafe","phone":"(209) 250-0086","price":"$$","reviewCount":144,"reviewScore":4,"meta":{"revision":0,"created":1547531153013,"version":0},"$loki":192},{"_id":"5c3d65bd3525a329e0c16b0b","address":"12725 Yosemite Blvd","location":{"type":"Point","coordinates":[-120.760297,37.6387135]},"isApproved":true,"items":[],"keys":["Bars","Seafood"],"lastUpdated":1547527612773,"name":"Nowhere In Particular","phone":"(209) 853-5112","price":"$$","reviewCount":42,"reviewScore":4,"meta":{"revision":0,"created":1547531153013,"version":0},"$loki":193},{"_id":"5c3d65bd3525a329e0c0fb4e","address":"12705 Bentley St","location":{"type":"Point","coordinates":[-120.7604792,37.641537]},"isApproved":true,"items":[],"keys":["Pizza"],"lastUpdated":1547527612601,"name":"Pizza Plus","phone":"(209) 874-1881","price":"$$","reviewCount":22,"reviewScore":3.5,"meta":{"revision":0,"created":1547531153013,"version":0},"$loki":194},{"_id":"5c3d65bd3525a329e0c0a0cb","address":"7154 S McCracken Rd","location":{"type":"Point","coordinates":[-120.759838,37.641082]},"isApproved":true,"items":[],"keys":["Mexican"],"lastUpdated":1547527612472,"name":"Antojitos Mexicanos","phone":"(209) 894-3330","price":"$","reviewCount":131,"reviewScore":4.5,"meta":{"revision":0,"created":1547531153013,"version":0},"$loki":195},{"_id":"5c3d65bd3525a329e0c00e86","address":"3536 Santa Fe Dr Merced Ca 95348","location":{"type":"Point","coordinates":[-120.766691848104,37.63859525054]},"isApproved":true,"items":[],"keys":["American (New)"],"lastUpdated":1547527612237,"name":"GRUB","phone":"(415) 710-0709","price":"","reviewCount":5,"reviewScore":5,"meta":{"revision":0,"created":1547531153013,"version":0},"$loki":196},{"_id":"5c3d65bd3525a329e0c0598d","address":"1026 J St","location":{"type":"Point","coordinates":[-120.7673095,37.6384942]},"isApproved":true,"items":[],"keys":["Japanese"],"lastUpdated":1547527612355,"name":"Tokyo Express","phone":"(209) 529-0950","price":"$","reviewCount":122,"reviewScore":4,"meta":{"revision":0,"created":1547531153013,"version":0},"$loki":197},{"_id":"5c3d65bd3525a329e0c08453","address":"12118 Yosemite Blvd","location":{"type":"Point","coordinates":[-120.7693727,37.6375288]},"isApproved":true,"items":[],"keys":["Mexican"],"lastUpdated":1547527612426,"name":"El Rancho Taqueria","phone":"(209) 874-9514","price":"","reviewCount":11,"reviewScore":4,"meta":{"revision":0,"created":1547531153013,"version":0},"$loki":198},{"_id":"5c3d65bd3525a329e0c0a193","address":"2901 N Tegner Rd","location":{"type":"Point","coordinates":[-120.7674559,37.637846]},"isApproved":true,"items":[],"keys":["Barbeque"],"lastUpdated":1547527612473,"name":"Burt’s Bbq Shak","phone":"(209) 656-1602","price":"$","reviewCount":118,"reviewScore":4.5,"meta":{"revision":0,"created":1547531153013,"version":0},"$loki":199},{"_id":"5c3d65bd3525a329e0c08a8c","address":"12085 Yosemite Blvd","location":{"type":"Point","coordinates":[-120.7710696,37.6385593]},"isApproved":true,"items":[],"keys":["Cafes"],"lastUpdated":1547527612430,"name":"Cathy & Carol’s Coffee Shop","phone":"(209) 874-2282","price":"$","reviewCount":29,"reviewScore":4.5,"meta":{"revision":0,"created":1547531153013,"version":0},"$loki":200},{"_id":"5c3d65bd3525a329e0c0f584","address":"806 Montpelier Rd","location":{"type":"Point","coordinates":[-120.752680613869,37.6234436363107]},"isApproved":true,"items":[],"keys":["Mexican","Food Trucks"],"lastUpdated":1547527612593,"name":"Tacos La Hidalguense","phone":"","price":"","reviewCount":3,"reviewScore":5,"meta":{"revision":0,"created":1547531153013,"version":0},"$loki":201},{"_id":"5c3d65bd3525a329e0c04242","address":"","location":{"type":"Point","coordinates":[-120.79820483923,37.5258140227866]},"isApproved":true,"items":[],"keys":["Chicken Shop"],"lastUpdated":1547527612321,"name":"My Wife’s Kitchen","phone":"(209) 678-1233","price":"$$","reviewCount":1,"reviewScore":5,"meta":{"revision":0,"created":1547531153013,"version":0},"$loki":202},{"_id":"5c3d65bd3525a329e0c0d4a8","address":"","location":{"type":"Point","coordinates":[-120.7968711,37.526323]},"isApproved":true,"items":[],"keys":["Seafood"],"lastUpdated":1547527612547,"name":"Modesto Fish","phone":"(209) 668-9482","price":"","reviewCount":3,"reviewScore":3.5,"meta":{"revision":0,"created":1547531153013,"version":0},"$loki":203},{"_id":"5c3d65bd3525a329e0c09642","address":"4332 Main St","location":{"type":"Point","coordinates":[-120.798667,37.524838]},"isApproved":true,"items":[],"keys":["Burgers","Fast Food"],"lastUpdated":1547527612454,"name":"Oasis Cafe","phone":"(209) 656-9947","price":"$","reviewCount":16,"reviewScore":4.5,"meta":{"revision":0,"created":1547531153013,"version":0},"$loki":204},{"_id":"5c3d65bd3525a329e0c16e35","address":"833 E Main St","location":{"type":"Point","coordinates":[-120.848254524171,37.4757430683699]},"isApproved":true,"items":[],"keys":["American (New)","Italian"],"lastUpdated":1547527612780,"name":"Cotta’s Kitchen","phone":"(209) 664-2004","price":"$$","reviewCount":14,"reviewScore":4.5,"meta":{"revision":0,"created":1547531153013,"version":0},"$loki":205},{"_id":"5c3d65bd3525a329e0c03ac3","address":"1687 Lander Ave","location":{"type":"Point","coordinates":[-120.849871,37.4765556]},"isApproved":true,"items":[],"keys":["Mexican"],"lastUpdated":1547527612312,"name":"Tesoro Fine Mexican Restaurant","phone":"(209) 620-8475","price":"$$","reviewCount":167,"reviewScore":4,"meta":{"revision":0,"created":1547531153013,"version":0},"$loki":206},{"_id":"5c3d65bd3525a329e0c1aeb3","address":"1590 Lander Ave","location":{"type":"Point","coordinates":[-120.8484744,37.4785647]},"isApproved":true,"items":[],"keys":["Mexican","Food Trucks"],"lastUpdated":1547527612876,"name":"Tacos El Pariente","phone":"(209) 531-6397","price":"$","reviewCount":8,"reviewScore":5,"meta":{"revision":0,"created":1547531153013,"version":0},"$loki":207},{"_id":"5c3d65bd3525a329e0c04b7b","address":"184 Bernell Ave","location":{"type":"Point","coordinates":[-120.849344096701,37.4833626041236]},"isApproved":true,"items":[],"keys":["Food Trucks","Mexican"],"lastUpdated":1547527612331,"name":"Tacos El Hidalguense","phone":"(209) 668-9427","price":"$","reviewCount":19,"reviewScore":4.5,"meta":{"revision":0,"created":1547531153013,"version":0},"$loki":208},{"_id":"5c3d65bd3525a329e0c06ac0","address":"3050 Hotel Dr","location":{"type":"Point","coordinates":[-120.8484813,37.4869742]},"isApproved":true,"items":[],"keys":["Sandwiches","Salad","Soup"],"lastUpdated":1547527612380,"name":"Panera Bread","phone":"(209) 632-0336","price":"$","reviewCount":119,"reviewScore":3.5,"meta":{"revision":0,"created":1547531153013,"version":0},"$loki":209},{"_id":"5c3d65bd3525a329e0c16b55","address":"7000 Maze Blvd","location":{"type":"Point","coordinates":[-120.8493112,37.4872825]},"isApproved":true,"items":[],"keys":["Bars","American (Traditional)"],"lastUpdated":1547527612773,"name":"Twin Rivers Saloon","phone":"(209) 575-2551","price":"$$","reviewCount":37,"reviewScore":4.5,"meta":{"revision":0,"created":1547531153013,"version":0},"$loki":210},{"_id":"5c3d65bd3525a329e0c14ac9","address":"2120 Patterson Rd","location":{"type":"Point","coordinates":[-120.8484043,37.4909509]},"isApproved":true,"items":[],"keys":["American (Traditional)"],"lastUpdated":1547527612728,"name":"Perko’s Cafe","phone":"(209) 863-0200","price":"$$","reviewCount":44,"reviewScore":4,"meta":{"revision":0,"created":1547531153013,"version":0},"$loki":211},{"_id":"5c3d65bd3525a329e0c048e8","address":"1408 N Carpenter Rd","location":{"type":"Point","coordinates":[-120.839911848307,37.4896018288895]},"isApproved":true,"items":[],"keys":["Caterers","Delis","Sandwiches"],"lastUpdated":1547527612330,"name":"Scott’s Sub Company","phone":"(209) 577-2343","price":"$","reviewCount":106,"reviewScore":4.5,"meta":{"revision":0,"created":1547531153013,"version":0},"$loki":212},{"_id":"5c3d65bd3525a329e0c0af6e","address":"2922 Geer Rd","location":{"type":"Point","coordinates":[-120.841107094987,37.4921047588057]},"isApproved":true,"items":[],"keys":["Juice Bars & Smoothies","Sandwiches"],"lastUpdated":1547527612491,"name":"Green Grub","phone":"(209) 667-4131","price":"$$","reviewCount":266,"reviewScore":3,"meta":{"revision":0,"created":1547531153013,"version":0},"$loki":213},{"_id":"5c3d65bd3525a329e0c00941","address":"601 E Main St","location":{"type":"Point","coordinates":[-120.8422452,37.4976416]},"isApproved":true,"items":[],"keys":["Creperies","Wine Bars"],"lastUpdated":1547527612229,"name":"Loza Wine & Crepes","phone":"(209) 652-5839","price":"$$","reviewCount":142,"reviewScore":4,"meta":{"revision":0,"created":1547531153013,"version":0},"$loki":214},{"_id":"5c3d65bd3525a329e0c166b0","address":"12 4th St","location":{"type":"Point","coordinates":[-120.8437258,37.4965424]},"isApproved":true,"items":[],"keys":["Mexican"],"lastUpdated":1547527612765,"name":"El Sombrero","phone":"(209) 568-1390","price":"$","reviewCount":12,"reviewScore":5,"meta":{"revision":0,"created":1547531153013,"version":0},"$loki":215},{"_id":"5c3d65bd3525a329e0c0c231","address":"428 E Main St","location":{"type":"Point","coordinates":[-120.8433913,37.496235]},"isApproved":true,"items":[],"keys":["Pizza","Breakfast & Brunch","Bakeries"],"lastUpdated":1547527612517,"name":"Crust & Crumb","phone":"(209) 850-9262","price":"$$","reviewCount":217,"reviewScore":4.5,"meta":{"revision":0,"created":1547531153013,"version":0},"$loki":216},{"_id":"5c3d65bd3525a329e0c040c4","address":"240 S Center St","location":{"type":"Point","coordinates":[-120.8436473,37.4937982]},"isApproved":true,"items":[],"keys":["Food Trucks","Mexican"],"lastUpdated":1547527612320,"name":"Titos Tacos & Grill","phone":"(209) 485-8609","price":"","reviewCount":4,"reviewScore":5,"meta":{"revision":0,"created":1547531153013,"version":0},"$loki":217},{"_id":"5c3d65bd3525a329e0c03727","address":"300 S Golden State","location":{"type":"Point","coordinates":[-120.843709542246,37.4928581107121]},"isApproved":true,"items":[],"keys":["Food Trucks","Mexican"],"lastUpdated":1547527612304,"name":"Tacos Mexico","phone":"(209) 809-6212","price":"$","reviewCount":10,"reviewScore":4.5,"meta":{"revision":0,"created":1547531153013,"version":0},"$loki":218},{"_id":"5c3d65bd3525a329e0c152fe","address":"217 S Golden State Blvd","location":{"type":"Point","coordinates":[-120.845118351281,37.4931899482231]},"isApproved":true,"items":[],"keys":["Pizza","Salad","Sandwiches"],"lastUpdated":1547527612738,"name":"Kraving Kebab Pizza","phone":"(209) 524-1985","price":"$$","reviewCount":172,"reviewScore":4.5,"meta":{"revision":0,"created":1547531153013,"version":0},"$loki":219},{"_id":"5c3d65bd3525a329e0c152df","address":"226 S Golden State Blvd","location":{"type":"Point","coordinates":[-120.8443072,37.493567]},"isApproved":true,"items":[],"keys":["Mexican"],"lastUpdated":1547527612738,"name":"La Morenita Restaurant","phone":"(209) 632-7000","price":"$$","reviewCount":91,"reviewScore":3.5,"meta":{"revision":0,"created":1547531153013,"version":0},"$loki":220},{"_id":"5c3d65bd3525a329e0c13399","address":"10 E Main St","location":{"type":"Point","coordinates":[-120.8460041,37.4938367]},"isApproved":true,"items":[],"keys":["Pizza"],"lastUpdated":1547527612689,"name":"Traveling Pizza","phone":"(209) 648-2311","price":"$$","reviewCount":8,"reviewScore":5,"meta":{"revision":0,"created":1547531153013,"version":0},"$loki":221},{"_id":"5c3d65bd3525a329e0c0a26e","address":"2600 Mitchell Rd","location":{"type":"Point","coordinates":[-120.8461035,37.4930993]},"isApproved":true,"items":[],"keys":["Mexican"],"lastUpdated":1547527612473,"name":"Mi Lindo Culiacan","phone":"(209) 567-2309","price":"$","reviewCount":22,"reviewScore":4,"meta":{"revision":0,"created":1547531153013,"version":0},"$loki":222},{"_id":"5c3d65bd3525a329e0c04091","address":"235 W Main St","location":{"type":"Point","coordinates":[-120.8487616,37.4929275]},"isApproved":true,"items":[],"keys":["Thai"],"lastUpdated":1547527612320,"name":"Ju Ju Thai Cuisine","phone":"(209) 815-8424","price":"$$","reviewCount":231,"reviewScore":4.5,"meta":{"revision":0,"created":1547531153013,"version":0},"$loki":223},{"_id":"5c3d65bd3525a329e0c0c6eb","address":"28 Lander Ave","location":{"type":"Point","coordinates":[-120.84839630127,37.4930229187012]},"isApproved":true,"items":[],"keys":["Mexican"],"lastUpdated":1547527612525,"name":"Rancho Grande","phone":"(209) 664-9346","price":"$","reviewCount":22,"reviewScore":4,"meta":{"revision":0,"created":1547531153013,"version":0},"$loki":224},{"_id":"5c3d65bd3525a329e0c19dd7","address":"2600 Geer Rd","location":{"type":"Point","coordinates":[-120.847861,37.493065]},"isApproved":true,"items":[],"keys":["Seafood","Steakhouses","American (Traditional)"],"lastUpdated":1547527612851,"name":"Table 26","phone":"(209) 668-2300","price":"$$","reviewCount":448,"reviewScore":4,"meta":{"revision":0,"created":1547531153013,"version":0},"$loki":225},{"_id":"5c3d65bd3525a329e0c0f46a","address":"433 W Main St","location":{"type":"Point","coordinates":[-120.847583392417,37.4933118556847]},"isApproved":true,"items":[],"keys":["Pizza"],"lastUpdated":1547527612592,"name":"Little Oven Pizza","phone":"(209) 233-9829","price":"$","reviewCount":166,"reviewScore":4.5,"meta":{"revision":0,"created":1547531153013,"version":0},"$loki":226},{"_id":"5c3d65bd3525a329e0c07503","address":"1075 Sperry Ave","location":{"type":"Point","coordinates":[-120.8471582,37.4935778]},"isApproved":true,"items":[],"keys":["Chicken Wings","Burgers","Sports Bars"],"lastUpdated":1547527612400,"name":"Shooters Wings & Things","phone":"(209) 895-6000","price":"$","reviewCount":64,"reviewScore":3,"meta":{"revision":0,"created":1547531153013,"version":0},"$loki":227},{"_id":"5c3d65bd3525a329e0c0e398","address":"","location":{"type":"Point","coordinates":[-120.8465941,37.4946568]},"isApproved":true,"items":[],"keys":["Mexican","Food Trucks"],"lastUpdated":1547527612572,"name":"Elvia’s Taco Truck","phone":"(209) 626-0654","price":"$","reviewCount":47,"reviewScore":4,"meta":{"revision":0,"created":1547531153013,"version":0},"$loki":228},{"_id":"5c3d65bd3525a329e0c13d96","address":"111 N Golden State Blvd","location":{"type":"Point","coordinates":[-120.8465473,37.494802]},"isApproved":true,"items":[],"keys":["American (Traditional)"],"lastUpdated":1547527612706,"name":"Latif’s","phone":"(209) 634-5351","price":"$$","reviewCount":92,"reviewScore":3.5,"meta":{"revision":0,"created":1547531153013,"version":0},"$loki":229},{"_id":"5c3d65bd3525a329e0c03221","address":"120 N Center St","location":{"type":"Point","coordinates":[-120.8458119,37.495393]},"isApproved":true,"items":[],"keys":["Steakhouses","Bars","American (Traditional)"],"lastUpdated":1547527612296,"name":"Center Street Grill","phone":"(209) 634-5100","price":"$$","reviewCount":114,"reviewScore":4,"meta":{"revision":0,"created":1547531153013,"version":0},"$loki":230},{"_id":"5c3d65bd3525a329e0c1a98b","address":"234 E Main St","location":{"type":"Point","coordinates":[-120.8451745,37.4950387]},"isApproved":true,"items":[],"keys":["American (New)","Burgers","Sandwiches"],"lastUpdated":1547527612868,"name":"Bistro 234","phone":"(209) 668-4234","price":"$$","reviewCount":182,"reviewScore":3.5,"meta":{"revision":0,"created":1547531153013,"version":0},"$loki":231},{"_id":"5c3d65bd3525a329e0c131b2","address":"310 E Main St","location":{"type":"Point","coordinates":[-120.8443763,37.4954294]},"isApproved":true,"items":[],"keys":["Mexican","Breakfast & Brunch"],"lastUpdated":1547527612689,"name":"La Mo","phone":"(209) 632-6655","price":"$$","reviewCount":116,"reviewScore":4.5,"meta":{"revision":0,"created":1547531153013,"version":0},"$loki":232},{"_id":"5c3d65bd3525a329e0c0eef0","address":"15026 Carmen Way","location":{"type":"Point","coordinates":[-120.8448474,37.4971631]},"isApproved":true,"items":[],"keys":["Chinese"],"lastUpdated":1547527612583,"name":"Golden Lion Chinese Restaurant","phone":"(209) 892-8328","price":"$$","reviewCount":105,"reviewScore":3.5,"meta":{"revision":0,"created":1547531153013,"version":0},"$loki":233},{"_id":"5c3d65bd3525a329e0c142e5","address":"216 N Golden State Blvd","location":{"type":"Point","coordinates":[-120.847457694948,37.4964776248152]},"isApproved":true,"items":[],"keys":["Mexican"],"lastUpdated":1547527612713,"name":"Mario’s Authentic Tacos","phone":"(209) 345-9539","price":"$","reviewCount":9,"reviewScore":4.5,"meta":{"revision":0,"created":1547531153013,"version":0},"$loki":234},{"_id":"5c3d65bd3525a329e0c0c0ed","address":"371 N Golden State Blvd","location":{"type":"Point","coordinates":[-120.8481224,37.4965962]},"isApproved":true,"items":[],"keys":["Chinese","Japanese"],"lastUpdated":1547527612516,"name":"Asian cafe","phone":"(209) 632-0451","price":"","reviewCount":1,"reviewScore":5,"meta":{"revision":0,"created":1547531153013,"version":0},"$loki":235},{"_id":"5c3d65bd3525a329e0c0d777","address":"503 N Golden State Blvd","location":{"type":"Point","coordinates":[-120.8490551,37.4974385]},"isApproved":true,"items":[],"keys":["Vietnamese","Thai","Laotian"],"lastUpdated":1547527612554,"name":"Pho 7 Anh","phone":"(209) 620-8022","price":"$","reviewCount":195,"reviewScore":4,"meta":{"revision":0,"created":1547531153013,"version":0},"$loki":236},{"_id":"5c3d65bd3525a329e0c099d7","address":"661 W Main St","location":{"type":"Point","coordinates":[-120.8491245,37.4992575]},"isApproved":true,"items":[],"keys":["Breakfast & Brunch","Cafes"],"lastUpdated":1547527612463,"name":"Cinema Cafe","phone":"(209) 722-2811","price":"$","reviewCount":233,"reviewScore":4,"meta":{"revision":0,"created":1547531153013,"version":0},"$loki":237},{"_id":"5c3d65bd3525a329e0c0c058","address":"909 W 16th St","location":{"type":"Point","coordinates":[-120.839036,37.50003]},"isApproved":true,"items":[],"keys":["Thai"],"lastUpdated":1547527612516,"name":"New Thai Cuisine","phone":"(209) 726-1048","price":"$$","reviewCount":279,"reviewScore":4,"meta":{"revision":0,"created":1547531153013,"version":0},"$loki":238},{"_id":"5c3d65bd3525a329e0c038e1","address":"1221 Broadway Ave","location":{"type":"Point","coordinates":[-120.8498628,37.5007566]},"isApproved":true,"items":[],"keys":["Breakfast & Brunch"],"lastUpdated":1547527612310,"name":"Granny’s Pantry","phone":"(209) 357-0807","price":"$$","reviewCount":70,"reviewScore":4,"meta":{"revision":0,"created":1547531153013,"version":0},"$loki":239},{"_id":"5c3d65bd3525a329e0c07366","address":"516 W 18th St","location":{"type":"Point","coordinates":[-120.8498628,37.5007566]},"isApproved":true,"items":[],"keys":["Sandwiches","Bakeries","Breakfast & Brunch"],"lastUpdated":1547527612399,"name":"Toni’s Courtyard Cafe & Bakery","phone":"(209) 384-2580","price":"$$","reviewCount":419,"reviewScore":4.5,"meta":{"revision":0,"created":1547531153013,"version":0},"$loki":240},{"_id":"5c3d65bd3525a329e0c0981f","address":"200 W Main St","location":{"type":"Point","coordinates":[-120.8498628,37.5007566]},"isApproved":true,"items":[],"keys":["American (New)","Brewpubs"],"lastUpdated":1547527612461,"name":"Dust Bowl Downtown Taproom","phone":"(209) 250-2042","price":"$$","reviewCount":595,"reviewScore":4,"meta":{"revision":0,"created":1547531153013,"version":0},"$loki":241},{"_id":"5c3d65bd3525a329e0c12cdd","address":"940 11th St","location":{"type":"Point","coordinates":[-120.8498628,37.5007566]},"isApproved":true,"items":[],"keys":["American (Traditional)"],"lastUpdated":1547527612680,"name":"Barkin’ Dog Grill","phone":"(209) 572-2341","price":"$$","reviewCount":183,"reviewScore":4,"meta":{"revision":0,"created":1547531153013,"version":0},"$loki":242},{"_id":"5c3d65bd3525a329e0c15ae5","address":"1102 Geer Rd","location":{"type":"Point","coordinates":[-120.8486123,37.5035526]},"isApproved":true,"items":[],"keys":["Italian"],"lastUpdated":1547527612753,"name":"Villa Napoli","phone":"(209) 667-1800","price":"$$","reviewCount":276,"reviewScore":4.5,"meta":{"revision":0,"created":1547531153013,"version":0},"$loki":243},{"_id":"5c3d65bd3525a329e0c04158","address":"1801 Colorado Ave","location":{"type":"Point","coordinates":[-120.836455212967,37.5092653565697]},"isApproved":true,"items":[],"keys":["Italian"],"lastUpdated":1547527612320,"name":"Toscana’s Ristorante","phone":"(209) 216-3555","price":"$$","reviewCount":101,"reviewScore":4,"meta":{"revision":0,"created":1547531153013,"version":0},"$loki":244},{"_id":"5c3d65bd3525a329e0c160d1","address":"2054 E Canal Dr","location":{"type":"Point","coordinates":[-120.824626253723,37.4999106124658]},"isApproved":true,"items":[],"keys":["Ice Cream & Frozen Yogurt","Burgers","Patisserie/Cake Shop"],"lastUpdated":1547527612757,"name":"Lulu’s Ice Cream Parlor","phone":"(209) 667-5858","price":"$","reviewCount":99,"reviewScore":3.5,"meta":{"revision":0,"created":1547531153013,"version":0},"$loki":245},{"_id":"5c3d65bd3525a329e0c0c54c","address":"3191 Geer Rd","location":{"type":"Point","coordinates":[-120.8493899,37.5215002]},"isApproved":true,"items":[],"keys":["Cajun/Creole"],"lastUpdated":1547527612524,"name":"Huckleberry’s","phone":"(209) 634-4253","price":"$$","reviewCount":104,"reviewScore":3.5,"meta":{"revision":0,"created":1547531153013,"version":0},"$loki":246},{"_id":"5c3d65bd3525a329e0c01a25","address":"118 E Monte Vista Ave","location":{"type":"Point","coordinates":[-120.8474753,37.5217488]},"isApproved":true,"items":[],"keys":["Mexican"],"lastUpdated":1547527612257,"name":"Javi’s Turlock Mexican Restaurant","phone":"(209) 634-9463","price":"$$","reviewCount":58,"reviewScore":3.5,"meta":{"revision":0,"created":1547531153013,"version":0},"$loki":247},{"_id":"5c3d65bd3525a329e0c0e20d","address":"2985 Renzo Ln","location":{"type":"Point","coordinates":[-120.8484155,37.5169237]},"isApproved":true,"items":[],"keys":["Barbeque","Sports Bars","American (Traditional)"],"lastUpdated":1547527612565,"name":"Apricot Wood California BBQ","phone":"(209) 895-7675","price":"$$","reviewCount":395,"reviewScore":4,"meta":{"revision":0,"created":1547531153013,"version":0},"$loki":248},{"_id":"5c3d65bd3525a329e0c055fc","address":"2251 Geer Rd","location":{"type":"Point","coordinates":[-120.8502966,37.5136626]},"isApproved":true,"items":[],"keys":["Italian"],"lastUpdated":1547527612348,"name":"Angelini’s Italian Restaurant","phone":"(209) 667-6644","price":"$$","reviewCount":104,"reviewScore":3.5,"meta":{"revision":0,"created":1547531153013,"version":0},"$loki":249},{"_id":"5c3d65bd3525a329e0c14b50","address":"2317 Geer Rd","location":{"type":"Point","coordinates":[-120.8507468,37.5142148]},"isApproved":true,"items":[],"keys":["American (Traditional)","Burgers","Sports Bars"],"lastUpdated":1547527612728,"name":"Jams 209 Sports Bar and Grill","phone":"(209) 634-5267","price":"$$","reviewCount":72,"reviewScore":4,"meta":{"revision":0,"created":1547531153013,"version":0},"$loki":250},{"_id":"5c3d65bd3525a329e0c05ffb","address":"2761 Patterson Rd","location":{"type":"Point","coordinates":[-120.850273,37.515637]},"isApproved":true,"items":[],"keys":["Food Stands","American (Traditional)"],"lastUpdated":1547527612368,"name":"Oaxacan Tamales","phone":"(209) 225-3217","price":"","reviewCount":12,"reviewScore":4.5,"meta":{"revision":0,"created":1547531153013,"version":0},"$loki":251},{"_id":"5c3d65bd3525a329e0c15e10","address":"2669 Geer Rd","location":{"type":"Point","coordinates":[-120.8499617,37.5174046]},"isApproved":true,"items":[],"keys":["Mexican"],"lastUpdated":1547527612755,"name":"Mariachi’s Mexican Restaurant","phone":"(209) 632-7662","price":"$$","reviewCount":98,"reviewScore":3.5,"meta":{"revision":0,"created":1547531153013,"version":0},"$loki":252},{"_id":"5c3d65bd3525a329e0c04e46","address":"1617 Bellevue Rd","location":{"type":"Point","coordinates":[-120.849939,37.51769]},"isApproved":true,"items":[],"keys":["Tacos"],"lastUpdated":1547527612338,"name":"Taqueria El Huarache","phone":"(209) 812-6299","price":"","reviewCount":4,"reviewScore":4.5,"meta":{"revision":0,"created":1547531153013,"version":0},"$loki":253},{"_id":"5c3d65bd3525a329e0c18ad0","address":"10 E Main St","location":{"type":"Point","coordinates":[-120.872823,37.5076604]},"isApproved":true,"items":[],"keys":["American (New)","Cocktail Bars","Beer Bar"],"lastUpdated":1547527612823,"name":"10 East Kitchen & Taphouse","phone":"(209) 669-1010","price":"$$","reviewCount":496,"reviewScore":4,"meta":{"revision":0,"created":1547531153013,"version":0},"$loki":254},{"_id":"5c3d65bd3525a329e0c0cf77","address":"409 E Olive Ave","location":{"type":"Point","coordinates":[-120.867475815327,37.5134779125238]},"isApproved":true,"items":[],"keys":["Mexican","Bars"],"lastUpdated":1547527612539,"name":"El Jardin","phone":"(209) 632-0932","price":"$$","reviewCount":165,"reviewScore":3.5,"meta":{"revision":0,"created":1547531153013,"version":0},"$loki":255},{"_id":"5c3d65bd3525a329e0c0766c","address":"2618 N Golden State Blvd","location":{"type":"Point","coordinates":[-120.8706188,37.5168955]},