{"filename":"-122-47.25","collections":[{"name":"restaurants","data":[{"_id":"5c3d65bd3525a329e0c0f3a7","address":"32901 1st Ave S","location":{"type":"Point","coordinates":[-122.24818,47.511393]},"isApproved":true,"items":[],"keys":["Coffee & Tea","Art Classes","Sandwiches"],"lastUpdated":1547527612592,"name":"B&R Espresso Bar","phone":"(253) 242-7349","price":"$","reviewCount":45,"reviewScore":4,"meta":{"revision":0,"created":1547531154958,"version":0},"$loki":1},{"_id":"5c3d65bd3525a329e0c009f7","address":"800 N 10th Pl","location":{"type":"Point","coordinates":[-122.2484986,47.4973296]},"isApproved":true,"items":[],"keys":["Wine Bars","American (New)"],"lastUpdated":1547527612229,"name":"Vino At The Landing","phone":"(425) 282-0382","price":"$$","reviewCount":261,"reviewScore":4,"meta":{"revision":0,"created":1547531154958,"version":0},"$loki":2},{"_id":"5c3d65bd3525a329e0c137d5","address":"4306 Pacific Hwy E","location":{"type":"Point","coordinates":[-122.239845,47.490643]},"isApproved":true,"items":[],"keys":["Burgers","Fast Food","Ice Cream & Frozen Yogurt"],"lastUpdated":1547527612697,"name":"Pick-Quick Drive In","phone":"(253) 922-5599","price":"$","reviewCount":271,"reviewScore":4,"meta":{"revision":0,"created":1547531154958,"version":0},"$loki":3},{"_id":"5c3d65bd3525a329e0c03fa1","address":"786 Commerce St","location":{"type":"Point","coordinates":[-122.204573,47.4803659]},"isApproved":true,"items":[],"keys":["Cafes"],"lastUpdated":1547527612319,"name":"Diloreto’s Cafe","phone":"(253) 238-1713","price":"$","reviewCount":34,"reviewScore":4.5,"meta":{"revision":0,"created":1547531154958,"version":0},"$loki":4},{"_id":"5c3d65bd3525a329e0c0e0cd","address":"20034 International Blvd","location":{"type":"Point","coordinates":[-122.2052097,47.4798545]},"isApproved":true,"items":[],"keys":["Mexican"],"lastUpdated":1547527612565,"name":"Taqueria Jacarandas","phone":"(206) 824-1263","price":"$","reviewCount":61,"reviewScore":4,"meta":{"revision":0,"created":1547531154958,"version":0},"$loki":5},{"_id":"5c3d65bd3525a329e0c1111c","address":"1734 Central Ave S","location":{"type":"Point","coordinates":[-122.2044916,47.4797621]},"isApproved":true,"items":[],"keys":["Bars","Thai","Laotian"],"lastUpdated":1547527612641,"name":"Bahn Sip Song","phone":"(253) 277-8178","price":"$$","reviewCount":69,"reviewScore":4.5,"meta":{"revision":0,"created":1547531154958,"version":0},"$loki":6},{"_id":"5c3d65bd3525a329e0c0f939","address":"5605 112th St E","location":{"type":"Point","coordinates":[-122.205370331468,47.4794184431615]},"isApproved":true,"items":[],"keys":["Japanese"],"lastUpdated":1547527612600,"name":"Teriyaki Town","phone":"(253) 445-2443","price":"$","reviewCount":33,"reviewScore":4,"meta":{"revision":0,"created":1547531154958,"version":0},"$loki":7},{"_id":"5c3d65bd3525a329e0c0b1f0","address":"31525 Pete Von Reichbauer Way S","location":{"type":"Point","coordinates":[-122.2063921,47.4794195]},"isApproved":true,"items":[],"keys":["Korean","Barbeque"],"lastUpdated":1547527612497,"name":"Palace Korean Bar & Grill","phone":"(253) 529-2242","price":"$$","reviewCount":412,"reviewScore":3,"meta":{"revision":0,"created":1547531154958,"version":0},"$loki":8},{"_id":"5c3d65bd3525a329e0c09a6d","address":"2800 Southcenter Mall","location":{"type":"Point","coordinates":[-122.2056305,47.4787909]},"isApproved":true,"items":[],"keys":["Asian Fusion"],"lastUpdated":1547527612463,"name":"IJ Sushi Burrito","phone":"","price":"","reviewCount":21,"reviewScore":4,"meta":{"revision":0,"created":1547531154958,"version":0},"$loki":9},{"_id":"5c3d65bd3525a329e0c058e7","address":"4301 S Meridian","location":{"type":"Point","coordinates":[-122.2094127,47.4813848]},"isApproved":true,"items":[],"keys":["Pizza","Bars","American (Traditional)"],"lastUpdated":1547527612355,"name":"The Rock Wood Fired Pizza","phone":"(253) 286-2402","price":"$$","reviewCount":254,"reviewScore":4,"meta":{"revision":0,"created":1547531154958,"version":0},"$loki":10},{"_id":"5c3d65bd3525a329e0c12b6b","address":"23636 Witte Rd SE","location":{"type":"Point","coordinates":[-122.213538,47.479982]},"isApproved":true,"items":[],"keys":["Burgers","Diners","Japanese"],"lastUpdated":1547527612680,"name":"Meal Time","phone":"(425) 432-5630","price":"$","reviewCount":52,"reviewScore":3.5,"meta":{"revision":0,"created":1547531154958,"version":0},"$loki":11},{"_id":"5c3d65bd3525a329e0c0b9da","address":"3709 S G St","location":{"type":"Point","coordinates":[-122.2100145,47.4794561]},"isApproved":true,"items":[],"keys":["Barbeque","Soul Food"],"lastUpdated":1547527612507,"name":"Uncle Thurms Soul Food","phone":"(253) 475-1881","price":"$$","reviewCount":120,"reviewScore":3.5,"meta":{"revision":0,"created":1547531154958,"version":0},"$loki":12},{"_id":"5c3d65bd3525a329e0c0a78a","address":"959 E Main St","location":{"type":"Point","coordinates":[-122.209139,47.4793469]},"isApproved":true,"items":[],"keys":["Pizza","Sandwiches","Greek"],"lastUpdated":1547527612481,"name":"Athens Pizza & Pasta","phone":"(253) 939-7444","price":"$$","reviewCount":126,"reviewScore":3.5,"meta":{"revision":0,"created":1547531154958,"version":0},"$loki":13},{"_id":"5c3d65bd3525a329e0c185ab","address":"16908 SE 269th Pl","location":{"type":"Point","coordinates":[-122.2086921,47.4795463]},"isApproved":true,"items":[],"keys":["Sushi Bars","Japanese"],"lastUpdated":1547527612815,"name":"Trapper’s Sushi - Covington","phone":"(253) 277-0926","price":"$$","reviewCount":337,"reviewScore":3,"meta":{"revision":0,"created":1547531154958,"version":0},"$loki":14},{"_id":"5c3d65bd3525a329e0c18780","address":"29500 Pacific Hwy S","location":{"type":"Point","coordinates":[-122.2085164,47.4793502]},"isApproved":true,"items":[],"keys":["Latin American","Honduran"],"lastUpdated":1547527612821,"name":"Mi Bella Honduras Restaurant","phone":"(206) 592-6922","price":"$$","reviewCount":34,"reviewScore":4.5,"meta":{"revision":0,"created":1547531154958,"version":0},"$loki":15},{"_id":"5c3d65bd3525a329e0c045f2","address":"12912 SE Kent Kangley Rd","location":{"type":"Point","coordinates":[-122.213779567459,47.4765849842386]},"isApproved":true,"items":[],"keys":["Thai","Vietnamese"],"lastUpdated":1547527612328,"name":"Boonmar Pho & Thai Cuisine","phone":"(253) 630-0284","price":"$","reviewCount":119,"reviewScore":3.5,"meta":{"revision":0,"created":1547531154958,"version":0},"$loki":16},{"_id":"5c3d65bd3525a329e0c0df66","address":"1201 Main St","location":{"type":"Point","coordinates":[-122.2177302,47.481395]},"isApproved":true,"items":[],"keys":["Coffee & Tea","Creperies","Breakfast & Brunch"],"lastUpdated":1547527612564,"name":"Craft.19 Espresso + Creperie","phone":"","price":"$$","reviewCount":156,"reviewScore":4,"meta":{"revision":0,"created":1547531154958,"version":0},"$loki":17},{"_id":"5c3d65bd3525a329e0c0889a","address":"1306 Union Ave NE","location":{"type":"Point","coordinates":[-122.2159444,47.4842828]},"isApproved":true,"items":[],"keys":["Chinese"],"lastUpdated":1547527612428,"name":"Red Bamboo Bistro","phone":"(425) 255-3612","price":"$$","reviewCount":75,"reviewScore":4,"meta":{"revision":0,"created":1547531154958,"version":0},"$loki":18},{"_id":"5c3d65bd3525a329e0c0b8d1","address":"364 Renton Center Way SW","location":{"type":"Point","coordinates":[-122.218807592939,47.4781277271709]},"isApproved":true,"items":[],"keys":["Vietnamese"],"lastUpdated":1547527612507,"name":"Pho Box","phone":"(425) 291-7465","price":"$","reviewCount":56,"reviewScore":4,"meta":{"revision":0,"created":1547531154958,"version":0},"$loki":19},{"_id":"5c3d65bd3525a329e0c16c75","address":"23826 104th Ave SE","location":{"type":"Point","coordinates":[-122.218146,47.4764528]},"isApproved":true,"items":[],"keys":["Steakhouses","Karaoke","American (Traditional)"],"lastUpdated":1547527612774,"name":"Golden Steer","phone":"(253) 852-1144","price":"$$","reviewCount":182,"reviewScore":3,"meta":{"revision":0,"created":1547531154958,"version":0},"$loki":20},{"_id":"5c3d65bd3525a329e0c1a19c","address":"3310 Auburn Way N","location":{"type":"Point","coordinates":[-122.2534754,47.468922]},"isApproved":true,"items":[],"keys":["Salvadoran"],"lastUpdated":1547527612857,"name":"Cielo Restaurant","phone":"(253) 397-4946","price":"","reviewCount":25,"reviewScore":4.5,"meta":{"revision":0,"created":1547531154958,"version":0},"$loki":21},{"_id":"5c3d65bd3525a329e0c06584","address":"31830 Pacific Hwy S","location":{"type":"Point","coordinates":[-122.2651917,47.4812114]},"isApproved":true,"items":[],"keys":["Vietnamese"],"lastUpdated":1547527612377,"name":"Linh Son Restaurant","phone":"(253) 945-6294","price":"$","reviewCount":162,"reviewScore":3.5,"meta":{"revision":0,"created":1547531154958,"version":0},"$loki":22},{"_id":"5c3d65bd3525a329e0c0e6c3","address":"717 SW 148th St","location":{"type":"Point","coordinates":[-122.2582489,47.4870817]},"isApproved":true,"items":[],"keys":["Delis","Meat Shops"],"lastUpdated":1547527612574,"name":"Hans’ Sausage & Delicatessen","phone":"(206) 244-4978","price":"$","reviewCount":79,"reviewScore":4.5,"meta":{"revision":0,"created":1547531154958,"version":0},"$loki":23},{"_id":"5c3d65bd3525a329e0c0931e","address":"216 SW 153rd St","location":{"type":"Point","coordinates":[-122.285433076322,47.4909752326779]},"isApproved":true,"items":[],"keys":["Pubs","American (New)","Vegan"],"lastUpdated":1547527612452,"name":"Pit Stop Taproom & Pub","phone":"(206) 420-8412","price":"$$","reviewCount":144,"reviewScore":4.5,"meta":{"revision":0,"created":1547531154958,"version":0},"$loki":24},{"_id":"5c3d65bd3525a329e0c04708","address":"24020 104th Ave SE","location":{"type":"Point","coordinates":[-122.283564642254,47.4778352904466]},"isApproved":true,"items":[],"keys":["Mexican"],"lastUpdated":1547527612329,"name":"Aguacateros","phone":"(253) 854-2148","price":"$","reviewCount":58,"reviewScore":4,"meta":{"revision":0,"created":1547531154958,"version":0},"$loki":25},{"_id":"5c3d65bd3525a329e0c0b762","address":"13614 Ambaum Blvd SW","location":{"type":"Point","coordinates":[-122.2838995,47.4790677]},"isApproved":true,"items":[],"keys":["Food Stands"],"lastUpdated":1547527612505,"name":"Best Roasted Corn","phone":"(206) 307-7724","price":"","reviewCount":3,"reviewScore":5,"meta":{"revision":0,"created":1547531154958,"version":0},"$loki":26},{"_id":"5c3d65bd3525a329e0c02561","address":"22125 SE 237th St","location":{"type":"Point","coordinates":[-122.284514268117,47.4750224354904]},"isApproved":true,"items":[],"keys":["Sports Bars","American (Traditional)"],"lastUpdated":1547527612278,"name":"The Lost Dutchman","phone":"(425) 432-0729","price":"$$","reviewCount":64,"reviewScore":2,"meta":{"revision":0,"created":1547531154958,"version":0},"$loki":27},{"_id":"5c3d65bd3525a329e0bff77d","address":"33304 Pacific Hwy S","location":{"type":"Point","coordinates":[-122.292275,47.459474]},"isApproved":true,"items":[],"keys":["Cafes","Desserts","Shaved Ice"],"lastUpdated":1547527612218,"name":"Cafe Noir","phone":"(253) 344-1870","price":"$","reviewCount":192,"reviewScore":3.5,"meta":{"revision":0,"created":1547531154958,"version":0},"$loki":28},{"_id":"5c3d65bd3525a329e0c15e51","address":"920 N 10th St","location":{"type":"Point","coordinates":[-122.2814124,47.4551045]},"isApproved":true,"items":[],"keys":["Mexican","Bars"],"lastUpdated":1547527612755,"name":"Torero’s Mexican Restaurants","phone":"(425) 228-6180","price":"$$","reviewCount":289,"reviewScore":4,"meta":{"revision":0,"created":1547531154958,"version":0},"$loki":29},{"_id":"5c3d65bd3525a329e0c12821","address":"119 SW 148th St","location":{"type":"Point","coordinates":[-122.3347578,47.4701516]},"isApproved":true,"items":[],"keys":["Burgers"],"lastUpdated":1547527612672,"name":"Burger Broiler","phone":"(206) 708-6421","price":"$","reviewCount":110,"reviewScore":4,"meta":{"revision":0,"created":1547531154958,"version":0},"$loki":30},{"_id":"5c3d65bd3525a329e0c16db3","address":"126 SW 148th St","location":{"type":"Point","coordinates":[-122.3359716,47.4720153]},"isApproved":true,"items":[],"keys":["Greek","Falafel","Salad"],"lastUpdated":1547527612780,"name":"Dino’s Gyros","phone":"(206) 838-8620","price":"$","reviewCount":75,"reviewScore":4,"meta":{"revision":0,"created":1547531154958,"version":0},"$loki":31},{"_id":"5c3d65bd3525a329e0c019b8","address":"717 SW 148th St","location":{"type":"Point","coordinates":[-122.343989,47.4701031]},"isApproved":true,"items":[],"keys":["Bars","American (New)"],"lastUpdated":1547527612257,"name":"Sidestreet Kitchen & Bar","phone":"(206) 402-5428","price":"$$","reviewCount":185,"reviewScore":4,"meta":{"revision":0,"created":1547531154958,"version":0},"$loki":32},{"_id":"5c3d65bd3525a329e0c0a279","address":"17620 140th Ave SE","location":{"type":"Point","coordinates":[-122.343989,47.4701031]},"isApproved":true,"items":[],"keys":["Thai"],"lastUpdated":1547527612473,"name":"Thai Destination","phone":"(425) 228-8588","price":"$$","reviewCount":94,"reviewScore":3.5,"meta":{"revision":0,"created":1547531154958,"version":0},"$loki":33},{"_id":"5c3d65bd3525a329e0c04377","address":"46600 SE N Bend Way","location":{"type":"Point","coordinates":[-122.3462949,47.4696218]},"isApproved":true,"items":[],"keys":["Breakfast & Brunch"],"lastUpdated":1547527612321,"name":"Country Pride Restaurant","phone":"(425) 888-3322","price":"$","reviewCount":28,"reviewScore":3,"meta":{"revision":0,"created":1547531154958,"version":0},"$loki":34},{"_id":"5c3d65bd3525a329e0c1a7e7","address":"34902 Pacific Hwy S","location":{"type":"Point","coordinates":[-122.346646785736,47.4692760428587]},"isApproved":true,"items":[],"keys":["American (Traditional)","Barbeque","Steakhouses"],"lastUpdated":1547527612867,"name":"Jimmy Mac’s Roadhouse","phone":"(253) 874-6000","price":"$$","reviewCount":313,"reviewScore":3.5,"meta":{"revision":0,"created":1547531154958,"version":0},"$loki":35},{"_id":"5c3d65bd3525a329e0bfff6c","address":"914 D St NE","location":{"type":"Point","coordinates":[-122.346855,47.4665766]},"isApproved":true,"items":[],"keys":["Chinese","Japanese"],"lastUpdated":1547527612223,"name":"Sunny Teriyaki","phone":"(253) 333-0100","price":"$","reviewCount":57,"reviewScore":4,"meta":{"revision":0,"created":1547531154958,"version":0},"$loki":36},{"_id":"5c3d65bd3525a329e0c02a1a","address":"31656 Pacific Hwy S","location":{"type":"Point","coordinates":[-122.3463667,47.4665984]},"isApproved":true,"items":[],"keys":["Korean","Barbeque","Buffets"],"lastUpdated":1547527612286,"name":"Kum Kang San BBQ Grill Buffet","phone":"(253) 941-9292","price":"$$","reviewCount":397,"reviewScore":3.5,"meta":{"revision":0,"created":1547531154958,"version":0},"$loki":37},{"_id":"5c3d65bd3525a329e0c16c18","address":"913 SW 152nd St","location":{"type":"Point","coordinates":[-122.3464954,47.4666306]},"isApproved":true,"items":[],"keys":["American (New)"],"lastUpdated":1547527612774,"name":"913 - The Place Next Door","phone":"(206) 243-7909","price":"$$","reviewCount":38,"reviewScore":4.5,"meta":{"revision":0,"created":1547531154958,"version":0},"$loki":38},{"_id":"5c3d65bd3525a329e0c1376b","address":"25684 104th Ave SE","location":{"type":"Point","coordinates":[-122.3465321,47.4670167]},"isApproved":true,"items":[],"keys":["Vietnamese"],"lastUpdated":1547527612697,"name":"Gia Hung Vietnamese Restaurant","phone":"(253) 854-4374","price":"$","reviewCount":30,"reviewScore":4,"meta":{"revision":0,"created":1547531154958,"version":0},"$loki":39},{"_id":"5c3d65bd3525a329e0c0ef78","address":"317 E Smith St","location":{"type":"Point","coordinates":[-122.3462142,47.4665016]},"isApproved":true,"items":[],"keys":["Dim Sum","Seafood","Cantonese"],"lastUpdated":1547527612589,"name":"Lucky House Chinese Restaurant","phone":"(253) 520-1688","price":"$$","reviewCount":275,"reviewScore":3.5,"meta":{"revision":0,"created":1547531154958,"version":0},"$loki":40},{"_id":"5c3d65bd3525a329e0c17f19","address":"15178 8th Ave SW","location":{"type":"Point","coordinates":[-122.344426587224,47.4670469015837]},"isApproved":true,"items":[],"keys":["Burgers"],"lastUpdated":1547527612802,"name":"The Little Chicken Burger","phone":"(206) 596-1657","price":"$","reviewCount":58,"reviewScore":4.5,"meta":{"revision":0,"created":1547531154958,"version":0},"$loki":41},{"_id":"5c3d65bd3525a329e0c13aa0","address":"13919 Tukwila Intl Blvd","location":{"type":"Point","coordinates":[-122.343596,47.466594]},"isApproved":true,"items":[],"keys":["Mediterranean","American (Traditional)","African"],"lastUpdated":1547527612699,"name":"Sahara Cafe","phone":"(206) 659-4248","price":"$$","reviewCount":15,"reviewScore":4.5,"meta":{"revision":0,"created":1547531154958,"version":0},"$loki":42},{"_id":"5c3d65bd3525a329e0c0a445","address":"2006 The Summit At Snoqualmie","location":{"type":"Point","coordinates":[-122.3437627,47.4665241]},"isApproved":true,"items":[],"keys":["American (Traditional)","Bars","Pizza"],"lastUpdated":1547527612480,"name":"Whiskey Pete’s","phone":"(425) 434-7669","price":"$$","reviewCount":8,"reviewScore":3,"meta":{"revision":0,"created":1547531154958,"version":0},"$loki":43},{"_id":"5c3d65bd3525a329e0c15f4d","address":"15220 Ambaum Blvd SW","location":{"type":"Point","coordinates":[-122.344223,47.4661014]},"isApproved":true,"items":[],"keys":["Vietnamese","Noodles"],"lastUpdated":1547527612756,"name":"Pho Liu","phone":"(206) 244-1449","price":"$","reviewCount":67,"reviewScore":4,"meta":{"revision":0,"created":1547531154958,"version":0},"$loki":44},{"_id":"5c3d65bd3525a329e0c019dd","address":"255 SW 152nd St","location":{"type":"Point","coordinates":[-122.338841,47.4665182]},"isApproved":true,"items":[],"keys":["Pubs","Breweries","American (Traditional)"],"lastUpdated":1547527612257,"name":"Elliott Bay Brewhouse & Pub","phone":"(206) 246-4211","price":"$$","reviewCount":382,"reviewScore":4,"meta":{"revision":0,"created":1547531154958,"version":0},"$loki":45},{"_id":"5c3d65bd3525a329e0c06802","address":"1710 S 341st Pl","location":{"type":"Point","coordinates":[-122.3421403,47.466284]},"isApproved":true,"items":[],"keys":["Delis","Diners","American (Traditional)"],"lastUpdated":1547527612378,"name":"Mark’s Deli","phone":"(253) 838-1202","price":"","reviewCount":6,"reviewScore":4.5,"meta":{"revision":0,"created":1547531154958,"version":0},"$loki":46},{"_id":"5c3d65bd3525a329e0c1143d","address":"1040 Stevenson Ave","location":{"type":"Point","coordinates":[-122.340760007501,47.4665700968986]},"isApproved":true,"items":[],"keys":["Japanese"],"lastUpdated":1547527612643,"name":"Teriyaki House","phone":"(360) 802-0535","price":"$","reviewCount":9,"reviewScore":3,"meta":{"revision":0,"created":1547531154958,"version":0},"$loki":47},{"_id":"5c3d65bd3525a329e0c12e91","address":"7060 Lakeland Hills Way","location":{"type":"Point","coordinates":[-122.343005016446,47.4671879505895]},"isApproved":true,"items":[],"keys":["Fast Food","Pizza"],"lastUpdated":1547527612687,"name":"MOD Pizza","phone":"(253) 387-7104","price":"$","reviewCount":39,"reviewScore":3.5,"meta":{"revision":0,"created":1547531154958,"version":0},"$loki":48},{"_id":"5c3d65bd3525a329e0c0f46d","address":"27011 Pacific Hwy S","location":{"type":"Point","coordinates":[-122.341107,47.466957]},"isApproved":true,"items":[],"keys":["Japanese"],"lastUpdated":1547527612592,"name":"Manna Teriyaki","phone":"(253) 941-6096","price":"$","reviewCount":61,"reviewScore":4,"meta":{"revision":0,"created":1547531154958,"version":0},"$loki":49},{"_id":"5c3d65bd3525a329e0c02339","address":"21179 State Rt 410 E","location":{"type":"Point","coordinates":[-122.3403558,47.4666489]},"isApproved":true,"items":[],"keys":["Chinese"],"lastUpdated":1547527612276,"name":"New Peking Chinese Restaurant","phone":"(253) 863-4485","price":"$$","reviewCount":58,"reviewScore":3,"meta":{"revision":0,"created":1547531154958,"version":0},"$loki":50},{"_id":"5c3d65bd3525a329e0c08a72","address":"54106 Mountain Hwy E","location":{"type":"Point","coordinates":[-122.338290028274,47.4665898157456]},"isApproved":true,"items":[],"keys":["American (Traditional)","Pizza"],"lastUpdated":1547527612430,"name":"Mount Rainier Railroad Dining","phone":"(360) 569-2505","price":"$$","reviewCount":145,"reviewScore":2.5,"meta":{"revision":0,"created":1547531154958,"version":0},"$loki":51},{"_id":"5c3d65bd3525a329e0c0d2b8","address":"1170 Sunset Blvd NE","location":{"type":"Point","coordinates":[-122.3373041,47.4662493]},"isApproved":true,"items":[],"keys":["Mexican"],"lastUpdated":1547527612545,"name":"Santa Fe Mexican Grill","phone":"(425) 988-6170","price":"$$","reviewCount":146,"reviewScore":4,"meta":{"revision":0,"created":1547531154958,"version":0},"$loki":52},{"_id":"5c3d65bd3525a329e0c06287","address":"354 Sunset Blvd N","location":{"type":"Point","coordinates":[-122.3368148,47.4665809]},"isApproved":true,"items":[],"keys":["Modern European","Mediterranean"],"lastUpdated":1547527612369,"name":"Sunset Bistro","phone":"(425) 572-0440","price":"$$","reviewCount":71,"reviewScore":4,"meta":{"revision":0,"created":1547531154958,"version":0},"$loki":53},{"_id":"5c3d65bd3525a329e0c07ab5","address":"10120 SE 260th St","location":{"type":"Point","coordinates":[-122.3350372,47.4656469]},"isApproved":true,"items":[],"keys":["Mediterranean","Middle Eastern","Greek"],"lastUpdated":1547527612409,"name":"Alexandria Mediterranean Cuisine","phone":"(253) 220-8547","price":"$$","reviewCount":29,"reviewScore":3.5,"meta":{"revision":0,"created":1547531154958,"version":0},"$loki":54},{"_id":"5c3d65bd3525a329e0c02ffd","address":"26915 Maple Valley Black Diamond","location":{"type":"Point","coordinates":[-122.334536,47.465831]},"isApproved":true,"items":[],"keys":["Mexican"],"lastUpdated":1547527612295,"name":"El Caporal","phone":"(425) 432-8488","price":"$$","reviewCount":73,"reviewScore":3.5,"meta":{"revision":0,"created":1547531154958,"version":0},"$loki":55},{"_id":"5c3d65bd3525a329e0c05ef0","address":"34029 Hoyt Rd SW","location":{"type":"Point","coordinates":[-122.332518864279,47.4622342892809]},"isApproved":true,"items":[],"keys":["Latin American","Modern European"],"lastUpdated":1547527612367,"name":"Pimienta Bistro & Bar","phone":"(253) 838-2398","price":"$$","reviewCount":222,"reviewScore":4.5,"meta":{"revision":0,"created":1547531154958,"version":0},"$loki":56},{"_id":"5c3d65bd3525a329e0c15c95","address":"15423 SE 272nd St","location":{"type":"Point","coordinates":[-122.331615686417,47.4603170360999]},"isApproved":true,"items":[],"keys":["Bars","American (Traditional)","Country Dance Halls"],"lastUpdated":1547527612755,"name":"Gonzo’s Bar and Grill","phone":"(253) 638-2337","price":"$$","reviewCount":54,"reviewScore":2.5,"meta":{"revision":0,"created":1547531154958,"version":0},"$loki":57},{"_id":"5c3d65bd3525a329e0c09136","address":"33029 Pacific Hwy S","location":{"type":"Point","coordinates":[-122.3347225,47.4427555]},"isApproved":true,"items":[],"keys":["Food Trucks","Hawaiian"],"lastUpdated":1547527612446,"name":"Volcano Joes Kitchen","phone":"(206) 578-7773","price":"$","reviewCount":1,"reviewScore":5,"meta":{"revision":0,"created":1547531154958,"version":0},"$loki":58},{"_id":"5c3d65bd3525a329e0c0cf6e","address":"23912 SE Kent Kangley Rd","location":{"type":"Point","coordinates":[-122.336156666279,47.4423016978195]},"isApproved":true,"items":[],"keys":["Coffee & Tea","Breakfast & Brunch","Juice Bars & Smoothies"],"lastUpdated":1547527612535,"name":"Gravity Coffee Maple Valley","phone":"(253) 447-8740","price":"$","reviewCount":33,"reviewScore":3.5,"meta":{"revision":0,"created":1547531154958,"version":0},"$loki":59},{"_id":"5c3d65bd3525a329e0c0d8b2","address":"1124 W Meeker St","location":{"type":"Point","coordinates":[-122.333708,47.4442564]},"isApproved":true,"items":[],"keys":["Burgers"],"lastUpdated":1547527612555,"name":"Family Drive-In","phone":"(253) 854-0837","price":"$","reviewCount":95,"reviewScore":4,"meta":{"revision":0,"created":1547531154958,"version":0},"$loki":60},{"_id":"5c3d65bd3525a329e0c0b187","address":"11655 Renton Ave S","location":{"type":"Point","coordinates":[-122.428908746047,47.3828742128609]},"isApproved":true,"items":[],"keys":["Mexican","Food Trucks"],"lastUpdated":1547527612497,"name":"Taquera La Herradura","phone":"(206) 698-0426","price":"","reviewCount":1,"reviewScore":5,"meta":{"revision":0,"created":1547531154958,"version":0},"$loki":61},{"_id":"5c3d65bd3525a329e0c0cf3d","address":"12958 SE Kent Kangley Rd","location":{"type":"Point","coordinates":[-122.43535,47.300632]},"isApproved":true,"items":[],"keys":["Chinese"],"lastUpdated":1547527612535,"name":"Lucky Star","phone":"(253) 630-8636","price":"$$","reviewCount":78,"reviewScore":3.5,"meta":{"revision":0,"created":1547531154958,"version":0},"$loki":62},{"_id":"5c3d65bd3525a329e0c0f529","address":"1108 S 322nd Pl","location":{"type":"Point","coordinates":[-122.435502153561,47.3008947275204]},"isApproved":true,"items":[],"keys":["Coffee & Tea","Breakfast & Brunch","Diners"],"lastUpdated":1547527612592,"name":"Poverty Bay Cafe & Coffee Co","phone":"(253) 945-0012","price":"$","reviewCount":435,"reviewScore":3.5,"meta":{"revision":0,"created":1547531154958,"version":0},"$loki":63},{"_id":"5c3d65bd3525a329e0c191a6","address":"4017 State Highway 3 W","location":{"type":"Point","coordinates":[-122.435502153561,47.3008947275204]},"isApproved":true,"items":[],"keys":["American (Traditional)"],"lastUpdated":1547527612833,"name":"Jimmy D’s Hwy 3 Roadhouse","phone":"(360) 792-1745","price":"$$","reviewCount":32,"reviewScore":3.5,"meta":{"revision":0,"created":1547531154958,"version":0},"$loki":64},{"_id":"5c3d65bd3525a329e0c0d5e9","address":"22330 84th Ave S","location":{"type":"Point","coordinates":[-122.4321838,47.2975563]},"isApproved":true,"items":[],"keys":["American (Traditional)","Breakfast & Brunch","Diners"],"lastUpdated":1547527612548,"name":"Mitzel’s American Kitchen","phone":"(253) 395-3635","price":"$$","reviewCount":144,"reviewScore":3.5,"meta":{"revision":0,"created":1547531154958,"version":0},"$loki":65},{"_id":"5c3d65bd3525a329e0c1a3c2","address":"1901 S 72nd St","location":{"type":"Point","coordinates":[-122.4321838,47.2975563]},"isApproved":true,"items":[],"keys":["Thai"],"lastUpdated":1547527612859,"name":"Thai Hut 2","phone":"(253) 475-1214","price":"$$","reviewCount":210,"reviewScore":4,"meta":{"revision":0,"created":1547531154958,"version":0},"$loki":66},{"_id":"5c3d65bd3525a329e0c18757","address":"3604 22nd Ave NW","location":{"type":"Point","coordinates":[-122.4649539,47.2749856]},"isApproved":true,"items":[],"keys":["Breakfast & Brunch","American (Traditional)","Sports Bars"],"lastUpdated":1547527612821,"name":"Hacker’s Bar & Grill","phone":"(253) 851-5465","price":"$$","reviewCount":20,"reviewScore":3.5,"meta":{"revision":0,"created":1547531154958,"version":0},"$loki":67},{"_id":"5c3d65bd3525a329e0c0a46a","address":"2810 6th Ave","location":{"type":"Point","coordinates":[-122.4658078,47.2746027]},"isApproved":true,"items":[],"keys":["Argentine","Steakhouses","Bars"],"lastUpdated":1547527612480,"name":"Asado","phone":"(253) 272-7770","price":"$$$","reviewCount":588,"reviewScore":4,"meta":{"revision":0,"created":1547531154958,"version":0},"$loki":68},{"_id":"5c3d65bd3525a329e0c09feb","address":"9518 Gravelly Lake Dr SW","location":{"type":"Point","coordinates":[-122.468008878186,47.2673615860055]},"isApproved":true,"items":[],"keys":["Indian"],"lastUpdated":1547527612472,"name":"Great Cuisine of India","phone":"(253) 581-1333","price":"$$","reviewCount":174,"reviewScore":4,"meta":{"revision":0,"created":1547531154958,"version":0},"$loki":69},{"_id":"5c3d65bd3525a329e0c0a47b","address":"5700 100th St SW","location":{"type":"Point","coordinates":[-122.4556109,47.2600726]},"isApproved":true,"items":[],"keys":["Japanese","Korean","Chinese"],"lastUpdated":1547527612480,"name":"Koto Teriyaki","phone":"(253) 581-2031","price":"$","reviewCount":94,"reviewScore":4,"meta":{"revision":0,"created":1547531154958,"version":0},"$loki":70},{"_id":"5c3d65bd3525a329e0c139ee","address":"6828 19th St W","location":{"type":"Point","coordinates":[-122.458442,47.262056]},"isApproved":true,"items":[],"keys":["Japanese"],"lastUpdated":1547527612698,"name":"Ginza Teriyaki","phone":"(253) 566-9208","price":"$$","reviewCount":53,"reviewScore":4,"meta":{"revision":0,"created":1547531154958,"version":0},"$loki":71},{"_id":"5c3d65bd3525a329e0c07fde","address":"3700 NE 4th St","location":{"type":"Point","coordinates":[-122.440576,47.25351]},"isApproved":true,"items":[],"keys":["Cafes","Mexican","Salvadoran"],"lastUpdated":1547527612418,"name":"City Cafe","phone":"(425) 264-5219","price":"$","reviewCount":26,"reviewScore":4,"meta":{"revision":0,"created":1547531154958,"version":0},"$loki":72},{"_id":"5c3d65bd3525a329e0c1b0e8","address":"18119 E Valley Hwy","location":{"type":"Point","coordinates":[-122.4395481,47.252287]},"isApproved":true,"items":[],"keys":["Japanese"],"lastUpdated":1547527612877,"name":"Happy At the Bay","phone":"(425) 251-6667","price":"$","reviewCount":86,"reviewScore":4,"meta":{"revision":0,"created":1547531154958,"version":0},"$loki":73},{"_id":"5c3d65bd3525a329e0c090a0","address":"3540 SE Pacific Ave","location":{"type":"Point","coordinates":[-122.440358,47.252554]},"isApproved":true,"items":[],"keys":["Pizza","Salad","Buffets"],"lastUpdated":1547527612439,"name":"Izzy’s Pizza & Buffet","phone":"(360) 456-0314","price":"$$","reviewCount":98,"reviewScore":4,"meta":{"revision":0,"created":1547531154958,"version":0},"$loki":74},{"_id":"5c3d65bd3525a329e0c0b95e","address":"19231 Des Moines Memorial Dr","location":{"type":"Point","coordinates":[-122.440358,47.252554]},"isApproved":true,"items":[],"keys":["Barbeque","Caterers"],"lastUpdated":1547527612507,"name":"The BBQ Schacht","phone":"(206) 878-8931","price":"$$","reviewCount":85,"reviewScore":4,"meta":{"revision":0,"created":1547531154958,"version":0},"$loki":75},{"_id":"5c3d65bd3525a329e0c0a033","address":"8013 Steilacoom Blvd SW","location":{"type":"Point","coordinates":[-122.4400274,47.2521934]},"isApproved":true,"items":[],"keys":["Japanese"],"lastUpdated":1547527612472,"name":"Hot Teriyaki","phone":"(253) 584-7776","price":"$","reviewCount":27,"reviewScore":3.5,"meta":{"revision":0,"created":1547531154958,"version":0},"$loki":76},{"_id":"5c3d65bd3525a329e0c118b4","address":"8205 Martin Way E","location":{"type":"Point","coordinates":[-122.4520665,47.2522519]},"isApproved":true,"items":[],"keys":["Sushi Bars","Japanese","Asian Fusion"],"lastUpdated":1547527612650,"name":"Happy Teriyaki","phone":"(360) 413-9000","price":"$$","reviewCount":152,"reviewScore":3,"meta":{"revision":0,"created":1547531154958,"version":0},"$loki":77},{"_id":"5c3d65bd3525a329e0c154d7","address":"1115 S 11th St","location":{"type":"Point","coordinates":[-122.4523059,47.2520559]},"isApproved":true,"items":[],"keys":["Vietnamese"],"lastUpdated":1547527612745,"name":"Pho Bac Cafe","phone":"(253) 272-7270","price":"$","reviewCount":122,"reviewScore":4,"meta":{"revision":0,"created":1547531154958,"version":0},"$loki":78},{"_id":"5c3d65bd3525a329e0c1ac84","address":"1550 Irving St SW","location":{"type":"Point","coordinates":[-122.450459614615,47.25235493056]},"isApproved":true,"items":[],"keys":["Cafes","Coffee & Tea","Sandwiches"],"lastUpdated":1547527612869,"name":"Coffee Katz Café","phone":"(360) 789-5938","price":"","reviewCount":6,"reviewScore":4,"meta":{"revision":0,"created":1547531154958,"version":0},"$loki":79},{"_id":"5c3d65bd3525a329e0c0c027","address":"1116 Martin Luther King Jr Way","location":{"type":"Point","coordinates":[-122.4517251,47.2513922]},"isApproved":true,"items":[],"keys":["Supper Clubs"],"lastUpdated":1547527612516,"name":"Zodiac Supper Club","phone":"(253) 327-1891","price":"$$","reviewCount":56,"reviewScore":4,"meta":{"revision":0,"created":1547531154958,"version":0},"$loki":80},{"_id":"5c3d65bd3525a329e0c1941d","address":"1111 S 11th St","location":{"type":"Point","coordinates":[-122.452301637895,47.2519449747931]},"isApproved":true,"items":[],"keys":["Bars","Sandwiches"],"lastUpdated":1547527612840,"name":"The Eleven Eleven Bar","phone":"(253) 284-1111","price":"$$","reviewCount":310,"reviewScore":4.5,"meta":{"revision":0,"created":1547531154958,"version":0},"$loki":81},{"_id":"5c3d65bd3525a329e0c06eca","address":"2728 S 12th St","location":{"type":"Point","coordinates":[-122.473005652428,47.2499244910022]},"isApproved":true,"items":[],"keys":["Mexican","Food Trucks"],"lastUpdated":1547527612388,"name":"Taqueria Tres Hermanos","phone":"(253) 886-0213","price":"$","reviewCount":31,"reviewScore":4,"meta":{"revision":0,"created":1547531154958,"version":0},"$loki":82},{"_id":"5c3d65bd3525a329e0c02237","address":"2915 Harrison Ave NW","location":{"type":"Point","coordinates":[-122.4733968,47.2552566]},"isApproved":true,"items":[],"keys":["Meat Shops","Delis","Sandwiches"],"lastUpdated":1547527612276,"name":"Honey Baked Ham Company","phone":"(360) 753-8744","price":"$","reviewCount":19,"reviewScore":4,"meta":{"revision":0,"created":1547531154958,"version":0},"$loki":83},{"_id":"5c3d65bd3525a329e0c038c0","address":"10220 US Hwy SW","location":{"type":"Point","coordinates":[-122.4731616,47.2552436]},"isApproved":true,"items":[],"keys":["Burgers"],"lastUpdated":1547527612304,"name":"Highway 12 Drive In","phone":"(360) 273-7549","price":"$","reviewCount":4,"reviewScore":3.5,"meta":{"revision":0,"created":1547531154958,"version":0},"$loki":84},{"_id":"5c3d65bd3525a329e0c093cb","address":"10117 S Tacoma Way","location":{"type":"Point","coordinates":[-122.47294,47.2556781]},"isApproved":true,"items":[],"keys":["Casinos","American (Traditional)","Sports Bars"],"lastUpdated":1547527612452,"name":"Great American Casino","phone":"(253) 396-0500","price":"$$","reviewCount":29,"reviewScore":4,"meta":{"revision":0,"created":1547531154958,"version":0},"$loki":85},{"_id":"5c3d65bd3525a329e0c0aba5","address":"2717 6th Ave","location":{"type":"Point","coordinates":[-122.4723258,47.2555932]},"isApproved":true,"items":[],"keys":["Mexican","Cocktail Bars"],"lastUpdated":1547527612489,"name":"El Borracho Tacoma","phone":"(253) 314-5286","price":"$$","reviewCount":140,"reviewScore":4,"meta":{"revision":0,"created":1547531154958,"version":0},"$loki":86},{"_id":"5c3d65bd3525a329e0c117b5","address":"120 5th Ave SW","location":{"type":"Point","coordinates":[-122.4722194,47.2555896]},"isApproved":true,"items":[],"keys":["Izakaya","Ramen"],"lastUpdated":1547527612650,"name":"Kizuki Ramen & Izakaya","phone":"(360) 786-8888","price":"$$","reviewCount":246,"reviewScore":3.5,"meta":{"revision":0,"created":1547531154958,"version":0},"$loki":87},{"_id":"5c3d65bd3525a329e0c04ce1","address":"2602 N Proctor St","location":{"type":"Point","coordinates":[-122.471534,47.255662]},"isApproved":true,"items":[],"keys":["Vegan","Live/Raw Food","Gluten-Free"],"lastUpdated":1547527612338,"name":"Viva","phone":"(253) 503-6498","price":"$$","reviewCount":279,"reviewScore":4,"meta":{"revision":0,"created":1547531154958,"version":0},"$loki":88},{"_id":"5c3d65bd3525a329e0c13bca","address":"1948 SE Lund Ave","location":{"type":"Point","coordinates":[-122.470406,47.2555687]},"isApproved":true,"items":[],"keys":["Mexican"],"lastUpdated":1547527612704,"name":"El Pueblito Mexican Restaurant","phone":"(360) 895-8000","price":"$$","reviewCount":80,"reviewScore":4,"meta":{"revision":0,"created":1547531154958,"version":0},"$loki":89},{"_id":"5c3d65bd3525a329e0c0a17c","address":"125 Columbia St NW","location":{"type":"Point","coordinates":[-122.466594,47.2551642]},"isApproved":true,"items":[],"keys":["Thai","American (New)"],"lastUpdated":1547527612473,"name":"Mekong Restaurant","phone":"(360) 352-9620","price":"$","reviewCount":88,"reviewScore":3.5,"meta":{"revision":0,"created":1547531154958,"version":0},"$loki":90},{"_id":"5c3d65bd3525a329e0c11c66","address":"1716 6th Ave","location":{"type":"Point","coordinates":[-122.4624219,47.2559406]},"isApproved":true,"items":[],"keys":["Southern","Soul Food"],"lastUpdated":1547527612660,"name":"Southern Kitchen","phone":"(253) 627-4282","price":"$$","reviewCount":958,"reviewScore":4,"meta":{"revision":0,"created":1547531154958,"version":0},"$loki":91},{"_id":"5c3d65bd3525a329e0c1ab1d","address":"2747 Pacific Ave SE","location":{"type":"Point","coordinates":[-122.469043029326,47.2429325793314]},"isApproved":true,"items":[],"keys":["Burgers"],"lastUpdated":1547527612868,"name":"Johnny’s Burgers","phone":"(360) 357-7819","price":"","reviewCount":11,"reviewScore":4,"meta":{"revision":0,"created":1547531154958,"version":0},"$loki":92},{"_id":"5c3d65bd3525a329e0c00237","address":"1814 S Martin Luther King Jr Way","location":{"type":"Point","coordinates":[-122.450142128972,47.2441192639071]},"isApproved":true,"items":[],"keys":["Seafood"],"lastUpdated":1547527612225,"name":"The Fish House Cafe","phone":"(253) 383-7144","price":"$","reviewCount":197,"reviewScore":4.5,"meta":{"revision":0,"created":1547531154958,"version":0},"$loki":93},{"_id":"5c3d65bd3525a329e0c158cc","address":"3110 Judson St","location":{"type":"Point","coordinates":[-122.449408248067,47.243431746993]},"isApproved":true,"items":[],"keys":["Japanese","Sushi Bars"],"lastUpdated":1547527612747,"name":"Tokyo Teriyaki","phone":"(253) 853-3232","price":"$","reviewCount":49,"reviewScore":4,"meta":{"revision":0,"created":1547531154958,"version":0},"$loki":94},{"_id":"5c3d65bd3525a329e0c05a0b","address":"23969 NE Sr 3","location":{"type":"Point","coordinates":[-122.4388838,47.2416448]},"isApproved":true,"items":[],"keys":["Mexican"],"lastUpdated":1547527612355,"name":"El Sombrero","phone":"(360) 275-0700","price":"$$","reviewCount":44,"reviewScore":4,"meta":{"revision":0,"created":1547531154958,"version":0},"$loki":95},{"_id":"5c3d65bd3525a329e0c11c77","address":"321 Auburn Way N","location":{"type":"Point","coordinates":[-122.4388838,47.2416448]},"isApproved":true,"items":[],"keys":["Mexican"],"lastUpdated":1547527612660,"name":"Garcia’s Mexican Restaurant & Cantina","phone":"(253) 397-4329","price":"$$","reviewCount":87,"reviewScore":4,"meta":{"revision":0,"created":1547531154958,"version":0},"$loki":96},{"_id":"5c3d65bd3525a329e0c0ec6e","address":"108 E Yelm Ave","location":{"type":"Point","coordinates":[-122.4392833,47.2441511]},"isApproved":true,"items":[],"keys":["Bars","American (Traditional)"],"lastUpdated":1547527612582,"name":"Bob’s Bar & Grill","phone":"(360) 458-4004","price":"$$","reviewCount":8,"reviewScore":3.5,"meta":{"revision":0,"created":1547531154958,"version":0},"$loki":97},{"_id":"5c3d65bd3525a329e0c179d9","address":"33120 Pacific Hwy S","location":{"type":"Point","coordinates":[-122.4392833,47.2441511]},"isApproved":true,"items":[],"keys":["Japanese","Korean"],"lastUpdated":1547527612793,"name":"Fish Island","phone":"(253) 517-7764","price":"$$$","reviewCount":53,"reviewScore":4,"meta":{"revision":0,"created":1547531154958,"version":0},"$loki":98},{"_id":"5c3d65bd3525a329e0c05848","address":"8013 Steilacoom Blvd SW","location":{"type":"Point","coordinates":[-122.438433,47.247318]},"isApproved":true,"items":[],"keys":["Mexican","Seafood","Chicken Wings"],"lastUpdated":1547527612349,"name":"Mis Tres Amigos Mexican Restaurant - Lakewood","phone":"(253) 581-2907","price":"$$","reviewCount":96,"reviewScore":3.5,"meta":{"revision":0,"created":1547531154958,"version":0},"$loki":99},{"_id":"5c3d65bd3525a329e0c1a87b","address":"17530 Meridian E","location":{"type":"Point","coordinates":[-122.438433,47.247318]},"isApproved":true,"items":[],"keys":["Japanese"],"lastUpdated":1547527612867,"name":"Modoo Teriyaki","phone":"(253) 445-7033","price":"$","reviewCount":50,"reviewScore":3.5,"meta":{"revision":0,"created":1547531154958,"version":0},"$loki":100},{"_id":"5c3d65bd3525a329e0c12b0b","address":"402 4th Ave E","location":{"type":"Point","coordinates":[-122.4440114,47.2494091]},"isApproved":true,"items":[],"keys":["Dive Bars","Fast Food"],"lastUpdated":1547527612680,"name":"China Clipper Cafe","phone":"(360) 943-6300","price":"$","reviewCount":21,"reviewScore":3,"meta":{"revision":0,"created":1547531154958,"version":0},"$loki":101},{"_id":"5c3d65bd3525a329e0c1238c","address":"4301 S Pine St","location":{"type":"Point","coordinates":[-122.4441565,47.2502326]},"isApproved":true,"items":[],"keys":["Cafes","Delis","Sandwiches"],"lastUpdated":1547527612670,"name":"Undergrounds Java Deli","phone":"(253) 472-0100","price":"$","reviewCount":40,"reviewScore":5,"meta":{"revision":0,"created":1547531154958,"version":0},"$loki":102},{"_id":"5c3d65bd3525a329e0c1994f","address":"26220 116th Ave SE","location":{"type":"Point","coordinates":[-122.4441565,47.2502326]},"isApproved":true,"items":[],"keys":["Mexican"],"lastUpdated":1547527612843,"name":"Taqueria El Ranchito","phone":"(253) 854-2699","price":"$","reviewCount":26,"reviewScore":4,"meta":{"revision":0,"created":1547531154958,"version":0},"$loki":103},{"_id":"5c3d65bd3525a329e0c1904c","address":"1616 S 325th St","location":{"type":"Point","coordinates":[-122.442478181282,47.2499721716527]},"isApproved":true,"items":[],"keys":["Korean","Vegetarian"],"lastUpdated":1547527612832,"name":"Red Stone Tofu House","phone":"(253) 517-5355","price":"$$","reviewCount":159,"reviewScore":4,"meta":{"revision":0,"created":1547531154958,"version":0},"$loki":104},{"_id":"5c3d65bd3525a329e0c06d47","address":"120 Washington Ave N","location":{"type":"Point","coordinates":[-122.440195,47.2504239]},"isApproved":true,"items":[],"keys":["Thai"],"lastUpdated":1547527612387,"name":"Thai Chili Restaurant","phone":"(253) 850-5887","price":"$$","reviewCount":135,"reviewScore":4,"meta":{"revision":0,"created":1547531154958,"version":0},"$loki":105},{"_id":"5c3d65bd3525a329e0c15a0b","address":"4530 Martin Way E","location":{"type":"Point","coordinates":[-122.4396234,47.2518155]},"isApproved":true,"items":[],"keys":["Delis","Fast Food","Sandwiches"],"lastUpdated":1547527612748,"name":"Jimmy John’s","phone":"(360) 455-1111","price":"$","reviewCount":82,"reviewScore":3.5,"meta":{"revision":0,"created":1547531154958,"version":0},"$loki":106},{"_id":"5c3d65bd3525a329e0c198f4","address":"1250 SW 43rd St","location":{"type":"Point","coordinates":[-122.4396234,47.2518155]},"isApproved":true,"items":[],"keys":["Pizza"],"lastUpdated":1547527612842,"name":"Pizza Addict","phone":"(253) 246-2192","price":"$$","reviewCount":117,"reviewScore":4,"meta":{"revision":0,"created":1547531154958,"version":0},"$loki":107},{"_id":"5c3d65bd3525a329e0c134b3","address":"3715 S G St","location":{"type":"Point","coordinates":[-122.439559,47.252183]},"isApproved":true,"items":[],"keys":["Vietnamese","Cafes"],"lastUpdated":1547527612690,"name":"Trung Chanh Cafe","phone":"(253) 507-4521","price":"$","reviewCount":3,"reviewScore":4.5,"meta":{"revision":0,"created":1547531154958,"version":0},"$loki":108},{"_id":"5c3d65bd3525a329e0bffc62","address":"10505 Bridgeport Way SW","location":{"type":"Point","coordinates":[-122.4388415,47.2524258]},"isApproved":true,"items":[],"keys":["Filipino"],"lastUpdated":1547527612221,"name":"Maresol Restaurant","phone":"(253) 581-7248","price":"$","reviewCount":129,"reviewScore":4.5,"meta":{"revision":0,"created":1547531154958,"version":0},"$loki":109},{"_id":"5c3d65bd3525a329e0c17a5a","address":"33120 Pacific Hwy S","location":{"type":"Point","coordinates":[-122.4388415,47.2524258]},"isApproved":true,"items":[],"keys":["Tacos"],"lastUpdated":1547527612798,"name":"Señor Taco","phone":"(253) 661-9915","price":"$","reviewCount":240,"reviewScore":4.5,"meta":{"revision":0,"created":1547531154958,"version":0},"$loki":110},{"_id":"5c3d65bd3525a329e0c05476","address":"9923 SW 178th St","location":{"type":"Point","coordinates":[-122.437506,47.249563]},"isApproved":true,"items":[],"keys":["Food Stands"],"lastUpdated":1547527612347,"name":"Patty’s Tamales","phone":"(206) 249-3152","price":"$","reviewCount":10,"reviewScore":4,"meta":{"revision":0,"created":1547531154958,"version":0},"$loki":111},{"_id":"5c3d65bd3525a329e0c1908f","address":"1423 Pacific Ave","location":{"type":"Point","coordinates":[-122.437506,47.249563]},"isApproved":true,"items":[],"keys":["Cafes","Sandwiches"],"lastUpdated":1547527612832,"name":"Evergreen Cafe","phone":"(253) 382-1330","price":"$","reviewCount":41,"reviewScore":3.5,"meta":{"revision":0,"created":1547531154958,"version":0},"$loki":112},{"_id":"5c3d65bd3525a329e0c15e13","address":"14506 Pacific Ave S","location":{"type":"Point","coordinates":[-122.437916994095,47.2490792298187]},"isApproved":true,"items":[],"keys":["Argentine","Latin American"],"lastUpdated":1547527612755,"name":"Carne Aqui","phone":"(253) 535-6328","price":"$$","reviewCount":228,"reviewScore":4.5,"meta":{"revision":0,"created":1547531154958,"version":0},"$loki":113},{"_id":"5c3d65bd3525a329e0c061b1","address":"4500 Steilacoom Blvd SW,Bldg 31","location":{"type":"Point","coordinates":[-122.4337435,47.2465811]},"isApproved":true,"items":[],"keys":["Italian","Sandwiches"],"lastUpdated":1547527612369,"name":"Rainier Room","phone":"(253) 589-5889","price":"$$","reviewCount":5,"reviewScore":4.5,"meta":{"revision":0,"created":1547531154958,"version":0},"$loki":114},{"_id":"5c3d65bd3525a329e0c05137","address":"310 Wells Ave S","location":{"type":"Point","coordinates":[-122.4341104,47.2458849]},"isApproved":true,"items":[],"keys":["Italian","Seafood","Wine Bars"],"lastUpdated":1547527612340,"name":"Marianna Ristorante","phone":"(425) 271-7042","price":"$$","reviewCount":346,"reviewScore":4,"meta":{"revision":0,"created":1547531154958,"version":0},"$loki":115},{"_id":"5c3d65bd3525a329e0c105ac","address":"5227 S Tacoma Way","location":{"type":"Point","coordinates":[-122.4341104,47.2458849]},"isApproved":true,"items":[],"keys":["Cocktail Bars","Sandwiches","Dive Bars"],"lastUpdated":1547527612618,"name":"The Mule Tavern","phone":"(253) 212-3112","price":"$","reviewCount":18,"reviewScore":4.5,"meta":{"revision":0,"created":1547531154958,"version":0},"$loki":116},{"_id":"5c3d65bd3525a329e0c1223c","address":"8802 6th Ave","location":{"type":"Point","coordinates":[-122.437338,47.2467128]},"isApproved":true,"items":[],"keys":["Seafood"],"lastUpdated":1547527612669,"name":"Steamer’s Seafood Cafe","phone":"(253) 565-4532","price":"$$","reviewCount":171,"reviewScore":3.5,"meta":{"revision":0,"created":1547531154958,"version":0},"$loki":117},{"_id":"5c3d65bd3525a329e0c191a5","address":"1702 Pacific Ave","location":{"type":"Point","coordinates":[-122.437338,47.2467128]},"isApproved":true,"items":[],"keys":["Pizza"],"lastUpdated":1547527612833,"name":"Zeeks Pizza","phone":"(253) 269-7604","price":"","reviewCount":14,"reviewScore":4,"meta":{"revision":0,"created":1547531154958,"version":0},"$loki":118},{"_id":"5c3d65bd3525a329e0bff792","address":"19033 68th Ave S","location":{"type":"Point","coordinates":[-122.4373437,47.2463496]},"isApproved":true,"items":[],"keys":["Burgers"],"lastUpdated":1547527612218,"name":"EJ Burger Kent","phone":"(253) 277-1373","price":"$","reviewCount":23,"reviewScore":4,"meta":{"revision":0,"created":1547531154958,"version":0},"$loki":119},{"_id":"5c3d65bd3525a329e0c12363","address":"6111 Lakewood Towne Center Blvd SW","location":{"type":"Point","coordinates":[-122.4373437,47.2463496]},"isApproved":true,"items":[],"keys":["Japanese"],"lastUpdated":1547527612669,"name":"Yum Yum Teriyaki","phone":"(253) 581-8639","price":"$","reviewCount":46,"reviewScore":4,"meta":{"revision":0,"created":1547531154958,"version":0},"$loki":120},{"_id":"5c3d65bd3525a329e0c1a6c5","address":"16116 Meridian Ave E","location":{"type":"Point","coordinates":[-122.4369008,47.2445725]},"isApproved":true,"items":[],"keys":["Breakfast & Brunch","American (Traditional)","Waffles"],"lastUpdated":1547527612866,"name":"The Original Pancake House","phone":"(253) 604-0791","price":"$$","reviewCount":278,"reviewScore":3.5,"meta":{"revision":0,"created":1547531154958,"version":0},"$loki":121},{"_id":"5c3d65bd3525a329e0c07203","address":"10417 Gravelly Lake Dr SW","location":{"type":"Point","coordinates":[-122.4367621,47.2434706]},"isApproved":true,"items":[],"keys":["Barbeque","Hawaiian"],"lastUpdated":1547527612398,"name":"L&L Hawaiian Barbecue","phone":"(253) 588-8296","price":"$","reviewCount":195,"reviewScore":4,"meta":{"revision":0,"created":1547531154958,"version":0},"$loki":122},{"_id":"5c3d65bd3525a329e0c18c9c","address":"1053 Lake Washington Blvd N","location":{"type":"Point","coordinates":[-122.4367621,47.2434706]},"isApproved":true,"items":[],"keys":["Asian Fusion"],"lastUpdated":1547527612825,"name":"Water’s Table","phone":"(425) 203-1234","price":"$$","reviewCount":222,"reviewScore":3.5,"meta":{"revision":0,"created":1547531154958,"version":0},"$loki":123},{"_id":"5c3d65bd3525a329e0c07d5e","address":"524 N K St","location":{"type":"Point","coordinates":[-122.4366342,47.2435392]},"isApproved":true,"items":[],"keys":["American (Traditional)","Bars"],"lastUpdated":1547527612411,"name":"Hanks Bar and Grill","phone":"(253) 627-3480","price":"$$","reviewCount":77,"reviewScore":4,"meta":{"revision":0,"created":1547531154958,"version":0},"$loki":124},{"_id":"5c3d65bd3525a329e0c0142c","address":"7202 S Park Ave","location":{"type":"Point","coordinates":[-122.4291609,47.2404137]},"isApproved":true,"items":[],"keys":["Mexican","Food Stands"],"lastUpdated":1547527612249,"name":"Taqueria El Grande","phone":"(253) 472-5905","price":"$","reviewCount":89,"reviewScore":4.5,"meta":{"revision":0,"created":1547531154958,"version":0},"$loki":125},{"_id":"5c3d65bd3525a329e0c0264c","address":"8318 Quinault Dr NE","location":{"type":"Point","coordinates":[-122.4291609,47.2404137]},"isApproved":true,"items":[],"keys":["Casinos","American (New)","Barbeque"],"lastUpdated":1547527612284,"name":"Hawk’s Prairie Casino and Restaurant","phone":"(360) 528-8888","price":"$$","reviewCount":54,"reviewScore":3,"meta":{"revision":0,"created":1547531154958,"version":0},"$loki":126},{"_id":"5c3d65bd3525a329e0c1873c","address":"30411 Mountain Hwy E","location":{"type":"Point","coordinates":[-122.428441362566,47.2395575530645]},"isApproved":true,"items":[],"keys":["Bars","American (Traditional)","Breakfast & Brunch"],"lastUpdated":1547527612821,"name":"Roundup Restaurant & Lounge","phone":"(253) 847-9110","price":"$$","reviewCount":14,"reviewScore":3,"meta":{"revision":0,"created":1547531154958,"version":0},"$loki":127},{"_id":"5c3d65bd3525a329e0c0f8e1","address":"720 Lind Ave SW","location":{"type":"Point","coordinates":[-122.4288213,47.2395347]},"isApproved":true,"items":[],"keys":["Indian"],"lastUpdated":1547527612600,"name":"Spice King","phone":"(425) 226-6700","price":"$","reviewCount":389,"reviewScore":4,"meta":{"revision":0,"created":1547531154958,"version":0},"$loki":128},{"_id":"5c3d65bd3525a329e0c00136","address":"7320 Pacific Hwy E","location":{"type":"Point","coordinates":[-122.4357987,47.2424268]},"isApproved":true,"items":[],"keys":["Bars","Breakfast & Brunch","American (Traditional)"],"lastUpdated":1547527612224,"name":"The Milton Lodge","phone":"(253) 922-4277","price":"","reviewCount":3,"reviewScore":2.5,"meta":{"revision":0,"created":1547531154958,"version":0},"$loki":129},{"_id":"5c3d65bd3525a329e0c0b926","address":"1312 N I St","location":{"type":"Point","coordinates":[-122.4357987,47.2424268]},"isApproved":true,"items":[],"keys":["Burgers","Food Stands"],"lastUpdated":1547527612507,"name":"Ooh Lala Burgers","phone":"(425) 698-3645","price":"","reviewCount":17,"reviewScore":4.5,"meta":{"revision":0,"created":1547531154958,"version":0},"$loki":130},{"_id":"5c3d65bd3525a329e0c16e1e","address":"1055 S Grady Way","location":{"type":"Point","coordinates":[-122.4356441,47.242294]},"isApproved":true,"items":[],"keys":["Cafes","Sandwiches"],"lastUpdated":1547527612780,"name":"City Scene Cafe","phone":"(425) 289-8306","price":"","reviewCount":2,"reviewScore":5,"meta":{"revision":0,"created":1547531154958,"version":0},"$loki":131},{"_id":"5c3d65bd3525a329e0c17219","address":"1044 Bethel Ave","location":{"type":"Point","coordinates":[-122.4356441,47.242294]},"isApproved":true,"items":[],"keys":["Fish & Chips"],"lastUpdated":1547527612783,"name":"King’s Fish & Chips","phone":"(360) 895-4148","price":"$","reviewCount":59,"reviewScore":3.5,"meta":{"revision":0,"created":1547531154958,"version":0},"$loki":132},{"_id":"5c3d65bd3525a329e0c09c29","address":"9915 224th St E","location":{"type":"Point","coordinates":[-122.435629787578,47.2408932007719]},"isApproved":true,"items":[],"keys":["Japanese"],"lastUpdated":1547527612465,"name":"Sun’s Teriyaki","phone":"(253) 846-3229","price":"$","reviewCount":36,"reviewScore":3.5,"meta":{"revision":0,"created":1547531154958,"version":0},"$loki":133},{"_id":"5c3d65bd3525a329e0c130c6","address":"6008 Mount Tacoma Dr SW","location":{"type":"Point","coordinates":[-122.435629787578,47.2408932007719]},"isApproved":true,"items":[],"keys":["Jazz & Blues","Bars","Burgers"],"lastUpdated":1547527612688,"name":"Bleu Note Restaurant and Lounge","phone":"(253) 433-3974","price":"$$","reviewCount":19,"reviewScore":4.5,"meta":{"revision":0,"created":1547531154958,"version":0},"$loki":134},{"_id":"5c3d65bd3525a329e0c1130b","address":"15920 W Valley Hwy","location":{"type":"Point","coordinates":[-122.430033,47.238432]},"isApproved":true,"items":[],"keys":["Mediterranean","Event Planning & Services","Lounges"],"lastUpdated":1547527612642,"name":"Basil’s Restaurant, Lounge & Catering","phone":"(425) 227-9406","price":"$$","reviewCount":96,"reviewScore":4,"meta":{"revision":0,"created":1547531154958,"version":0},"$loki":135},{"_id":"5c3d65bd3525a329e0c165c4","address":"127 W N Bend Way","location":{"type":"Point","coordinates":[-122.428509191843,47.2389570981628]},"isApproved":true,"items":[],"keys":["Bakeries","Sandwiches","Coffee & Tea"],"lastUpdated":1547527612765,"name":"The North Bend Bakery","phone":"(425) 888-0632","price":"$","reviewCount":116,"reviewScore":4,"meta":{"revision":0,"created":1547531154958,"version":0},"$loki":136},{"_id":"5c3d65bd3525a329e0c14b7e","address":"700 Capitol Way N","location":{"type":"Point","coordinates":[-122.4273021,47.2396893]},"isApproved":true,"items":[],"keys":["Japanese"],"lastUpdated":1547527612729,"name":"Soba","phone":"(360) 352-9096","price":"$$","reviewCount":2,"reviewScore":4,"meta":{"revision":0,"created":1547531154958,"version":0},"$loki":137},{"_id":"5c3d65bd3525a329e0c16da5","address":"18230 E Valley Hwy","location":{"type":"Point","coordinates":[-122.4273021,47.2396893]},"isApproved":true,"items":[],"keys":["Taiwanese","Chinese","Noodles"],"lastUpdated":1547527612774,"name":"Mai Kitchen Taiwanese Cuisine","phone":"(425) 251-6668","price":"$$","reviewCount":23,"reviewScore":4,"meta":{"revision":0,"created":1547531154958,"version":0},"$loki":138},{"_id":"5c3d65bd3525a329e0c09bb3","address":"25250 Pacific Hwy S","location":{"type":"Point","coordinates":[-122.427326,47.239689]},"isApproved":true,"items":[],"keys":["Indian","Himalayan/Nepalese"],"lastUpdated":1547527612464,"name":"Gorkha Durbar","phone":"(206) 592-6954","price":"$$","reviewCount":112,"reviewScore":4,"meta":{"revision":0,"created":1547531154958,"version":0},"$loki":139},{"_id":"5c3d65bd3525a329e0c1a1ba","address":"3900 SW Lake Flora Rd","location":{"type":"Point","coordinates":[-122.427326,47.239689]},"isApproved":true,"items":[],"keys":["Restaurants","Golf","Fishing"],"lastUpdated":1547527612858,"name":"Trophy Lake Golf & Casting","phone":"(360) 874-8337","price":"$$","reviewCount":19,"reviewScore":4.5,"meta":{"revision":0,"created":1547531154958,"version":0},"$loki":140},{"_id":"5c3d65bd3525a329e0c05670","address":"18212 Hwy 410 E","location":{"type":"Point","coordinates":[-122.427293,47.239654]},"isApproved":true,"items":[],"keys":["Sports Bars","American (Traditional)"],"lastUpdated":1547527612348,"name":"BLT Sports Bar & Grill","phone":"(253) 863-9904","price":"$$","reviewCount":45,"reviewScore":3,"meta":{"revision":0,"created":1547531154958,"version":0},"$loki":141},{"_id":"5c3d65bd3525a329e0c05811","address":"17851 1st Ave S","location":{"type":"Point","coordinates":[-122.4271718,47.2545798]},"isApproved":true,"items":[],"keys":["Vietnamese","Sandwiches"],"lastUpdated":1547527612349,"name":"Oh...Pho","phone":"(206) 402-6527","price":"$$","reviewCount":40,"reviewScore":4,"meta":{"revision":0,"created":1547531154958,"version":0},"$loki":142},{"_id":"5c3d65bd3525a329e0c163fa","address":"1820 E Portland Ave","location":{"type":"Point","coordinates":[-122.419722132079,47.2515484514958]},"isApproved":true,"items":[],"keys":["Burgers","Sandwiches","Breakfast & Brunch"],"lastUpdated":1547527612764,"name":"Pit Stop","phone":"(253) 274-0645","price":"$","reviewCount":5,"reviewScore":4.5,"meta":{"revision":0,"created":1547531154958,"version":0},"$loki":143},{"_id":"5c3d65bd3525a329e0c110cc","address":"801 C St SW","location":{"type":"Point","coordinates":[-122.4342695,47.2498766]},"isApproved":true,"items":[],"keys":["Mexican","Specialty Food","Ice Cream & Frozen Yogurt"],"lastUpdated":1547527612641,"name":"Antojitos Michalisco","phone":"(253) 249-7583","price":"$","reviewCount":10,"reviewScore":4.5,"meta":{"revision":0,"created":1547531154958,"version":0},"$loki":144},{"_id":"5c3d65bd3525a329e0c1717d","address":"213 4th Ave E","location":{"type":"Point","coordinates":[-122.4342695,47.2498766]},"isApproved":true,"items":[],"keys":["Mexican"],"lastUpdated":1547527612782,"name":"Quality Burrito","phone":"(360) 357-7292","price":"$","reviewCount":435,"reviewScore":3.5,"meta":{"revision":0,"created":1547531154958,"version":0},"$loki":145},{"_id":"5c3d65bd3525a329e0c099c1","address":"9415 192 Avenue E","location":{"type":"Point","coordinates":[-122.4390892,47.2535399]},"isApproved":true,"items":[],"keys":["Burgers","American (Traditional)"],"lastUpdated":1547527612463,"name":"Red Robin Gourmet Burgers","phone":"(253) 299-4111","price":"$$","reviewCount":107,"reviewScore":2.5,"meta":{"revision":0,"created":1547531154958,"version":0},"$loki":146},{"_id":"5c3d65bd3525a329e0c0f6fc","address":"506 W Yelm Ave","location":{"type":"Point","coordinates":[-122.4374856,47.2531531]},"isApproved":true,"items":[],"keys":["Japanese"],"lastUpdated":1547527612599,"name":"Ichiban Teriyaki","phone":"(360) 458-1116","price":"$$","reviewCount":21,"reviewScore":4,"meta":{"revision":0,"created":1547531154958,"version":0},"$loki":147},{"_id":"5c3d65bd3525a329e0c13d68","address":"1102 A St","location":{"type":"Point","coordinates":[-122.4374856,47.2531531]},"isApproved":true,"items":[],"keys":["Sandwiches"],"lastUpdated":1547527612706,"name":"OutPost Kitchen","phone":"(253) 327-1905","price":"","reviewCount":11,"reviewScore":4.5,"meta":{"revision":0,"created":1547531154958,"version":0},"$loki":148},{"_id":"5c3d65bd3525a329e0c0b9e5","address":"2601 N Pearl St","location":{"type":"Point","coordinates":[-122.438605,47.255238]},"isApproved":true,"items":[],"keys":["Burgers","Sandwiches","Salad"],"lastUpdated":1547527612507,"name":"The Habit Burger Grill","phone":"(253) 759-3116","price":"$","reviewCount":81,"reviewScore":3.5,"meta":{"revision":0,"created":1547531154958,"version":0},"$loki":149},{"_id":"5c3d65bd3525a329e0c18845","address":"901 Pacific Ave","location":{"type":"Point","coordinates":[-122.438605,47.255238]},"isApproved":true,"items":[],"keys":["Bubble Tea","Coffee & Tea","Sandwiches"],"lastUpdated":1547527612822,"name":"Cafe Amasia","phone":"(253) 272-2933","price":"$","reviewCount":73,"reviewScore":4.5,"meta":{"revision":0,"created":1547531154958,"version":0},"$loki":150},{"_id":"5c3d65bd3525a329e0c0a7d4","address":"11109 Pacific Hwy SW","location":{"type":"Point","coordinates":[-122.439523333333,47.256662851393]},"isApproved":true,"items":[],"keys":["Mexican"],"lastUpdated":1547527612481,"name":"Casa Mixteca","phone":"(253) 212-3305","price":"$$","reviewCount":4,"reviewScore":5,"meta":{"revision":0,"created":1547531154958,"version":0},"$loki":151},{"_id":"5c3d65bd3525a329e0c195f6","address":"24060 104th Ave SE","location":{"type":"Point","coordinates":[-122.4400158,47.2554388]},"isApproved":true,"items":[],"keys":["Mongolian"],"lastUpdated":1547527612841,"name":"Jasmine Mongolian Grill","phone":"(253) 850-6053","price":"$$","reviewCount":180,"reviewScore":3.5,"meta":{"revision":0,"created":1547531154958,"version":0},"$loki":152},{"_id":"5c3d65bd3525a329e0c14032","address":"13817 Pacific Ave S","location":{"type":"Point","coordinates":[-122.43866681898,47.2558750301675]},"isApproved":true,"items":[],"keys":["Bakeries","Juice Bars & Smoothies","Polynesian"],"lastUpdated":1547527612707,"name":"Taste of Samoa Manapua Bakery","phone":"(253) 348-4989","price":"$","reviewCount":31,"reviewScore":4.5,"meta":{"revision":0,"created":1547531154958,"version":0},"$loki":153},{"_id":"5c3d65bd3525a329e0c01335","address":"16904 Meridian East","location":{"type":"Point","coordinates":[-122.4389883,47.2566827]},"isApproved":true,"items":[],"keys":["American (Traditional)","Burgers"],"lastUpdated":1547527612248,"name":"Red Robin Gourmet Burgers","phone":"(253) 845-5127","price":"$$","reviewCount":119,"reviewScore":3,"meta":{"revision":0,"created":1547531154958,"version":0},"$loki":154},{"_id":"5c3d65bd3525a329e0c0dddb","address":"1130 Bethel Ave","location":{"type":"Point","coordinates":[-122.439384583046,47.2572194396689]},"isApproved":true,"items":[],"keys":["American (Traditional)","Coffee & Tea","Breakfast & Brunch"],"lastUpdated":1547527612563,"name":"The Grey House Café","phone":"(360) 876-5695","price":"$$","reviewCount":125,"reviewScore":4,"meta":{"revision":0,"created":1547531154958,"version":0},"$loki":155},{"_id":"5c3d65bd3525a329e0c1931e","address":"2301 Pacific Ave","location":{"type":"Point","coordinates":[-122.439384583046,47.2572194396689]},"isApproved":true,"items":[],"keys":["Diners"],"lastUpdated":1547527612834,"name":"Patty’s Burger’s & Milkshakes","phone":"","price":"$","reviewCount":62,"reviewScore":4,"meta":{"revision":0,"created":1547531154958,"version":0},"$loki":156},{"_id":"5c3d65bd3525a329e0c141c3","address":"","location":{"type":"Point","coordinates":[-122.438657679901,47.2604290967075]},"isApproved":true,"items":[],"keys":["Food Trucks","Barbeque","Korean"],"lastUpdated":1547527612713,"name":"Seoul Bowl","phone":"(253) 298-2301","price":"$","reviewCount":33,"reviewScore":4.5,"meta":{"revision":0,"created":1547531154958,"version":0},"$loki":157},{"_id":"5c3d65bd3525a329e0c01cf2","address":"12926 Bridgeport Way SW","location":{"type":"Point","coordinates":[-122.445005487754,47.2613903474195]},"isApproved":true,"items":[],"keys":["Burgers"],"lastUpdated":1547527612259,"name":"K & C Burkie","phone":"(253) 582-9250","price":"$","reviewCount":98,"reviewScore":4.5,"meta":{"revision":0,"created":1547531154958,"version":0},"$loki":158},{"_id":"5c3d65bd3525a329e0c0d65f","address":"26642 Maple Valley Black Diamond Rd SE","location":{"type":"Point","coordinates":[-122.443497845073,47.2586815671869]},"isApproved":true,"items":[],"keys":["Pizza","Gluten-Free","Sports Bars"],"lastUpdated":1547527612548,"name":"Farrelli’s Wood Fire Pizza","phone":"(425) 584-7340","price":"$$","reviewCount":190,"reviewScore":3.5,"meta":{"revision":0,"created":1547531154958,"version":0},"$loki":159},{"_id":"5c3d65bd3525a329e0c15baf","address":"708 Harrison Ave","location":{"type":"Point","coordinates":[-122.443497845073,47.2586815671869]},"isApproved":true,"items":[],"keys":["American (Traditional)"],"lastUpdated":1547527612754,"name":"Hometown Family Restaurant","phone":"(360) 736-0359","price":"$$","reviewCount":28,"reviewScore":3.5,"meta":{"revision":0,"created":1547531154958,"version":0},"$loki":160},{"_id":"5c3d65bd3525a329e0c10d16","address":"909 Alder Ave","location":{"type":"Point","coordinates":[-122.441511625539,47.2573102682037]},"isApproved":true,"items":[],"keys":["Sandwiches","Coffee & Tea"],"lastUpdated":1547527612633,"name":"The Sumner Café","phone":"(253) 987-5402","price":"$$","reviewCount":56,"reviewScore":4,"meta":{"revision":0,"created":1547531154958,"version":0},"$loki":161},{"_id":"5c3d65bd3525a329e0c056e7","address":"757 Rainier Ave S","location":{"type":"Point","coordinates":[-122.44284,47.257585]},"isApproved":true,"items":[],"keys":["Vietnamese","Noodles"],"lastUpdated":1547527612348,"name":"Pho 88","phone":"(425) 793-0404","price":"$","reviewCount":98,"reviewScore":4.5,"meta":{"revision":0,"created":1547531154958,"version":0},"$loki":162},{"_id":"5c3d65bd3525a329e0c0b2f6","address":"445 Tacoma Ave","location":{"type":"Point","coordinates":[-122.4451893,47.2583277]},"isApproved":true,"items":[],"keys":["Soup"],"lastUpdated":1547527612498,"name":"Infinite Soups","phone":"(253) 274-0232","price":"$","reviewCount":262,"reviewScore":4.5,"meta":{"revision":0,"created":1547531154958,"version":0},"$loki":163},{"_id":"5c3d65bd3525a329e0c10886","address":"2121 Olympic Hwy N","location":{"type":"Point","coordinates":[-122.4459739,47.2618022]},"isApproved":true,"items":[],"keys":["Sandwiches","Fast Food"],"lastUpdated":1547527612625,"name":"Subway","phone":"(360) 427-4011","price":"$","reviewCount":3,"reviewScore":5,"meta":{"revision":0,"created":1547531154958,"version":0},"$loki":164},{"_id":"5c3d65bd3525a329e0c137f5","address":"5155 McCormick Woods Dr SW","location":{"type":"Point","coordinates":[-122.448386344917,47.2643794063785]},"isApproved":true,"items":[],"keys":["American (New)","Venues & Event Spaces","Bars"],"lastUpdated":1547527612697,"name":"The Clubhouse Restaurant & Bar","phone":"(800) 279-7705","price":"$$","reviewCount":25,"reviewScore":3.5,"meta":{"revision":0,"created":1547531154958,"version":0},"$loki":165},{"_id":"5c3d65bd3525a329e0c1b2dd","address":"7320 40th St W","location":{"type":"Point","coordinates":[-122.4491035,47.2648237]},"isApproved":true,"items":[],"keys":["Vietnamese","Sandwiches"],"lastUpdated":1547527612878,"name":"Fresh Rolls","phone":"(253) 572-9064","price":"$","reviewCount":81,"reviewScore":3.5,"meta":{"revision":0,"created":1547531154958,"version":0},"$loki":166},{"_id":"5c3d65bd3525a329e0bff63d","address":"110 N Tacoma Ave","location":{"type":"Point","coordinates":[-122.448733651408,47.2644985174688]},"isApproved":true,"items":[],"keys":["Asian Fusion","Sandwiches"],"lastUpdated":1547527612217,"name":"Indo Asian Street Eatery","phone":"(253) 503-3527","price":"$$","reviewCount":393,"reviewScore":4.5,"meta":{"revision":0,"created":1547531154958,"version":0},"$loki":167},{"_id":"5c3d65bd3525a329e0c18fc2","address":"110 B N Tacoma Ave","location":{"type":"Point","coordinates":[-122.4492042,47.2645657]},"isApproved":true,"items":[],"keys":["Ramen","Cocktail Bars","Tapas/Small Plates"],"lastUpdated":1547527612832,"name":"Moshi Moshi","phone":"(253) 301-4688","price":"$$","reviewCount":101,"reviewScore":3.5,"meta":{"revision":0,"created":1547531154958,"version":0},"$loki":168},{"_id":"5c3d65bd3525a329e0c18996","address":"649 Division Ave","location":{"type":"Point","coordinates":[-122.4488095,47.2634373]},"isApproved":true,"items":[],"keys":["Bars","German"],"lastUpdated":1547527612823,"name":"Rhein Haus Tacoma","phone":"(253) 572-4700","price":"$$","reviewCount":345,"reviewScore":3.5,"meta":{"revision":0,"created":1547531154958,"version":0},"$loki":169},{"_id":"5c3d65bd3525a329e0c1b614","address":"6621 S 211th St","location":{"type":"Point","coordinates":[-122.36269980669,47.2835075807092]},"isApproved":true,"items":[],"keys":["Vietnamese","Macarons","Sandwiches"],"lastUpdated":1547527612886,"name":"Vinason Pho & Grill","phone":"(253) 243-6966","price":"$$","reviewCount":80,"reviewScore":4,"meta":{"revision":0,"created":1547531154958,"version":0},"$loki":170},{"_id":"5c3d65bd3525a329e0c0bb89","address":"3712 9th St SW","location":{"type":"Point","coordinates":[-122.361786665508,47.2840484418461]},"isApproved":true,"items":[],"keys":["Thai","Asian Fusion"],"lastUpdated":1547527612509,"name":"Chili Thai Restaurant","phone":"(253) 864-7005","price":"$$","reviewCount":224,"reviewScore":3.5,"meta":{"revision":0,"created":1547531154958,"version":0},"$loki":171},{"_id":"5c3d65bd3525a329e0c02ba5","address":"212 S 3rd St","location":{"type":"Point","coordinates":[-122.381309,47.296039]},"isApproved":true,"items":[],"keys":["Vietnamese"],"lastUpdated":1547527612287,"name":"Renton Bistro","phone":"(425) 523-5413","price":"$$","reviewCount":99,"reviewScore":4,"meta":{"revision":0,"created":1547531154958,"version":0},"$loki":172},{"_id":"5c3d65bd3525a329e0c1234d","address":"328 S Meridian","location":{"type":"Point","coordinates":[-122.3826455,47.2963738]},"isApproved":true,"items":[],"keys":["Pizza","Greek","Mediterranean"],"lastUpdated":1547527612669,"name":"Giorgio’s Greek Cafe & Pizzeria","phone":"(253) 200-2333","price":"$$","reviewCount":189,"reviewScore":4,"meta":{"revision":0,"created":1547531154958,"version":0},"$loki":173},{"_id":"5c3d65bd3525a329e0c0ea6e","address":"21004 108th Ave SE","location":{"type":"Point","coordinates":[-122.3633647,47.3014181]},"isApproved":true,"items":[],"keys":["Japanese","Asian Fusion"],"lastUpdated":1547527612581,"name":"Tokyo Town Teriyaki","phone":"(253) 854-4937","price":"$","reviewCount":80,"reviewScore":4.5,"meta":{"revision":0,"created":1547531154958,"version":0},"$loki":174},{"_id":"5c3d65bd3525a329e0c0fb52","address":"16435 Military Rd S","location":{"type":"Point","coordinates":[-122.3636159,47.3014216]},"isApproved":true,"items":[],"keys":["Italian"],"lastUpdated":1547527612601,"name":"Galliano’s Cucina","phone":"(206) 243-7806","price":"$$","reviewCount":148,"reviewScore":4,"meta":{"revision":0,"created":1547531154958,"version":0},"$loki":175},{"_id":"5c3d65bd3525a329e0c120f6","address":"201 Washington Ave N","location":{"type":"Point","coordinates":[-122.3630384,47.3014333]},"isApproved":true,"items":[],"keys":["Pizza"],"lastUpdated":1547527612663,"name":"Route 66 Pizza","phone":"(360) 872-8990","price":"$$","reviewCount":60,"reviewScore":4,"meta":{"revision":0,"created":1547531154958,"version":0},"$loki":176},{"_id":"5c3d65bd3525a329e0c056f1","address":"757 S 38th St","location":{"type":"Point","coordinates":[-122.365302,47.301064]},"isApproved":true,"items":[],"keys":["Vietnamese","Noodles","Sandwiches"],"lastUpdated":1547527612348,"name":"Pho Dragon","phone":"(253) 472-6153","price":"$","reviewCount":198,"reviewScore":4,"meta":{"revision":0,"created":1547531154958,"version":0},"$loki":177},{"_id":"5c3d65bd3525a329e0c104ac","address":"9430 192nd St E","location":{"type":"Point","coordinates":[-122.335524,47.307216]},"isApproved":true,"items":[],"keys":["American (Traditional)","Sports Bars","Burgers"],"lastUpdated":1547527612618,"name":"Applebee’s Grill + Bar","phone":"(253) 299-6464","price":"$$","reviewCount":65,"reviewScore":2.5,"meta":{"revision":0,"created":1547531154958,"version":0},"$loki":178},{"_id":"5c3d65bd3525a329e0c0c7e1","address":"5317 138th St E","location":{"type":"Point","coordinates":[-122.335506952593,47.3077290399343]},"isApproved":true,"items":[],"keys":["Cafes"],"lastUpdated":1547527612526,"name":"Foxy Lady Cafe","phone":"","price":"$","reviewCount":1,"reviewScore":4,"meta":{"revision":0,"created":1547531154958,"version":0},"$loki":179},{"_id":"5c3d65bd3525a329e0c0675b","address":"602 112th St S","location":{"type":"Point","coordinates":[-122.3120709,47.3287979]},"isApproved":true,"items":[],"keys":["Mexican"],"lastUpdated":1547527612378,"name":"Andale!!","phone":"(253) 625-7799","price":"$","reviewCount":79,"reviewScore":4,"meta":{"revision":0,"created":1547531154958,"version":0},"$loki":180},{"_id":"5c3d65bd3525a329e0c1132b","address":"1525 A St NE","location":{"type":"Point","coordinates":[-122.3185599,47.3130754]},"isApproved":true,"items":[],"keys":["Mexican"],"lastUpdated":1547527612642,"name":"Las Margaritas","phone":"(253) 735-1526","price":"$$","reviewCount":105,"reviewScore":3.5,"meta":{"revision":0,"created":1547531154958,"version":0},"$loki":181},{"_id":"5c3d65bd3525a329e0bff656","address":"27227 Pacific Hwy S","location":{"type":"Point","coordinates":[-122.313842336107,47.3139153242389]},"isApproved":true,"items":[],"keys":["Thai","Salad","Soup"],"lastUpdated":1547527612217,"name":"Emerald II Thai Cuisine","phone":"(253) 941-2022","price":"$","reviewCount":82,"reviewScore":4,"meta":{"revision":0,"created":1547531154958,"version":0},"$loki":182},{"_id":"5c3d65bd3525a329e0c011e2","address":"105 9th Ave SW","location":{"type":"Point","coordinates":[-122.3115964,47.316283]},"isApproved":true,"items":[],"keys":["American (Traditional)","Diners","Breakfast & Brunch"],"lastUpdated":1547527612239,"name":"Cattin’s Family Dining","phone":"(253) 848-3494","price":"$$","reviewCount":65,"reviewScore":3.5,"meta":{"revision":0,"created":1547531154958,"version":0},"$loki":183},{"_id":"5c3d65bd3525a329e0c049ea","address":"12911 Martin Luther King Jr Way","location":{"type":"Point","coordinates":[-122.31215777082,47.3162038582318]},"isApproved":true,"items":[],"keys":["Mexican","Food Trucks"],"lastUpdated":1547527612331,"name":"Tortas ahogadas atemajac","phone":"(425) 443-6067","price":"$","reviewCount":5,"reviewScore":5,"meta":{"revision":0,"created":1547531154958,"version":0},"$loki":184},{"_id":"5c3d65bd3525a329e0c15093","address":"21919 Marine View Dr S","location":{"type":"Point","coordinates":[-122.3126959,47.3164561]},"isApproved":true,"items":[],"keys":["Diners"],"lastUpdated":1547527612736,"name":"Jack’s Country Restaurant","phone":"(206) 824-2833","price":"$","reviewCount":64,"reviewScore":4,"meta":{"revision":0,"created":1547531154958,"version":0},"$loki":185},{"_id":"5c3d65bd3525a329e0c00ca0","address":"17106 Pacific Ave S","location":{"type":"Point","coordinates":[-122.310729798742,47.3167904292442]},"isApproved":true,"items":[],"keys":["American (Traditional)","Diners","Breakfast & Brunch"],"lastUpdated":1547527612231,"name":"Little Park Restaurant","phone":"(253) 531-1343","price":"$","reviewCount":122,"reviewScore":3,"meta":{"revision":0,"created":1547531154958,"version":0},"$loki":186},{"_id":"5c3d65bd3525a329e0c18be0","address":"35501 21st Ave SW","location":{"type":"Point","coordinates":[-122.308245,47.316367]},"isApproved":true,"items":[],"keys":["Bubble Tea","Vietnamese","Sandwiches"],"lastUpdated":1547527612824,"name":"Goatea","phone":"(253) 517-7566","price":"$","reviewCount":195,"reviewScore":4,"meta":{"revision":0,"created":1547531154958,"version":0},"$loki":187},{"_id":"5c3d65bd3525a329e0c16e60","address":"21616 Hwy 410","location":{"type":"Point","coordinates":[-122.3070046,47.3170158]},"isApproved":true,"items":[],"keys":["Mexican","Cocktail Bars"],"lastUpdated":1547527612780,"name":"Mazatlan Restaurant","phone":"(253) 863-2900","price":"$$","reviewCount":86,"reviewScore":3,"meta":{"revision":0,"created":1547531154958,"version":0},"$loki":188},{"_id":"5c3d65bd3525a329e0c14cd3","address":"714 Pacific Ave","location":{"type":"Point","coordinates":[-122.3054335,47.3167663]},"isApproved":true,"items":[],"keys":["Tapas/Small Plates","Pizza","Sandwiches"],"lastUpdated":1547527612729,"name":"Wooden City","phone":"(253) 503-0762","price":"","reviewCount":87,"reviewScore":4.5,"meta":{"revision":0,"created":1547531154958,"version":0},"$loki":189},{"_id":"5c3d65bd3525a329e0c174d8","address":"601 S Rt 906","location":{"type":"Point","coordinates":[-122.304359,47.316835]},"isApproved":true,"items":[],"keys":["Breakfast & Brunch","American (New)"],"lastUpdated":1547527612790,"name":"Summit Pancake House","phone":"(425) 434-6249","price":"$$","reviewCount":107,"reviewScore":2.5,"meta":{"revision":0,"created":1547531154958,"version":0},"$loki":190},{"_id":"5c3d65bd3525a329e0c160e5","address":"21609 84th Ave S","location":{"type":"Point","coordinates":[-122.3104613,47.3185308]},"isApproved":true,"items":[],"keys":["American (Traditional)","Sports Bars","Breakfast & Brunch"],"lastUpdated":1547527612757,"name":"Gator’s Sports Bar & Grill","phone":"(253) 437-0362","price":"$$","reviewCount":150,"reviewScore":3.5,"meta":{"revision":0,"created":1547531154958,"version":0},"$loki":191},{"_id":"5c3d65bd3525a329e0c02d1b","address":"32805 Pacific Hwy S","location":{"type":"Point","coordinates":[-122.3085675,47.3190271]},"isApproved":true,"items":[],"keys":["Burgers"],"lastUpdated":1547527612293,"name":"Burger Express","phone":"(253) 874-2701","price":"$","reviewCount":308,"reviewScore":4,"meta":{"revision":0,"created":1547531154958,"version":0},"$loki":192},{"_id":"5c3d65bd3525a329e0c0c2b0","address":"16341 Renton Issaquah Rd SE","location":{"type":"Point","coordinates":[-122.3108521,47.3193682]},"isApproved":true,"items":[],"keys":["Breakfast & Brunch","Cafes","Pizza"],"lastUpdated":1547527612518,"name":"Jay Berry’s Cafe","phone":"(425) 271-1817","price":"$$","reviewCount":314,"reviewScore":4,"meta":{"revision":0,"created":1547531154958,"version":0},"$loki":193},{"_id":"5c3d65bd3525a329e0c10498","address":"320 W Harrison St","location":{"type":"Point","coordinates":[-122.311083618466,47.3184958413571]},"isApproved":true,"items":[],"keys":["Breweries","Pizza","Sandwiches"],"lastUpdated":1547527612618,"name":"Airways Brewing: The Bistro in Downtown Kent","phone":"(253) 236-8632","price":"$$","reviewCount":274,"reviewScore":4,"meta":{"revision":0,"created":1547531154958,"version":0},"$loki":194},{"_id":"5c3d65bd3525a329e0c07b15","address":"35415 21st Ave SW","location":{"type":"Point","coordinates":[-122.3122619,47.3172738]},"isApproved":true,"items":[],"keys":["Delis","International Grocery"],"lastUpdated":1547527612410,"name":"Hong Kong Market","phone":"(253) 252-7967","price":"$","reviewCount":28,"reviewScore":4,"meta":{"revision":0,"created":1547531154958,"version":0},"$loki":195},{"_id":"5c3d65bd3525a329e0c09eda","address":"1801 Dock St","location":{"type":"Point","coordinates":[-122.3153126,47.319726]},"isApproved":true,"items":[],"keys":["Argentine","Italian","American (Traditional)"],"lastUpdated":1547527612471,"name":"Choripan by Asado","phone":"(253) 248-4263","price":"$$","reviewCount":40,"reviewScore":4,"meta":{"revision":0,"created":1547531154958,"version":0},"$loki":196},{"_id":"5c3d65bd3525a329e0c15477","address":"14214 Meridian Ave E","location":{"type":"Point","coordinates":[-122.3153879,47.3197508]},"isApproved":true,"items":[],"keys":["Burgers"],"lastUpdated":1547527612745,"name":"Out & About Burgers","phone":"(253) 677-1974","price":"$","reviewCount":325,"reviewScore":4,"meta":{"revision":0,"created":1547531154958,"version":0},"$loki":197},{"_id":"5c3d65bd3525a329e0c0c311","address":"27203 216th Ave SE","location":{"type":"Point","coordinates":[-122.3128946,47.3196279]},"isApproved":true,"items":[],"keys":["Cafes","Coffee & Tea","Wine Bars"],"lastUpdated":1547527612518,"name":"Ristrettos Coffee & Wine","phone":"(425) 433-6455","price":"$$","reviewCount":147,"reviewScore":3.5,"meta":{"revision":0,"created":1547531154958,"version":0},"$loki":198},{"_id":"5c3d65bd3525a329e0c09dff","address":"3801 Yakima Ave","location":{"type":"Point","coordinates":[-122.3152249,47.3218624]},"isApproved":true,"items":[],"keys":["Vietnamese"],"lastUpdated":1547527612471,"name":"Vien Dong Restaurant","phone":"(253) 472-6668","price":"$","reviewCount":244,"reviewScore":4,"meta":{"revision":0,"created":1547531154958,"version":0},"$loki":199},{"_id":"5c3d65bd3525a329e0c06bf1","address":"35419 21st Ave SW","location":{"type":"Point","coordinates":[-122.3157083,47.3226566]},"isApproved":true,"items":[],"keys":["Vietnamese","Noodles"],"lastUpdated":1547527612386,"name":"Pho Tasty","phone":"(253) 874-7499","price":"$","reviewCount":100,"reviewScore":4,"meta":{"revision":0,"created":1547531154958,"version":0},"$loki":200},{"_id":"5c3d65bd3525a329e0c00bf6","address":"1620 S 312th St","location":{"type":"Point","coordinates":[-122.3122099,47.3225676]},"isApproved":true,"items":[],"keys":["Pizza","Italian"],"lastUpdated":1547527612230,"name":"Pop’s Pizza & Pasta","phone":"(253) 839-7100","price":"$$","reviewCount":209,"reviewScore":4.5,"meta":{"revision":0,"created":1547531154958,"version":0},"$loki":201},{"_id":"5c3d65bd3525a329e0c0988e","address":"1641 Washington 906","location":{"type":"Point","coordinates":[-122.311653122557,47.3226316985844]},"isApproved":true,"items":[],"keys":["Barbeque"],"lastUpdated":1547527612462,"name":"Rodeos Bar-B-Que","phone":"","price":"","reviewCount":1,"reviewScore":2,"meta":{"revision":0,"created":1547531154958,"version":0},"$loki":202},{"_id":"5c3d65bd3525a329e0c15f67","address":"750 S 38th St","location":{"type":"Point","coordinates":[-122.312797643244,47.321107147449]},"isApproved":true,"items":[],"keys":["Cajun/Creole","Seafood"],"lastUpdated":1547527612756,"name":"Dragon’s Crawfish","phone":"(253) 301-0020","price":"$$","reviewCount":229,"reviewScore":4,"meta":{"revision":0,"created":1547531154958,"version":0},"$loki":203},{"_id":"5c3d65bd3525a329e0c010b6","address":"1150 Southcenter Mall","location":{"type":"Point","coordinates":[-122.3127975,47.3210853]},"isApproved":true,"items":[],"keys":["Bars","Mexican"],"lastUpdated":1547527612239,"name":"Moctezuma’s Mexican Restaurant & Tequila Bar","phone":"(206) 557-4757","price":"$$","reviewCount":1204,"reviewScore":4,"meta":{"revision":0,"created":1547531154958,"version":0},"$loki":204},{"_id":"5c3d65bd3525a329e0c04e4a","address":"17017 SE 270th Pl","location":{"type":"Point","coordinates":[-122.3127975,47.3210853]},"isApproved":true,"items":[],"keys":["Mexican"],"lastUpdated":1547527612338,"name":"Aceituno’s Mexican Food","phone":"(253) 981-4187","price":"$","reviewCount":45,"reviewScore":3.5,"meta":{"revision":0,"created":1547531154958,"version":0},"$loki":205},{"_id":"5c3d65bd3525a329e0c10e97","address":"458 SW Mt Si Blvd","location":{"type":"Point","coordinates":[-122.3122436,47.3208545]},"isApproved":true,"items":[],"keys":["Japanese"],"lastUpdated":1547527612634,"name":"I Luv Teriyaki","phone":"(425) 888-5544","price":"$$","reviewCount":43,"reviewScore":4,"meta":{"revision":0,"created":1547531154958,"version":0},"$loki":206},{"_id":"5c3d65bd3525a329e0c0d1ff","address":"2800 Milton Way","location":{"type":"Point","coordinates":[-122.31279019202,47.3207196945281]},"isApproved":true,"items":[],"keys":["Mexican"],"lastUpdated":1547527612545,"name":"Puerto Vallarta Milton","phone":"(253) 927-5000","price":"$$","reviewCount":61,"reviewScore":3,"meta":{"revision":0,"created":1547531154958,"version":0},"$loki":207},{"_id":"5c3d65bd3525a329e0bffffd","address":"228 Washington Ave S","location":{"type":"Point","coordinates":[-122.312825135887,47.3205009883151]},"isApproved":true,"items":[],"keys":["Mexican"],"lastUpdated":1547527612223,"name":"Los Pino’s","phone":"(360) 893-2333","price":"$$","reviewCount":52,"reviewScore":3.5,"meta":{"revision":0,"created":1547531154958,"version":0},"$loki":208},{"_id":"5c3d65bd3525a329e0c084ff","address":"2400 S 320th St","location":{"type":"Point","coordinates":[-122.3025248,47.3157465]},"isApproved":true,"items":[],"keys":["Steakhouses","Sports Bars","American (Traditional)"],"lastUpdated":1547527612427,"name":"Black Angus Steakhouse","phone":"(253) 839-8370","price":"$$","reviewCount":283,"reviewScore":3,"meta":{"revision":0,"created":1547531154958,"version":0},"$loki":209},{"_id":"5c3d65bd3525a329e0c11d65","address":"806 E 72nd St","location":{"type":"Point","coordinates":[-122.3000541,47.3161151]},"isApproved":true,"items":[],"keys":["Mexican"],"lastUpdated":1547527612661,"name":"El Super Taco Taqueria","phone":"(253) 830-5843","price":"$","reviewCount":17,"reviewScore":3.5,"meta":{"revision":0,"created":1547531154958,"version":0},"$loki":210},{"_id":"5c3d65bd3525a329e0c04f31","address":"2125 SW 356th St","location":{"type":"Point","coordinates":[-122.300673,47.316256]},"isApproved":true,"items":[],"keys":["Burgers"],"lastUpdated":1547527612339,"name":"Flame Burger","phone":"(253) 661-8311","price":"$","reviewCount":74,"reviewScore":4,"meta":{"revision":0,"created":1547531154958,"version":0},"$loki":211},{"_id":"5c3d65bd3525a329e0c12d8c","address":"31845 Gateway Center Blvd S","location":{"type":"Point","coordinates":[-122.300645,47.316905]},"isApproved":true,"items":[],"keys":["Indian"],"lastUpdated":1547527612681,"name":"East India Grill","phone":"(253) 529-9292","price":"$$","reviewCount":412,"reviewScore":4,"meta":{"revision":0,"created":1547531154958,"version":0},"$loki":212},{"_id":"5c3d65bd3525a329e0c0da87","address":"23250 Pacific Hwy S","location":{"type":"Point","coordinates":[-122.299723916741,47.316867694781]},"isApproved":true,"items":[],"keys":["Food Trucks","Mexican"],"lastUpdated":1547527612556,"name":"Tacos San Juan","phone":"(253) 259-9833","price":"","reviewCount":21,"reviewScore":5,"meta":{"revision":0,"created":1547531154958,"version":0},"$loki":213},{"_id":"5c3d65bd3525a329e0c17d68","address":"2210 S 320th St","location":{"type":"Point","coordinates":[-122.303686179221,47.3168077447758]},"isApproved":true,"items":[],"keys":["Korean","Barbeque"],"lastUpdated":1547527612801,"name":"Western Garden","phone":"(206) 592-6093","price":"","reviewCount":18,"reviewScore":4.5,"meta":{"revision":0,"created":1547531154958,"version":0},"$loki":214},{"_id":"5c3d65bd3525a329e0c16532","address":"27317 Maple Valley Black Diamond Rd SE","location":{"type":"Point","coordinates":[-122.303270101547,47.3140462236697]},"isApproved":true,"items":[],"keys":["Pizza"],"lastUpdated":1547527612764,"name":"Frankie’s Pizza","phone":"(425) 413-8111","price":"$$","reviewCount":35,"reviewScore":4.5,"meta":{"revision":0,"created":1547531154958,"version":0},"$loki":215},{"_id":"5c3d65bd3525a329e0c12aaa","address":"2800 NE Sunset Blvd","location":{"type":"Point","coordinates":[-122.312983,47.302366]},"isApproved":true,"items":[],"keys":["Mexican","Food Trucks"],"lastUpdated":1547527612679,"name":"Taqueria Los Potrillos","phone":"","price":"$","reviewCount":44,"reviewScore":4.5,"meta":{"revision":0,"created":1547531154958,"version":0},"$loki":216},{"_id":"5c3d65bd3525a329e0c053d8","address":"1014 North St","location":{"type":"Point","coordinates":[-122.312544,47.302003]},"isApproved":true,"items":[],"keys":["American (New)","Breakfast & Brunch"],"lastUpdated":1547527612346,"name":"The Buttered Biscuit","phone":"(253) 826-6099","price":"$$","reviewCount":886,"reviewScore":3.5,"meta":{"revision":0,"created":1547531154958,"version":0},"$loki":217},{"_id":"5c3d65bd3525a329e0c0d320","address":"920 15th St SW","location":{"type":"Point","coordinates":[-122.312228679657,47.3025230613143]},"isApproved":true,"items":[],"keys":["Japanese"],"lastUpdated":1547527612546,"name":"Asiana Teriyaki","phone":"(253) 939-5587","price":"$","reviewCount":23,"reviewScore":4,"meta":{"revision":0,"created":1547531154958,"version":0},"$loki":218},{"_id":"5c3d65bd3525a329e0c159cb","address":"709 Opera Aly","location":{"type":"Point","coordinates":[-122.3128595,47.3025918]},"isApproved":true,"items":[],"keys":["American (New)","Wine Bars"],"lastUpdated":1547527612747,"name":"Over the Moon Cafe","phone":"(253) 284-3722","price":"$$","reviewCount":365,"reviewScore":4.5,"meta":{"revision":0,"created":1547531154958,"version":0},"$loki":219},{"_id":"5c3d65bd3525a329e0c1ab50","address":"3737 S G St","location":{"type":"Point","coordinates":[-122.3128595,47.3025918]},"isApproved":true,"items":[],"keys":["Mexican","Food Stands"],"lastUpdated":1547527612868,"name":"Taqueria La Fondita","phone":"(253) 472-2577","price":"$","reviewCount":62,"reviewScore":4.5,"meta":{"revision":0,"created":1547531154958,"version":0},"$loki":220},{"_id":"5c3d65bd3525a329e0c121a6","address":"22612 7th Ave S","location":{"type":"Point","coordinates":[-122.313042565607,47.3029056909194]},"isApproved":true,"items":[],"keys":["Cantonese"],"lastUpdated":1547527612663,"name":"Mandarin Kitchen","phone":"(206) 878-8511","price":"$$","reviewCount":177,"reviewScore":4,"meta":{"revision":0,"created":1547531154958,"version":0},"$loki":221},{"_id":"5c3d65bd3525a329e0c0ffcf","address":"221 Main Ave S","location":{"type":"Point","coordinates":[-122.313276082277,47.3027890717264]},"isApproved":true,"items":[],"keys":["German","Pubs","Beer Gardens"],"lastUpdated":1547527612609,"name":"Berliner Pub","phone":"(425) 277-1111","price":"$$","reviewCount":527,"reviewScore":4,"meta":{"revision":0,"created":1547531154958,"version":0},"$loki":222},{"_id":"5c3d65bd3525a329e0c115e8","address":"3500 S Meridian","location":{"type":"Point","coordinates":[-122.313286,47.303191]},"isApproved":true,"items":[],"keys":["American (Traditional)"],"lastUpdated":1547527612649,"name":"Okee Dokee Grill","phone":"(253) 848-5878","price":"$","reviewCount":18,"reviewScore":4,"meta":{"revision":0,"created":1547531154958,"version":0},"$loki":223},{"_id":"5c3d65bd3525a329e0c18f3f","address":"3312 Auburn Way S","location":{"type":"Point","coordinates":[-122.3126711,47.3043849]},"isApproved":true,"items":[],"keys":["Japanese"],"lastUpdated":1547527612832,"name":"New Teriyaki & Wok","phone":"(253) 351-9985","price":"$$","reviewCount":29,"reviewScore":4,"meta":{"revision":0,"created":1547531154958,"version":0},"$loki":224},{"_id":"5c3d65bd3525a329e0c07020","address":"320 SW Mt Si Blvd","location":{"type":"Point","coordinates":[-122.312862834266,47.3047768862875]},"isApproved":true,"items":[],"keys":["Sushi Bars"],"lastUpdated":1547527612388,"name":"Trapper’s Sushi - North Bend","phone":"(425) 292-9362","price":"$$","reviewCount":165,"reviewScore":4,"meta":{"revision":0,"created":1547531154958,"version":0},"$loki":225},{"_id":"5c3d65bd3525a329e0c003e5","address":"126 Washington Ave N","location":{"type":"Point","coordinates":[-122.3125604,47.3047634]},"isApproved":true,"items":[],"keys":["Chinese"],"lastUpdated":1547527612226,"name":"Golden Dynasty Restaurant","phone":"(253) 859-7025","price":"$$","reviewCount":67,"reviewScore":4,"meta":{"revision":0,"created":1547531154958,"version":0},"$loki":226},{"_id":"5c3d65bd3525a329e0c0aebc","address":"19321 Mountain Hwy E","location":{"type":"Point","coordinates":[-122.314179986715,47.3054099984579]},"isApproved":true,"items":[],"keys":["Japanese","Steakhouses"],"lastUpdated":1547527612491,"name":"Samurai’s Japanese Steakhouse","phone":"(253) 846-5557","price":"$$","reviewCount":176,"reviewScore":3.5,"meta":{"revision":0,"created":1547531154958,"version":0},"$loki":227},{"_id":"5c3d65bd3525a329e0c13262","address":"209 E Meeker St","location":{"type":"Point","coordinates":[-122.3139049,47.3077485]},"isApproved":true,"items":[],"keys":["Hot Dogs","Burgers","Beer Bar"],"lastUpdated":1547527612689,"name":"The AC Tavern","phone":"(253) 236-4553","price":"$","reviewCount":94,"reviewScore":4.5,"meta":{"revision":0,"created":1547531154958,"version":0},"$loki":228},{"_id":"5c3d65bd3525a329e0c12fbd","address":"4420 Pacific Hwy E","location":{"type":"Point","coordinates":[-122.312584,47.3053457]},"isApproved":true,"items":[],"keys":["Mexican"],"lastUpdated":1547527612688,"name":"Taqueria 3 Hermanos","phone":"(253) 235-5716","price":"$","reviewCount":34,"reviewScore":4.5,"meta":{"revision":0,"created":1547531154958,"version":0},"$loki":229},{"_id":"5c3d65bd3525a329e0c12d02","address":"23714 222nd Pl SE","location":{"type":"Point","coordinates":[-122.312229,47.3109862]},"isApproved":true,"items":[],"keys":["Chinese"],"lastUpdated":1547527612681,"name":"China Light","phone":"(425) 432-5027","price":"$","reviewCount":60,"reviewScore":4,"meta":{"revision":0,"created":1547531154958,"version":0},"$loki":230},{"_id":"5c3d65bd3525a329e0c0b163","address":"34525 16th Ave S","location":{"type":"Point","coordinates":[-122.3115704,47.3112765]},"isApproved":true,"items":[],"keys":["American (New)","Sports Bars"],"lastUpdated":1547527612497,"name":"Time Out Ale House","phone":"(253) 838-0086","price":"$$","reviewCount":133,"reviewScore":4,"meta":{"revision":0,"created":1547531154958,"version":0},"$loki":231},{"_id":"5c3d65bd3525a329e0c135b2","address":"528 Garfield St S","location":{"type":"Point","coordinates":[-122.3150896,47.3122546]},"isApproved":true,"items":[],"keys":["Poke","Ramen"],"lastUpdated":1547527612696,"name":"Zen Ramen & Sushi Burrito","phone":"(253) 292-0731","price":"","reviewCount":100,"reviewScore":4.5,"meta":{"revision":0,"created":1547531154958,"version":0},"$loki":232},{"_id":"5c3d65bd3525a329e0c1a15c","address":"9909 168th St E","location":{"type":"Point","coordinates":[-122.3140492,47.3087103]},"isApproved":true,"items":[],"keys":["Sushi Bars","Japanese","Bubble Tea"],"lastUpdated":1547527612857,"name":"Happy Bento","phone":"(253) 445-7909","price":"$$","reviewCount":154,"reviewScore":4,"meta":{"revision":0,"created":1547531154958,"version":0},"$loki":233},{"_id":"5c3d65bd3525a329e0bffe94","address":"1623 E 72nd St","location":{"type":"Point","coordinates":[-122.315059,47.301159]},"isApproved":true,"items":[],"keys":["Salad","Juice Bars & Smoothies","Cafes"],"lastUpdated":1547527612222,"name":"Garden’s Gourmet Salads, LLC","phone":"(253) 433-3736","price":"$$","reviewCount":58,"reviewScore":4.5,"meta":{"revision":0,"created":1547531154958,"version":0},"$loki":234},{"_id":"5c3d65bd3525a329e0c0ae09","address":"211 Washington Ave N","location":{"type":"Point","coordinates":[-122.315059,47.301159]},"isApproved":true,"items":[],"keys":["Hot Dogs","Burgers"],"lastUpdated":1547527612491,"name":"Herfys Burger","phone":"(360) 893-0580","price":"$$","reviewCount":34,"reviewScore":3.5,"meta":{"revision":0,"created":1547531154958,"version":0},"$loki":235},{"_id":"5c3d65bd3525a329e0bff6fc","address":"18230 E Valley Hwy","location":{"type":"Point","coordinates":[-122.3142187,47.3018603]},"isApproved":true,"items":[],"keys":["Karaoke","Japanese"],"lastUpdated":1547527612217,"name":"Taurus Karaoke & Lounge","phone":"(425) 686-8676","price":"","reviewCount":10,"reviewScore":4.5,"meta":{"revision":0,"created":1547531154958,"version":0},"$loki":236},{"_id":"5c3d65bd3525a329e0c0aa0b","address":"210 SW 43rd St","location":{"type":"Point","coordinates":[-122.3131864,47.2974435]},"isApproved":true,"items":[],"keys":["Hawaiian","American (Traditional)","Barbeque"],"lastUpdated":1547527612482,"name":"Aloha Grill","phone":"(425) 970-4599","price":"$","reviewCount":213,"reviewScore":4,"meta":{"revision":0,"created":1547531154958,"version":0},"$loki":237},{"_id":"5c3d65bd3525a329e0c0a3be","address":"208 SW 43rd St","location":{"type":"Point","coordinates":[-122.311727,47.2960815]},"isApproved":true,"items":[],"keys":["Chinese","Noodles","Seafood"],"lastUpdated":1547527612479,"name":"Little China","phone":"(425) 251-1022","price":"$$","reviewCount":169,"reviewScore":4,"meta":{"revision":0,"created":1547531154958,"version":0},"$loki":238},{"_id":"5c3d65bd3525a329e0c04e68","address":"1716 Pacific Ave","location":{"type":"Point","coordinates":[-122.3139147,47.2890147]},"isApproved":true,"items":[],"keys":["Hawaiian","Asian Fusion","Poke"],"lastUpdated":1547527612339,"name":"Poke to the Max- Tacoma","phone":"(253) 627-4099","price":"$$","reviewCount":130,"reviewScore":4,"meta":{"revision":0,"created":1547531154958,"version":0},"$loki":239},{"_id":"5c3d65bd3525a329e0c1b5bd","address":"2800 Southcenter Mall","location":{"type":"Point","coordinates":[-122.3139135,47.2890136]},"isApproved":true,"items":[],"keys":["Coffee & Tea","Acai Bowls","Gluten-Free"],"lastUpdated":1547527612886,"name":"Kitanda Espresso & Açaí","phone":"(425) 820-4381","price":"$","reviewCount":57,"reviewScore":4,"meta":{"revision":0,"created":1547531154958,"version":0},"$loki":240},{"_id":"5c3d65bd3525a329e0c0df8b","address":"437 Ramsay Way","location":{"type":"Point","coordinates":[-122.314042,47.2917804]},"isApproved":true,"items":[],"keys":["Ramen"],"lastUpdated":1547527612564,"name":"Shibu Ramen","phone":"(253) 246-7744","price":"$$","reviewCount":60,"reviewScore":3.5,"meta":{"revision":0,"created":1547531154958,"version":0},"$loki":241},{"_id":"5c3d65bd3525a329e0c164c3","address":"809 S 4th St","location":{"type":"Point","coordinates":[-122.3180153,47.2886553]},"isApproved":true,"items":[],"keys":["Pubs","American (Traditional)"],"lastUpdated":1547527612764,"name":"Whistle Stop Ale House","phone":"(425) 277-3039","price":"$$","reviewCount":309,"reviewScore":3.5,"meta":{"revision":0,"created":1547531154958,"version":0},"$loki":242},{"_id":"5c3d65bd3525a329e0c18d72","address":"1409 Griffin Ave","location":{"type":"Point","coordinates":[-122.317995059525,47.288107506564]},"isApproved":true,"items":[],"keys":["Pizza"],"lastUpdated":1547527612831,"name":"Cascadia Pizza","phone":"(253) 951-1892","price":"$","reviewCount":3,"reviewScore":4.5,"meta":{"revision":0,"created":1547531154958,"version":0},"$loki":243},{"_id":"5c3d65bd3525a329e0c13709","address":"4420 Pacific Hwy E","location":{"type":"Point","coordinates":[-122.31400425162,47.2869403166714]},"isApproved":true,"items":[],"keys":["Thai"],"lastUpdated":1547527612697,"name":"Thai Restaurant In Fife","phone":"(253) 896-4777","price":"$","reviewCount":140,"reviewScore":4,"meta":{"revision":0,"created":1547531154958,"version":0},"$loki":244},{"_id":"5c3d65bd3525a329e0c02380","address":"15717 Main St E","location":{"type":"Point","coordinates":[-122.3203243,47.2865033]},"isApproved":true,"items":[],"keys":["Diners"],"lastUpdated":1547527612277,"name":"Dixie’s Home Cookin","phone":"(253) 863-0111","price":"$$","reviewCount":132,"reviewScore":3.5,"meta":{"revision":0,"created":1547531154958,"version":0},"$loki":245},{"_id":"5c3d65bd3525a329e0c08ba6","address":"225 SW 7th St","location":{"type":"Point","coordinates":[-122.3148683,47.2820565]},"isApproved":true,"items":[],"keys":["American (Traditional)"],"lastUpdated":1547527612436,"name":"Jimmy Mac’s Roadhouse","phone":"(425) 227-6881","price":"$$","reviewCount":374,"reviewScore":4,"meta":{"revision":0,"created":1547531154958,"version":0},"$loki":246},{"_id":"5c3d65bd3525a329e0c1afef","address":"902 S Meridian","location":{"type":"Point","coordinates":[-122.2502147,47.296254]},"isApproved":true,"items":[],"keys":["Food Trucks","Food Stands"],"lastUpdated":1547527612876,"name":"Kaleenka Piroshky","phone":"","price":"","reviewCount":3,"reviewScore":5,"meta":{"revision":0,"created":1547531154958,"version":0},"$loki":247},{"_id":"5c3d65bd3525a329e0c0c935","address":"17801 International Blvd","location":{"type":"Point","coordinates":[-122.2474298,47.296091]},"isApproved":true,"items":[],"keys":["Wine Bars","Tapas/Small Plates"],"lastUpdated":1547527612526,"name":"Vino Volo","phone":"(206) 246-4801","price":"$$","reviewCount":194,"reviewScore":4,"meta":{"revision":0,"created":1547531154958,"version":0},"$loki":248},{"_id":"5c3d65bd3525a329e0c134eb","address":"31840 Pacific Hwy S","location":{"type":"Point","coordinates":[-122.245713,47.296244]},"isApproved":true,"items":[],"keys":["Japanese","Sushi Bars"],"lastUpdated":1547527612695,"name":"Koharu Restaurant","phone":"(253) 839-0052","price":"$$","reviewCount":223,"reviewScore":3.5,"meta":{"revision":0,"created":1547531154958,"version":0},"$loki":249},{"_id":"5c3d65bd3525a329e0c16cc4","address":"1002 Super Mall Way","location":{"type":"Point","coordinates":[-122.241883,47.296231]},"isApproved":true,"items":[],"keys":["American (Traditional)","Burgers"],"lastUpdated":1547527612774,"name":"Red Robin Gourmet Burgers","phone":"(253) 804-6550","price":"$$","reviewCount":221,"reviewScore":2.5,"meta":{"revision":0,"created":1547531154958,"version":0},"$loki":250},{"_id":"5c3d65bd3525a329e0bffeb6","address":"827 N 10th Pl","location":{"type":"Point","coordinates":[-122.2404518,47.2953013]},"isApproved":true,"items":[],"keys":["Vietnamese","Sandwiches","Noodles"],"lastUpdated":1547527612222,"name":"Papaya Vietnamese Cafe","phone":"(425) 917-1417","price":"$$","reviewCount":494,"reviewScore":3.5,"meta":{"revision":0,"created":1547531154958,"version":0},"$loki":251},{"_id":"5c3d65bd3525a329e0c0f9b6","address":"18012 W Valley Hwy","location":{"type":"Point","coordinates":[-122.243518127756,47.2996476918109]},"isApproved":true,"items":[],"keys":["Japanese"],"lastUpdated":1547527612600,"name":"Wok & Bowl","phone":"(425) 656-2992","price":"$","reviewCount":20,"reviewScore":4,"meta":{"revision":0,"created":1547531154958,"version":0},"$loki":252},{"_id":"5c3d65bd3525a329e0c0110b","address":"1314 72nd St E","location":{"type":"Point","coordinates":[-122.245398203275,47.2992987192882]},