{"filename":"-122.25-37.5","collections":[{"name":"restaurants","data":[{"_id":"5c3d65bd3525a329e0c0149f","address":"1000 Bush St","location":{"type":"Point","coordinates":[-122.271300181746,37.8181644393325]},"isApproved":true,"items":[],"keys":["Pizza","Salad","Coffee & Tea"],"lastUpdated":1547527612249,"name":"Gusto Pinsa Romana","phone":"(415) 678-5339","price":"","reviewCount":40,"reviewScore":5,"meta":{"revision":0,"created":1547531155016,"version":0},"$loki":1},{"_id":"5c3d65bd3525a329e0c12121","address":"46807 Warm Springs Blvd","location":{"type":"Point","coordinates":[-122.271300181746,37.8181644393325]},"isApproved":true,"items":[],"keys":["Hot Pot","Taiwanese","Comfort Food"],"lastUpdated":1547527612663,"name":"Boiling Point","phone":"(510) 498-8896","price":"$$","reviewCount":1098,"reviewScore":3,"meta":{"revision":0,"created":1547531155016,"version":0},"$loki":2},{"_id":"5c3d65bd3525a329e0c02987","address":"203 Parnassus Ave","location":{"type":"Point","coordinates":[-122.396616339684,37.7984671979957]},"isApproved":true,"items":[],"keys":["Middle Eastern","Mediterranean"],"lastUpdated":1547527612285,"name":"Taboun","phone":"(415) 566-9696","price":"$","reviewCount":216,"reviewScore":4,"meta":{"revision":0,"created":1547531155016,"version":0},"$loki":3},{"_id":"5c3d65bd3525a329e0c12dbb","address":"315 Main St","location":{"type":"Point","coordinates":[-122.399661,37.796996]},"isApproved":true,"items":[],"keys":["Italian"],"lastUpdated":1547527612681,"name":"Pasta Moon","phone":"(650) 726-5125","price":"$$","reviewCount":1077,"reviewScore":4,"meta":{"revision":0,"created":1547531155016,"version":0},"$loki":4},{"_id":"5c3d65bd3525a329e0c00cee","address":"31870 Alvarado Blvd","location":{"type":"Point","coordinates":[-122.396224717197,37.7947539493135]},"isApproved":true,"items":[],"keys":["Chinese"],"lastUpdated":1547527612231,"name":"Dragon House","phone":"(510) 477-8868","price":"$","reviewCount":352,"reviewScore":3.5,"meta":{"revision":0,"created":1547531155016,"version":0},"$loki":5},{"_id":"5c3d65bd3525a329e0c11507","address":"121 Spear St","location":{"type":"Point","coordinates":[-122.396224717197,37.7947539493135]},"isApproved":true,"items":[],"keys":["Breakfast & Brunch","Salad","Sandwiches"],"lastUpdated":1547527612643,"name":"SOMA Eats","phone":"(415) 543-7662","price":"","reviewCount":20,"reviewScore":4.5,"meta":{"revision":0,"created":1547531155016,"version":0},"$loki":6},{"_id":"5c3d65bd3525a329e0c0c82b","address":"1432 W San Carlos St","location":{"type":"Point","coordinates":[-122.401103,37.79154]},"isApproved":true,"items":[],"keys":["Breakfast & Brunch","Waffles","American (Traditional)"],"lastUpdated":1547527612526,"name":"The Breakfast Club","phone":"(408) 564-7150","price":"$$","reviewCount":1515,"reviewScore":4,"meta":{"revision":0,"created":1547531155016,"version":0},"$loki":7},{"_id":"5c3d65bd3525a329e0c0d298","address":"5114 3rd St","location":{"type":"Point","coordinates":[-122.401103,37.79154]},"isApproved":true,"items":[],"keys":["Cafes"],"lastUpdated":1547527612545,"name":"Word. A Cafe","phone":"(415) 500-2501","price":"","reviewCount":3,"reviewScore":5,"meta":{"revision":0,"created":1547531155016,"version":0},"$loki":8},{"_id":"5c3d65bd3525a329e0c01e91","address":"3900 San Pablo Ave","location":{"type":"Point","coordinates":[-122.4001214,37.7880475]},"isApproved":true,"items":[],"keys":["Mediterranean","Lebanese"],"lastUpdated":1547527612260,"name":"Wally’s Cafe","phone":"(510) 597-1303","price":"$","reviewCount":1631,"reviewScore":4.5,"meta":{"revision":0,"created":1547531155016,"version":0},"$loki":9},{"_id":"5c3d65bd3525a329e0c113fe","address":"42 Columbus Ave","location":{"type":"Point","coordinates":[-122.4001214,37.7880475]},"isApproved":true,"items":[],"keys":["Basque","Spanish","Tapas Bars"],"lastUpdated":1547527612643,"name":"Bask","phone":"(415) 392-2275","price":"$$","reviewCount":568,"reviewScore":4,"meta":{"revision":0,"created":1547531155016,"version":0},"$loki":10},{"_id":"5c3d65bd3525a329e0c04aa0","address":"326 Commercial St","location":{"type":"Point","coordinates":[-122.396686,37.790885]},"isApproved":true,"items":[],"keys":["Ethiopian","Vegan","Gluten-Free"],"lastUpdated":1547527612331,"name":"Yeshi Express","phone":"(650) 381-0929","price":"","reviewCount":2,"reviewScore":5,"meta":{"revision":0,"created":1547531155016,"version":0},"$loki":11},{"_id":"5c3d65bd3525a329e0c1976d","address":"3945 Broadway St","location":{"type":"Point","coordinates":[-122.396686,37.790885]},"isApproved":true,"items":[],"keys":["Mexican"],"lastUpdated":1547527612841,"name":"Tacos Michoacan","phone":"(707) 642-2349","price":"$","reviewCount":174,"reviewScore":3.5,"meta":{"revision":0,"created":1547531155016,"version":0},"$loki":12},{"_id":"5c3d65bd3525a329e0c1a7f9","address":"The Embarcadero","location":{"type":"Point","coordinates":[-122.3978496,37.7911219]},"isApproved":true,"items":[],"keys":["Spanish","Tapas/Small Plates"],"lastUpdated":1547527612867,"name":"Coqueta","phone":"(415) 704-8866","price":"$$$","reviewCount":1856,"reviewScore":4,"meta":{"revision":0,"created":1547531155016,"version":0},"$loki":13},{"_id":"5c3d65bd3525a329e0c04718","address":"180 Howard St","location":{"type":"Point","coordinates":[-122.3932155,37.7909253]},"isApproved":true,"items":[],"keys":["Vietnamese"],"lastUpdated":1547527612329,"name":"Banh Mi King","phone":"(415) 644-0893","price":"","reviewCount":15,"reviewScore":4,"meta":{"revision":0,"created":1547531155016,"version":0},"$loki":14},{"_id":"5c3d65bd3525a329e0c04d02","address":"3154 Fillmore St","location":{"type":"Point","coordinates":[-122.3932155,37.7909253]},"isApproved":true,"items":[],"keys":["Burgers","American (New)","Brasseries"],"lastUpdated":1547527612338,"name":"Cow Marlowe","phone":"(415) 508-5898","price":"","reviewCount":14,"reviewScore":4,"meta":{"revision":0,"created":1547531155016,"version":0},"$loki":15},{"_id":"5c3d65bd3525a329e0c0e8b3","address":"258 Sunset Ave","location":{"type":"Point","coordinates":[-122.392866,37.792137]},"isApproved":true,"items":[],"keys":["Thai","Laotian","Noodles"],"lastUpdated":1547527612575,"name":"Sukhothai Cuisine","phone":"(707) 399-8088","price":"$$","reviewCount":539,"reviewScore":4.5,"meta":{"revision":0,"created":1547531155016,"version":0},"$loki":16},{"_id":"5c3d65bd3525a329e0c1326f","address":"93 E Santa Clara St","location":{"type":"Point","coordinates":[-122.392866,37.792137]},"isApproved":true,"items":[],"keys":["American (New)","Bars"],"lastUpdated":1547527612689,"name":"3rd & Bourbon","phone":"(408) 320-2626","price":"","reviewCount":30,"reviewScore":4.5,"meta":{"revision":0,"created":1547531155016,"version":0},"$loki":17},{"_id":"5c3d65bd3525a329e0bffa71","address":"225 Cabrillo Hwy S","location":{"type":"Point","coordinates":[-122.393303,37.795831]},"isApproved":true,"items":[],"keys":["American (New)","Burgers","Sandwiches"],"lastUpdated":1547527612220,"name":"Dad’s Luncheonette","phone":"(650) 560-9832","price":"$$","reviewCount":348,"reviewScore":4.5,"meta":{"revision":0,"created":1547531155016,"version":0},"$loki":18},{"_id":"5c3d65bd3525a329e0c029d0","address":"127 Clement St","location":{"type":"Point","coordinates":[-122.392686848497,37.7813044077209]},"isApproved":true,"items":[],"keys":["Burmese","Asian Fusion","Breakfast & Brunch"],"lastUpdated":1547527612286,"name":"B Star Bar","phone":"(415) 933-9900","price":"$$","reviewCount":1776,"reviewScore":4,"meta":{"revision":0,"created":1547531155016,"version":0},"$loki":19},{"_id":"5c3d65bd3525a329e0c109d1","address":"521A 3rd St","location":{"type":"Point","coordinates":[-122.395329724426,37.7811065758548]},"isApproved":true,"items":[],"keys":["Korean","Asian Fusion","Mexican"],"lastUpdated":1547527612626,"name":"HRD","phone":"(415) 543-2355","price":"$$","reviewCount":2391,"reviewScore":4,"meta":{"revision":0,"created":1547531155016,"version":0},"$loki":20},{"_id":"5c3d65bd3525a329e0c08cb0","address":"5301 College Ave","location":{"type":"Point","coordinates":[-122.3915063,37.7890183]},"isApproved":true,"items":[],"keys":["Pizza"],"lastUpdated":1547527612436,"name":"Pizza Marica","phone":"(510) 985-8388","price":"","reviewCount":48,"reviewScore":4.5,"meta":{"revision":0,"created":1547531155016,"version":0},"$loki":21},{"_id":"5c3d65bd3525a329e0c135b7","address":"2306 Central Ave","location":{"type":"Point","coordinates":[-122.3915063,37.7890183]},"isApproved":true,"items":[],"keys":["Halal","Mediterranean"],"lastUpdated":1547527612696,"name":"Q’s Halal “Mediterranean Comfort”","phone":"(510) 227-5870","price":"$","reviewCount":584,"reviewScore":4.5,"meta":{"revision":0,"created":1547531155016,"version":0},"$loki":22},{"_id":"5c3d65bd3525a329e0c09768","address":"13670 Arnold Dr","location":{"type":"Point","coordinates":[-122.3985641,37.7845584]},"isApproved":true,"items":[],"keys":["Bars","Seafood","American (New)"],"lastUpdated":1547527612461,"name":"Glen Ellen Inn","phone":"(707) 996-6409","price":"$$","reviewCount":299,"reviewScore":4,"meta":{"revision":0,"created":1547531155016,"version":0},"$loki":23},{"_id":"5c3d65bd3525a329e0c13f25","address":"234 Main St","location":{"type":"Point","coordinates":[-122.3985641,37.7845584]},"isApproved":true,"items":[],"keys":["Sports Bars","Burgers","Chicken Wings"],"lastUpdated":1547527612706,"name":"Neighborhood Sports Bar and Kitchen","phone":"(925) 846-2426","price":"$$","reviewCount":91,"reviewScore":4,"meta":{"revision":0,"created":1547531155016,"version":0},"$loki":24},{"_id":"5c3d65bd3525a329e0c18b79","address":"845 Irving St","location":{"type":"Point","coordinates":[-122.3985641,37.7845584]},"isApproved":true,"items":[],"keys":["Korean"],"lastUpdated":1547527612824,"name":"Manna","phone":"(415) 665-5969","price":"$$","reviewCount":971,"reviewScore":4,"meta":{"revision":0,"created":1547531155016,"version":0},"$loki":25},{"_id":"5c3d65bd3525a329e0c0d3d2","address":"2909 Sonoma Blvd","location":{"type":"Point","coordinates":[-122.3987198,37.7875162]},"isApproved":true,"items":[],"keys":["Cajun/Creole","Seafood","Southern"],"lastUpdated":1547527612546,"name":"The Cajun Hut","phone":"(510) 776-0789","price":"","reviewCount":1,"reviewScore":5,"meta":{"revision":0,"created":1547531155016,"version":0},"$loki":26},{"_id":"5c3d65bd3525a329e0c1994b","address":"393 Eddy St","location":{"type":"Point","coordinates":[-122.3987198,37.7875162]},"isApproved":true,"items":[],"keys":["Fast Food","Chicken Wings"],"lastUpdated":1547527612843,"name":"Krispy Krunchy Chicken","phone":"(415) 875-9740","price":"","reviewCount":6,"reviewScore":4.5,"meta":{"revision":0,"created":1547531155016,"version":0},"$loki":27},{"_id":"5c3d65bd3525a329e0c0e844","address":"142 Minna St","location":{"type":"Point","coordinates":[-122.40049,37.7868164]},"isApproved":true,"items":[],"keys":["American (New)","Breakfast & Brunch","Gastropubs"],"lastUpdated":1547527612575,"name":"The Pink Elephant Alibi","phone":"","price":"$$","reviewCount":1009,"reviewScore":4,"meta":{"revision":0,"created":1547531155016,"version":0},"$loki":28},{"_id":"5c3d65bd3525a329e0c07cdc","address":"4348 California St","location":{"type":"Point","coordinates":[-122.4000987,37.7872431]},"isApproved":true,"items":[],"keys":["Burmese"],"lastUpdated":1547527612411,"name":"Mandalay","phone":"(415) 386-3896","price":"$$","reviewCount":2068,"reviewScore":4,"meta":{"revision":0,"created":1547531155016,"version":0},"$loki":29},{"_id":"5c3d65bd3525a329e0bff82b","address":"552 Jones St","location":{"type":"Point","coordinates":[-122.402965373019,37.7800134026795]},"isApproved":true,"items":[],"keys":["Filipino"],"lastUpdated":1547527612218,"name":"Tselogs","phone":"(415) 658-7142","price":"$","reviewCount":486,"reviewScore":4.5,"meta":{"revision":0,"created":1547531155016,"version":0},"$loki":30},{"_id":"5c3d65bd3525a329e0c08e14","address":"507 Magnolia Ave","location":{"type":"Point","coordinates":[-122.4070584,37.7776682]},"isApproved":true,"items":[],"keys":["French","Bars"],"lastUpdated":1547527612438,"name":"Left Bank Brasserie - Larkspur","phone":"(415) 927-3331","price":"$$$","reviewCount":478,"reviewScore":3.5,"meta":{"revision":0,"created":1547531155016,"version":0},"$loki":31},{"_id":"5c3d65bd3525a329e0c05999","address":"937 Taraval St","location":{"type":"Point","coordinates":[-122.4125048,37.7743]},"isApproved":true,"items":[],"keys":["Chinese","Noodles","Taiwanese"],"lastUpdated":1547527612355,"name":"House Of Pancakes","phone":"(415) 681-8388","price":"$","reviewCount":828,"reviewScore":4,"meta":{"revision":0,"created":1547531155016,"version":0},"$loki":32},{"_id":"5c3d65bd3525a329e0c05f44","address":"1358 N Main St","location":{"type":"Point","coordinates":[-122.4106676,37.7813803]},"isApproved":true,"items":[],"keys":["American (New)"],"lastUpdated":1547527612367,"name":"Main Street Kitchen","phone":"(925) 933-1001","price":"$$","reviewCount":596,"reviewScore":3.5,"meta":{"revision":0,"created":1547531155016,"version":0},"$loki":33},{"_id":"5c3d65bd3525a329e0bffbe3","address":"306 Broderick St","location":{"type":"Point","coordinates":[-122.402068620684,37.7841774486315]},"isApproved":true,"items":[],"keys":["Mexican","Gluten-Free"],"lastUpdated":1547527612221,"name":"Nopalito","phone":"(415) 535-3969","price":"$$","reviewCount":1768,"reviewScore":4,"meta":{"revision":0,"created":1547531155016,"version":0},"$loki":34},{"_id":"5c3d65bd3525a329e0c0d5d5","address":"100 Yacht Club Dr","location":{"type":"Point","coordinates":[-122.403918653727,37.7853008468227]},"isApproved":true,"items":[],"keys":["American (New)"],"lastUpdated":1547527612548,"name":"Terrapin Crossroads","phone":"(415) 524-2773","price":"$$","reviewCount":662,"reviewScore":3.5,"meta":{"revision":0,"created":1547531155016,"version":0},"$loki":35},{"_id":"5c3d65bd3525a329e0c01ef8","address":"71 3rd St","location":{"type":"Point","coordinates":[-122.4023052,37.7866653]},"isApproved":true,"items":[],"keys":["Mediterranean","Middle Eastern"],"lastUpdated":1547527612260,"name":"Oren’s Hummus","phone":"(415) 915-6736","price":"$$","reviewCount":242,"reviewScore":4,"meta":{"revision":0,"created":1547531155016,"version":0},"$loki":36},{"_id":"5c3d65bd3525a329e0bff4be","address":"2332 Clement St","location":{"type":"Point","coordinates":[-122.401928,37.786685]},"isApproved":true,"items":[],"keys":["Seafood","Vietnamese","Asian Fusion"],"lastUpdated":1547527612216,"name":"PPQ Dungeness Island","phone":"(415) 386-8266","price":"$$","reviewCount":2889,"reviewScore":4,"meta":{"revision":0,"created":1547531155016,"version":0},"$loki":37},{"_id":"5c3d65bd3525a329e0c1956b","address":"1313 Main St","location":{"type":"Point","coordinates":[-122.401928,37.786685]},"isApproved":true,"items":[],"keys":["Mexican","Cocktail Bars"],"lastUpdated":1547527612840,"name":"Gran Electrica","phone":"(707) 258-1313","price":"$$","reviewCount":111,"reviewScore":4,"meta":{"revision":0,"created":1547531155016,"version":0},"$loki":38},{"_id":"5c3d65bd3525a329e0c148c7","address":"","location":{"type":"Point","coordinates":[-122.4064206,37.7866386]},"isApproved":true,"items":[],"keys":["Food Trucks","Italian","Caterers"],"lastUpdated":1547527612727,"name":"Che Buono","phone":"(916) 430-6663","price":"$$","reviewCount":31,"reviewScore":4.5,"meta":{"revision":0,"created":1547531155016,"version":0},"$loki":39},{"_id":"5c3d65bd3525a329e0c08fe0","address":"3224 22nd St","location":{"type":"Point","coordinates":[-122.4016405,37.7942792]},"isApproved":true,"items":[],"keys":["Dim Sum","Asian Fusion","Cantonese"],"lastUpdated":1547527612438,"name":"Pushcart Fare","phone":"(415) 957-1688","price":"","reviewCount":20,"reviewScore":4,"meta":{"revision":0,"created":1547531155016,"version":0},"$loki":40},{"_id":"5c3d65bd3525a329e0c0cfd9","address":"2150 Chestnut St","location":{"type":"Point","coordinates":[-122.4031462,37.7959282]},"isApproved":true,"items":[],"keys":["Thai","Breakfast & Brunch","Asian Fusion"],"lastUpdated":1547527612539,"name":"Blackwood","phone":"(415) 931-9663","price":"$$","reviewCount":1386,"reviewScore":4,"meta":{"revision":0,"created":1547531155016,"version":0},"$loki":41},{"_id":"5c3d65bd3525a329e0c07a61","address":"1052 Folsom St","location":{"type":"Point","coordinates":[-122.4107015,37.7898057]},"isApproved":true,"items":[],"keys":["Fondue","American (New)"],"lastUpdated":1547527612409,"name":"Fondue Cowboy","phone":"(415) 431-5100","price":"$$","reviewCount":551,"reviewScore":4,"meta":{"revision":0,"created":1547531155016,"version":0},"$loki":42},{"_id":"5c3d65bd3525a329e0c0d98a","address":"1016 Court St","location":{"type":"Point","coordinates":[-122.409671,37.7873662]},"isApproved":true,"items":[],"keys":["American (New)","Sandwiches","Salad"],"lastUpdated":1547527612555,"name":"Magnolia Park Kitchen","phone":"(415) 521-5591","price":"$$","reviewCount":137,"reviewScore":4.5,"meta":{"revision":0,"created":1547531155016,"version":0},"$loki":43},{"_id":"5c3d65bd3525a329e0c19d28","address":"1600 G St","location":{"type":"Point","coordinates":[-122.409671,37.7873662]},"isApproved":true,"items":[],"keys":["Tacos"],"lastUpdated":1547527612850,"name":"Taqueria Adame","phone":"(925) 481-2681","price":"","reviewCount":5,"reviewScore":5,"meta":{"revision":0,"created":1547531155016,"version":0},"$loki":44},{"_id":"5c3d65bd3525a329e0c0e5e0","address":"1409 Sutter St","location":{"type":"Point","coordinates":[-122.4140304,37.783622]},"isApproved":true,"items":[],"keys":["American (New)","French","Venues & Event Spaces"],"lastUpdated":1547527612573,"name":"The 1881","phone":"(415) 213-2746","price":"","reviewCount":15,"reviewScore":4,"meta":{"revision":0,"created":1547531155016,"version":0},"$loki":45},{"_id":"5c3d65bd3525a329e0c0cb94","address":"1772 Broadway St","location":{"type":"Point","coordinates":[-122.4175939,37.7840687]},"isApproved":true,"items":[],"keys":["Seafood","Latin American","Mexican"],"lastUpdated":1547527612533,"name":"La Viga Seafood & Cocina Mexicana","phone":"(650) 679-8141","price":"$$","reviewCount":1267,"reviewScore":4.5,"meta":{"revision":0,"created":1547531155016,"version":0},"$loki":46},{"_id":"5c3d65bd3525a329e0c1769a","address":"374 Merchant St","location":{"type":"Point","coordinates":[-122.4175939,37.7840687]},"isApproved":true,"items":[],"keys":["Mexican","Spanish","Asian Fusion"],"lastUpdated":1547527612791,"name":"Chavelas Kitchen","phone":"(707) 446-0111","price":"$","reviewCount":89,"reviewScore":4.5,"meta":{"revision":0,"created":1547531155016,"version":0},"$loki":47},{"_id":"5c3d65bd3525a329e0c17413","address":"2240 Chestnut St","location":{"type":"Point","coordinates":[-122.4129672,37.7865155]},"isApproved":true,"items":[],"keys":["Poke","Hawaiian","Japanese"],"lastUpdated":1547527612789,"name":"ELEMENTAL Poke","phone":"(415) 723-5153","price":"","reviewCount":3,"reviewScore":5,"meta":{"revision":0,"created":1547531155016,"version":0},"$loki":48},{"_id":"5c3d65bd3525a329e0c0f7d7","address":"52 Grove St","location":{"type":"Point","coordinates":[-122.4145835,37.7882347]},"isApproved":true,"items":[],"keys":["Cafes","Breakfast & Brunch","Ice Cream & Frozen Yogurt"],"lastUpdated":1547527612600,"name":"Bi-Rite Cafe at Civic Center Plaza","phone":"(415) 710-0633","price":"","reviewCount":21,"reviewScore":4,"meta":{"revision":0,"created":1547531155016,"version":0},"$loki":49},{"_id":"5c3d65bd3525a329e0c1abf1","address":"993 North Point St","location":{"type":"Point","coordinates":[-122.4145835,37.7882347]},"isApproved":true,"items":[],"keys":["Indian","Asian Fusion","Halal"],"lastUpdated":1547527612869,"name":"Amirah","phone":"(415) 447-3827","price":"","reviewCount":4,"reviewScore":5,"meta":{"revision":0,"created":1547531155016,"version":0},"$loki":50},{"_id":"5c3d65bd3525a329e0c19088","address":"150 W Juana Ave","location":{"type":"Point","coordinates":[-122.413919270039,37.7896740586658]},"isApproved":true,"items":[],"keys":["Sports Bars","American (Traditional)","Sandwiches"],"lastUpdated":1547527612832,"name":"Sons of Liberty Alehouse","phone":"(510) 352-7652","price":"$$","reviewCount":547,"reviewScore":4,"meta":{"revision":0,"created":1547531155016,"version":0},"$loki":51},{"_id":"5c3d65bd3525a329e0c1a1f4","address":"260 El Camino Real","location":{"type":"Point","coordinates":[-122.413919270039,37.7896740586658]},"isApproved":true,"items":[],"keys":["Japanese","Breakfast & Brunch","Hawaiian"],"lastUpdated":1547527612858,"name":"Morning Wood","phone":"","price":"$$","reviewCount":661,"reviewScore":4,"meta":{"revision":0,"created":1547531155016,"version":0},"$loki":52},{"_id":"5c3d65bd3525a329e0c0f784","address":"1789 Rumrill Blvd","location":{"type":"Point","coordinates":[-122.4180126,37.7878316]},"isApproved":true,"items":[],"keys":["Burgers","American (Traditional)","Sandwiches"],"lastUpdated":1547527612599,"name":"Alex’s Giant Burger","phone":"(510) 233-0009","price":"$","reviewCount":162,"reviewScore":4.5,"meta":{"revision":0,"created":1547531155016,"version":0},"$loki":53},{"_id":"5c3d65bd3525a329e0c12405","address":"32136 Alvarado Blvd","location":{"type":"Point","coordinates":[-122.4180126,37.7878316]},"isApproved":true,"items":[],"keys":["Ramen","Noodles"],"lastUpdated":1547527612670,"name":"Yokohama Iekei Ramen","phone":"(510) 675-7433","price":"$$","reviewCount":1184,"reviewScore":3.5,"meta":{"revision":0,"created":1547531155016,"version":0},"$loki":54},{"_id":"5c3d65bd3525a329e0c095c9","address":"1031 Irving St","location":{"type":"Point","coordinates":[-122.4239125,37.7883731]},"isApproved":true,"items":[],"keys":["Chinese","Chicken Wings","Noodles"],"lastUpdated":1547527612453,"name":"San Tung","phone":"(415) 242-0828","price":"$$","reviewCount":6336,"reviewScore":4,"meta":{"revision":0,"created":1547531155016,"version":0},"$loki":55},{"_id":"5c3d65bd3525a329e0c13a4b","address":"3035 Travis Blvd","location":{"type":"Point","coordinates":[-122.4239125,37.7883731]},"isApproved":true,"items":[],"keys":["Filipino"],"lastUpdated":1547527612698,"name":"U-IT Filipino Cuisine","phone":"(707) 862-2784","price":"","reviewCount":24,"reviewScore":4,"meta":{"revision":0,"created":1547531155016,"version":0},"$loki":56},{"_id":"5c3d65bd3525a329e0c021b8","address":"1810 Springs Rd","location":{"type":"Point","coordinates":[-122.423591369312,37.7873184067081]},"isApproved":true,"items":[],"keys":["Seafood","Noodles","International Grocery"],"lastUpdated":1547527612275,"name":"Pinoy Fried Oriental Store","phone":"(707) 645-8339","price":"$","reviewCount":27,"reviewScore":4.5,"meta":{"revision":0,"created":1547531155016,"version":0},"$loki":57},{"_id":"5c3d65bd3525a329e0c19f1e","address":"531 Divisadero St","location":{"type":"Point","coordinates":[-122.4238528,37.7870775]},"isApproved":true,"items":[],"keys":["Mediterranean","Greek"],"lastUpdated":1547527612851,"name":"Souvla","phone":"(415) 400-5458","price":"$$","reviewCount":366,"reviewScore":4,"meta":{"revision":0,"created":1547531155016,"version":0},"$loki":58},{"_id":"5c3d65bd3525a329e0c0df8c","address":"315 5th St","location":{"type":"Point","coordinates":[-122.418578,37.7842971]},"isApproved":true,"items":[],"keys":["French","Desserts","Salad"],"lastUpdated":1547527612564,"name":"Mathilde French Bistro","phone":"(415) 546-6128","price":"$$$","reviewCount":194,"reviewScore":4.5,"meta":{"revision":0,"created":1547531155016,"version":0},"$loki":59},{"_id":"5c3d65bd3525a329e0c0c58a","address":"297 Page St","location":{"type":"Point","coordinates":[-122.4206789,37.7833064]},"isApproved":true,"items":[],"keys":["French","Breakfast & Brunch"],"lastUpdated":1547527612524,"name":"Revelry Bistro","phone":"(415) 241-6833","price":"$$$","reviewCount":179,"reviewScore":4.5,"meta":{"revision":0,"created":1547531155016,"version":0},"$loki":60},{"_id":"5c3d65bd3525a329e0c050a9","address":"225 Cabrillo Hwy S","location":{"type":"Point","coordinates":[-122.419043442957,37.7829016035273]},"isApproved":true,"items":[],"keys":["Spanish","Seafood","Tapas/Small Plates"],"lastUpdated":1547527612340,"name":"Romesco Bistro & Tapas","phone":"(650) 560-8174","price":"$$","reviewCount":171,"reviewScore":4,"meta":{"revision":0,"created":1547531155016,"version":0},"$loki":61},{"_id":"5c3d65bd3525a329e0c14e02","address":"856 N Delaware St","location":{"type":"Point","coordinates":[-122.4146118,37.780951]},"isApproved":true,"items":[],"keys":["Ramen"],"lastUpdated":1547527612730,"name":"Totoro Ramen","phone":"(650) 781-3137","price":"$$","reviewCount":143,"reviewScore":4,"meta":{"revision":0,"created":1547531155016,"version":0},"$loki":62},{"_id":"5c3d65bd3525a329e0c15879","address":"15 Shoreline Hwy","location":{"type":"Point","coordinates":[-122.4146118,37.780951]},"isApproved":true,"items":[],"keys":["Steakhouses","American (Traditional)","Desserts"],"lastUpdated":1547527612747,"name":"Buckeye Roadhouse","phone":"(415) 331-2600","price":"$$$","reviewCount":1202,"reviewScore":4,"meta":{"revision":0,"created":1547531155016,"version":0},"$loki":63},{"_id":"5c3d65bd3525a329e0c1940a","address":"3119 Clement St","location":{"type":"Point","coordinates":[-122.416996789185,37.7789061316369]},"isApproved":true,"items":[],"keys":["Moroccan"],"lastUpdated":1547527612840,"name":"El Mansour","phone":"(415) 751-2312","price":"$$$","reviewCount":569,"reviewScore":4,"meta":{"revision":0,"created":1547531155016,"version":0},"$loki":64},{"_id":"5c3d65bd3525a329e0c0eabd","address":"5512 Geary Blvd","location":{"type":"Point","coordinates":[-122.4238573,37.7712462]},"isApproved":true,"items":[],"keys":["Hot Pot","Chinese"],"lastUpdated":1547527612581,"name":"Boiling Hot Pot","phone":"(415) 221-1188","price":"$$","reviewCount":738,"reviewScore":4.5,"meta":{"revision":0,"created":1547531155016,"version":0},"$loki":65},{"_id":"5c3d65bd3525a329e0c046c6","address":"26775 Hayward Blvd","location":{"type":"Point","coordinates":[-122.4290069,37.7724837]},"isApproved":true,"items":[],"keys":["Coffee & Tea","Cafes","Barbeque"],"lastUpdated":1547527612329,"name":"Pearl’s","phone":"(510) 363-8336","price":"$","reviewCount":65,"reviewScore":4.5,"meta":{"revision":0,"created":1547531155016,"version":0},"$loki":66},{"_id":"5c3d65bd3525a329e0c08828","address":"2445 Springs Rd","location":{"type":"Point","coordinates":[-122.4290069,37.7724837]},"isApproved":true,"items":[],"keys":["Fast Food","Hot Dogs"],"lastUpdated":1547527612428,"name":"Sac’s Tasty Hot Dogs","phone":"(707) 642-2442","price":"$","reviewCount":411,"reviewScore":4.5,"meta":{"revision":0,"created":1547531155016,"version":0},"$loki":67},{"_id":"5c3d65bd3525a329e0c0f89a","address":"2058 Mountain Blvd","location":{"type":"Point","coordinates":[-122.4255561,37.7735395]},"isApproved":true,"items":[],"keys":["Wine Bars","Mediterranean","French"],"lastUpdated":1547527612600,"name":"Perle Wine Bar","phone":"(510) 808-7767","price":"$$$","reviewCount":172,"reviewScore":4.5,"meta":{"revision":0,"created":1547531155016,"version":0},"$loki":68},{"_id":"5c3d65bd3525a329e0c04826","address":"18818 Cox Ave","location":{"type":"Point","coordinates":[-122.4265958,37.7767801]},"isApproved":true,"items":[],"keys":["Chinese","Noodles"],"lastUpdated":1547527612330,"name":"575 Yunnan Eatery","phone":"(408) 628-0751","price":"$$","reviewCount":112,"reviewScore":4,"meta":{"revision":0,"created":1547531155016,"version":0},"$loki":69},{"_id":"5c3d65bd3525a329e0c1a3a4","address":"1444 W Texas St","location":{"type":"Point","coordinates":[-122.4265958,37.7767801]},"isApproved":true,"items":[],"keys":["Mexican"],"lastUpdated":1547527612858,"name":"La Dona","phone":"(707) 759-4575","price":"$$","reviewCount":174,"reviewScore":4.5,"meta":{"revision":0,"created":1547531155016,"version":0},"$loki":70},{"_id":"5c3d65bd3525a329e0c0fbf8","address":"2020 Mission St","location":{"type":"Point","coordinates":[-122.4306087,37.7717637]},"isApproved":true,"items":[],"keys":["Arabian","Asian Fusion"],"lastUpdated":1547527612601,"name":"Aramex","phone":"(415) 923-8481","price":"","reviewCount":2,"reviewScore":5,"meta":{"revision":0,"created":1547531155016,"version":0},"$loki":71},{"_id":"5c3d65bd3525a329e0c13c16","address":"1220 9th Ave","location":{"type":"Point","coordinates":[-122.430675700307,37.7721665317965]},"isApproved":true,"items":[],"keys":["Korean"],"lastUpdated":1547527612705,"name":"The Korean Kitchen","phone":"(415) 566-5777","price":"$$","reviewCount":200,"reviewScore":3.5,"meta":{"revision":0,"created":1547531155016,"version":0},"$loki":72},{"_id":"5c3d65bd3525a329e0c01ebf","address":"","location":{"type":"Point","coordinates":[-122.4304886,37.7713355]},"isApproved":true,"items":[],"keys":["Food Stands"],"lastUpdated":1547527612260,"name":"Your Taco Guy","phone":"(844) 822-6489","price":"$$","reviewCount":54,"reviewScore":5,"meta":{"revision":0,"created":1547531155016,"version":0},"$loki":73},{"_id":"5c3d65bd3525a329e0c09690","address":"6534 Washington St","location":{"type":"Point","coordinates":[-122.4304886,37.7713355]},"isApproved":true,"items":[],"keys":["French","Venues & Event Spaces","Breakfast & Brunch"],"lastUpdated":1547527612454,"name":"Bouchon","phone":"(707) 944-8037","price":"$$$","reviewCount":2751,"reviewScore":4,"meta":{"revision":0,"created":1547531155016,"version":0},"$loki":74},{"_id":"5c3d65bd3525a329e0c08920","address":"1015 Irving St","location":{"type":"Point","coordinates":[-122.438993048014,37.77343530099]},"isApproved":true,"items":[],"keys":["Vietnamese","Chinese","Noodles"],"lastUpdated":1547527612429,"name":"Yummy Yummy","phone":"(415) 566-4722","price":"$$","reviewCount":1338,"reviewScore":4,"meta":{"revision":0,"created":1547531155016,"version":0},"$loki":75},{"_id":"5c3d65bd3525a329e0c13ed2","address":"359 Divisadero St","location":{"type":"Point","coordinates":[-122.4375768,37.7730052]},"isApproved":true,"items":[],"keys":["Pizza","Pop-Up Restaurants"],"lastUpdated":1547527612706,"name":"Square Pie Guys","phone":"","price":"","reviewCount":31,"reviewScore":5,"meta":{"revision":0,"created":1547531155016,"version":0},"$loki":76},{"_id":"5c3d65bd3525a329e0bff58d","address":"312 Divisadero St","location":{"type":"Point","coordinates":[-122.4370142,37.7725141]},"isApproved":true,"items":[],"keys":["Thai","Ramen"],"lastUpdated":1547527612217,"name":"Mangrove Kitchen","phone":"(415) 552-6881","price":"$$","reviewCount":116,"reviewScore":4,"meta":{"revision":0,"created":1547531155016,"version":0},"$loki":77},{"_id":"5c3d65bd3525a329e0c1a14b","address":"65 29th St","location":{"type":"Point","coordinates":[-122.437982037663,37.7745092706543]},"isApproved":true,"items":[],"keys":["Southern","Cajun/Creole"],"lastUpdated":1547527612857,"name":"The Front Porch","phone":"(415) 695-7800","price":"$$","reviewCount":2615,"reviewScore":4,"meta":{"revision":0,"created":1547531155016,"version":0},"$loki":78},{"_id":"5c3d65bd3525a329e0c0bd84","address":"1000 Great Hwy","location":{"type":"Point","coordinates":[-122.4375671,37.7748935]},"isApproved":true,"items":[],"keys":["Breweries","American (Traditional)","Breakfast & Brunch"],"lastUpdated":1547527612515,"name":"The Beach Chalet Brewery & Restaurant","phone":"(415) 386-8439","price":"$$","reviewCount":2557,"reviewScore":3,"meta":{"revision":0,"created":1547531155016,"version":0},"$loki":79},{"_id":"5c3d65bd3525a329e0c1319a","address":"208 Corte Madera Town Ctr","location":{"type":"Point","coordinates":[-122.438551256878,37.7781489203981]},"isApproved":true,"items":[],"keys":["Wraps","Bubble Tea","Fast Food"],"lastUpdated":1547527612689,"name":"World Wrapps","phone":"(415) 927-3663","price":"$$","reviewCount":194,"reviewScore":4.5,"meta":{"revision":0,"created":1547531155016,"version":0},"$loki":80},{"_id":"5c3d65bd3525a329e0c145d9","address":"688 Mission St","location":{"type":"Point","coordinates":[-122.446032238623,37.7757521780078]},"isApproved":true,"items":[],"keys":["Pizza","Italian","Wine Bars"],"lastUpdated":1547527612715,"name":"Pizzeria Delfina","phone":"(415) 286-9426","price":"","reviewCount":12,"reviewScore":5,"meta":{"revision":0,"created":1547531155016,"version":0},"$loki":81},{"_id":"5c3d65bd3525a329e0c0d914","address":"459 Prospect Way","location":{"type":"Point","coordinates":[-122.43507770852,37.785735681426]},"isApproved":true,"items":[],"keys":["Italian","Seafood","Pizza"],"lastUpdated":1547527612555,"name":"Mezza Luna Restaurant","phone":"(650) 728-8108","price":"$$","reviewCount":666,"reviewScore":4,"meta":{"revision":0,"created":1547531155016,"version":0},"$loki":82},{"_id":"5c3d65bd3525a329e0c02f7a","address":"1318 Grant Ave","location":{"type":"Point","coordinates":[-122.43015,37.785801]},"isApproved":true,"items":[],"keys":["Persian/Iranian"],"lastUpdated":1547527612295,"name":"Dizi","phone":"(415) 757-0775","price":"","reviewCount":4,"reviewScore":5,"meta":{"revision":0,"created":1547531155016,"version":0},"$loki":83},{"_id":"5c3d65bd3525a329e0c01810","address":"1155 California Dr","location":{"type":"Point","coordinates":[-122.432075,37.785155]},"isApproved":true,"items":[],"keys":["Japanese"],"lastUpdated":1547527612251,"name":"Mokutanya","phone":"(650) 348-9388","price":"$$","reviewCount":1644,"reviewScore":4,"meta":{"revision":0,"created":1547531155016,"version":0},"$loki":84},{"_id":"5c3d65bd3525a329e0c11931","address":"2001 Chestnut St","location":{"type":"Point","coordinates":[-122.432791119359,37.7840954508032]},"isApproved":true,"items":[],"keys":["American (Traditional)","Cocktail Bars","Gastropubs"],"lastUpdated":1547527612651,"name":"The Dorian","phone":"(415) 814-2671","price":"$$","reviewCount":439,"reviewScore":4,"meta":{"revision":0,"created":1547531155016,"version":0},"$loki":85},{"_id":"5c3d65bd3525a329e0c10d30","address":"45 Crescent Dr","location":{"type":"Point","coordinates":[-122.4326195,37.7819426]},"isApproved":true,"items":[],"keys":["American (New)","Bars"],"lastUpdated":1547527612633,"name":"Fat Maddie’s Barrelhouse & Bistro","phone":"(925) 849-4482","price":"$$","reviewCount":230,"reviewScore":4,"meta":{"revision":0,"created":1547531155016,"version":0},"$loki":86},{"_id":"5c3d65bd3525a329e0c069f7","address":"818 1st St","location":{"type":"Point","coordinates":[-122.429177,37.7852847]},"isApproved":true,"items":[],"keys":["Indian"],"lastUpdated":1547527612379,"name":"Aroma Indian Cuisine","phone":"(707) 745-1870","price":"$$","reviewCount":377,"reviewScore":4,"meta":{"revision":0,"created":1547531155016,"version":0},"$loki":87},{"_id":"5c3d65bd3525a329e0c0889f","address":"115 Hamilton Ave","location":{"type":"Point","coordinates":[-122.429177,37.7852847]},"isApproved":true,"items":[],"keys":["Coffee & Tea","Tapas/Small Plates","Breakfast & Brunch"],"lastUpdated":1547527612428,"name":"Teaquation & Tonic","phone":"(650) 485-2273","price":"$$","reviewCount":142,"reviewScore":4.5,"meta":{"revision":0,"created":1547531155016,"version":0},"$loki":88},{"_id":"5c3d65bd3525a329e0c11d92","address":"1517 Polk St","location":{"type":"Point","coordinates":[-122.420796,37.790939]},"isApproved":true,"items":[],"keys":["Seafood"],"lastUpdated":1547527612661,"name":"Swan Oyster Depot","phone":"(415) 673-1101","price":"$$","reviewCount":2571,"reviewScore":4,"meta":{"revision":0,"created":1547531155016,"version":0},"$loki":89},{"_id":"5c3d65bd3525a329e0c134d2","address":"4318 California St","location":{"type":"Point","coordinates":[-122.4041447,37.7962703]},"isApproved":true,"items":[],"keys":["German","Comfort Food","Polish"],"lastUpdated":1547527612690,"name":"Cafe Europa","phone":"(415) 386-1000","price":"$$","reviewCount":383,"reviewScore":4.5,"meta":{"revision":0,"created":1547531155016,"version":0},"$loki":90},{"_id":"5c3d65bd3525a329e0c1750c","address":"1380 9th Ave","location":{"type":"Point","coordinates":[-122.4514912,37.7695784]},"isApproved":true,"items":[],"keys":["Chinese"],"lastUpdated":1547527612790,"name":"Zhuo Kitchen","phone":"(415) 571-8510","price":"","reviewCount":3,"reviewScore":4.5,"meta":{"revision":0,"created":1547531155016,"version":0},"$loki":91},{"_id":"5c3d65bd3525a329e0c17eb3","address":"460 Capistrano Rd","location":{"type":"Point","coordinates":[-122.4497537,37.7699343]},"isApproved":true,"items":[],"keys":["Pubs","Seafood","Burgers"],"lastUpdated":1547527612802,"name":"Old Princeton Landing Public House and Grill","phone":"(650) 728-7096","price":"$$","reviewCount":142,"reviewScore":4,"meta":{"revision":0,"created":1547531155016,"version":0},"$loki":92},{"_id":"5c3d65bd3525a329e0c1041f","address":"380 Bush St","location":{"type":"Point","coordinates":[-122.448901621221,37.7696105177356]},"isApproved":true,"items":[],"keys":["Russian","Ukrainian"],"lastUpdated":1547527612618,"name":"Pushkin","phone":"(415) 901-3434","price":"$","reviewCount":143,"reviewScore":4.5,"meta":{"revision":0,"created":1547531155016,"version":0},"$loki":93},{"_id":"5c3d65bd3525a329e0c06127","address":"1429 San Mateo Ave","location":{"type":"Point","coordinates":[-122.4500787,37.7694496]},"isApproved":true,"items":[],"keys":["Mediterranean","Middle Eastern"],"lastUpdated":1547527612368,"name":"Ali Baba","phone":"(650) 871-2221","price":"$$","reviewCount":312,"reviewScore":4,"meta":{"revision":0,"created":1547531155016,"version":0},"$loki":94},{"_id":"5c3d65bd3525a329e0c16b96","address":"1500 Irving St","location":{"type":"Point","coordinates":[-122.4501138,37.765244]},"isApproved":true,"items":[],"keys":["Ramen","Izakaya","Noodles"],"lastUpdated":1547527612773,"name":"Izakaya Sozai","phone":"(415) 742-5122","price":"$$","reviewCount":1991,"reviewScore":4,"meta":{"revision":0,"created":1547531155016,"version":0},"$loki":95},{"_id":"5c3d65bd3525a329e0c0d30f","address":"1160 University Ave","location":{"type":"Point","coordinates":[-122.4500746,37.7656775]},"isApproved":true,"items":[],"keys":["Creperies","Food","French"],"lastUpdated":1547527612546,"name":"CREPES A GO GO crepes Ooh La La","phone":"","price":"","reviewCount":3,"reviewScore":5,"meta":{"revision":0,"created":1547531155016,"version":0},"$loki":96},{"_id":"5c3d65bd3525a329e0c05b85","address":"1607 Haight St","location":{"type":"Point","coordinates":[-122.4528854,37.7643718]},"isApproved":true,"items":[],"keys":["Mexican"],"lastUpdated":1547527612356,"name":"Street Taco","phone":"(415) 525-4435","price":"$","reviewCount":526,"reviewScore":4,"meta":{"revision":0,"created":1547531155016,"version":0},"$loki":97},{"_id":"5c3d65bd3525a329e0c1404e","address":"3550 San Pablo Dam Rd","location":{"type":"Point","coordinates":[-122.4602591,37.7651756]},"isApproved":true,"items":[],"keys":["Fish & Chips","Seafood","Ice Cream & Frozen Yogurt"],"lastUpdated":1547527612707,"name":"Hundal Sahib Fish & Chips","phone":"(510) 669-1972","price":"$$","reviewCount":142,"reviewScore":4.5,"meta":{"revision":0,"created":1547531155016,"version":0},"$loki":98},{"_id":"5c3d65bd3525a329e0c108f2","address":"4036 Balboa St","location":{"type":"Point","coordinates":[-122.462736,37.764337]},"isApproved":true,"items":[],"keys":["Ramen"],"lastUpdated":1547527612625,"name":"Kazuo’s Kitchen","phone":"(415) 386-9800","price":"","reviewCount":3,"reviewScore":4.5,"meta":{"revision":0,"created":1547531155016,"version":0},"$loki":99},{"_id":"5c3d65bd3525a329e0c1a92a","address":"2017 Larkspur Landing Cir","location":{"type":"Point","coordinates":[-122.466102987528,37.7625462134757]},"isApproved":true,"items":[],"keys":["Bakeries","Cafes"],"lastUpdated":1547527612867,"name":"Rustic Bakery","phone":"(415) 461-9900","price":"$$","reviewCount":379,"reviewScore":4,"meta":{"revision":0,"created":1547531155016,"version":0},"$loki":100},{"_id":"5c3d65bd3525a329e0c04e10","address":"737 Irving St","location":{"type":"Point","coordinates":[-122.4659414,37.7639062]},"isApproved":true,"items":[],"keys":["Latin American","Peruvian"],"lastUpdated":1547527612338,"name":"Fresca","phone":"(415) 742-5727","price":"$$","reviewCount":244,"reviewScore":3.5,"meta":{"revision":0,"created":1547531155016,"version":0},"$loki":101},{"_id":"5c3d65bd3525a329e0c11518","address":"3378 18th St","location":{"type":"Point","coordinates":[-122.466281482937,37.765409579693]},"isApproved":true,"items":[],"keys":["Ramen","Desserts"],"lastUpdated":1547527612649,"name":"Ramenwell","phone":"(415) 589-7680","price":"","reviewCount":44,"reviewScore":3.5,"meta":{"revision":0,"created":1547531155016,"version":0},"$loki":102},{"_id":"5c3d65bd3525a329e0c027ed","address":"398 Grand Ave","location":{"type":"Point","coordinates":[-122.46638327837,37.7653687237627]},"isApproved":true,"items":[],"keys":["Vietnamese"],"lastUpdated":1547527612285,"name":"Ben Tre Vietnamese Homestyle Cuisine","phone":"(650) 952-2243","price":"$$","reviewCount":1591,"reviewScore":4,"meta":{"revision":0,"created":1547531155016,"version":0},"$loki":103},{"_id":"5c3d65bd3525a329e0c083c0","address":"1243 9th Ave","location":{"type":"Point","coordinates":[-122.4666106,37.7651129]},"isApproved":true,"items":[],"keys":["Thai"],"lastUpdated":1547527612421,"name":"Marnee Thai","phone":"(415) 731-9999","price":"$$","reviewCount":1576,"reviewScore":4,"meta":{"revision":0,"created":1547531155016,"version":0},"$loki":104},{"_id":"5c3d65bd3525a329e0c01fa8","address":"28 Fremont St","location":{"type":"Point","coordinates":[-122.468816,37.7636534]},"isApproved":true,"items":[],"keys":["Mediterranean","Tapas/Small Plates"],"lastUpdated":1547527612269,"name":"Barcha","phone":"(415) 957-5463","price":"$$","reviewCount":360,"reviewScore":4,"meta":{"revision":0,"created":1547531155016,"version":0},"$loki":105},{"_id":"5c3d65bd3525a329e0c0bb87","address":"836 Irving St","location":{"type":"Point","coordinates":[-122.4671354,37.7641711]},"isApproved":true,"items":[],"keys":["Vietnamese"],"lastUpdated":1547527612509,"name":"Perilla","phone":"(415) 564-9980","price":"$$","reviewCount":1169,"reviewScore":4,"meta":{"revision":0,"created":1547531155016,"version":0},"$loki":106},{"_id":"5c3d65bd3525a329e0c1835c","address":"6228 Telegraph Ave","location":{"type":"Point","coordinates":[-122.4665716,37.7635539]},"isApproved":true,"items":[],"keys":["Burgers"],"lastUpdated":1547527612814,"name":"A+ Burger","phone":"(510) 250-9598","price":"$$","reviewCount":149,"reviewScore":4.5,"meta":{"revision":0,"created":1547531155016,"version":0},"$loki":107},{"_id":"5c3d65bd3525a329e0c02fcf","address":"1031 Ocean Ave","location":{"type":"Point","coordinates":[-122.4665591,37.762386]},"isApproved":true,"items":[],"keys":["Chinese","Hong Kong Style Cafe"],"lastUpdated":1547527612295,"name":"Orchids Cafe","phone":"(415) 333-8668","price":"$$","reviewCount":96,"reviewScore":4,"meta":{"revision":0,"created":1547531155016,"version":0},"$loki":108},{"_id":"5c3d65bd3525a329e0c16033","address":"420 Judah St","location":{"type":"Point","coordinates":[-122.4665591,37.762386]},"isApproved":true,"items":[],"keys":["Sushi Bars","Japanese"],"lastUpdated":1547527612756,"name":"Yakumi Freestyle Omakase","phone":"(415) 910-6447","price":"","reviewCount":14,"reviewScore":4,"meta":{"revision":0,"created":1547531155016,"version":0},"$loki":109},{"_id":"5c3d65bd3525a329e0c1a2a8","address":"5344 Geary Blvd","location":{"type":"Point","coordinates":[-122.478169364418,37.7543406605787]},"isApproved":true,"items":[],"keys":["Teppanyaki","Ramen","Asian Fusion"],"lastUpdated":1547527612858,"name":"Super Pan","phone":"(415) 668-5344","price":"$$","reviewCount":314,"reviewScore":4,"meta":{"revision":0,"created":1547531155016,"version":0},"$loki":110},{"_id":"5c3d65bd3525a329e0c11563","address":"6314 Geary Blvd","location":{"type":"Point","coordinates":[-122.4744118,37.7638936]},"isApproved":true,"items":[],"keys":["Barbeque","Korean","Soup"],"lastUpdated":1547527612649,"name":"Jang Soo BBQ","phone":"(415) 221-8282","price":"$$","reviewCount":504,"reviewScore":4,"meta":{"revision":0,"created":1547531155016,"version":0},"$loki":111},{"_id":"5c3d65bd3525a329e0c1b02b","address":"2311 Clement St","location":{"type":"Point","coordinates":[-122.47413,37.763879]},"isApproved":true,"items":[],"keys":["Asian Fusion","Japanese","Barbeque"],"lastUpdated":1547527612876,"name":"Grill Spot","phone":"(415) 571-8201","price":"$$","reviewCount":149,"reviewScore":4,"meta":{"revision":0,"created":1547531155016,"version":0},"$loki":112},{"_id":"5c3d65bd3525a329e0bfff28","address":"1250 Bridgeway","location":{"type":"Point","coordinates":[-122.4725086,37.7639859]},"isApproved":true,"items":[],"keys":["Italian","Pizza","Bars"],"lastUpdated":1547527612223,"name":"Bar Bocce","phone":"(415) 331-0555","price":"$$","reviewCount":862,"reviewScore":3.5,"meta":{"revision":0,"created":1547531155016,"version":0},"$loki":113},{"_id":"5c3d65bd3525a329e0c162ec","address":"1001 2nd St","location":{"type":"Point","coordinates":[-122.477793,37.7637531]},"isApproved":true,"items":[],"keys":["Sports Bars","Cocktail Bars","American (New)"],"lastUpdated":1547527612763,"name":"Napkins Bar & Grill","phone":"(707) 531-7457","price":"$$","reviewCount":889,"reviewScore":4,"meta":{"revision":0,"created":1547531155016,"version":0},"$loki":114},{"_id":"5c3d65bd3525a329e0c07516","address":"247 Shoreline Hwy","location":{"type":"Point","coordinates":[-122.4781776,37.7652378]},"isApproved":true,"items":[],"keys":["American (New)","Vegan","Vegetarian"],"lastUpdated":1547527612400,"name":"Cafe del Soul","phone":"(415) 388-1852","price":"$$","reviewCount":477,"reviewScore":4,"meta":{"revision":0,"created":1547531155016,"version":0},"$loki":115},{"_id":"5c3d65bd3525a329e0c00fb0","address":"1090 Point Lobos Ave","location":{"type":"Point","coordinates":[-122.4807449,37.7635395]},"isApproved":true,"items":[],"keys":["Seafood","American (New)","Lounges"],"lastUpdated":1547527612238,"name":"Bistro At The Cliff House","phone":"(415) 386-3330","price":"$$","reviewCount":1382,"reviewScore":3.5,"meta":{"revision":0,"created":1547531155016,"version":0},"$loki":116},{"_id":"5c3d65bd3525a329e0c0c27e","address":"1382 9th Ave","location":{"type":"Point","coordinates":[-122.482464055415,37.7538401497706]},"isApproved":true,"items":[],"keys":["Ramen"],"lastUpdated":1547527612518,"name":"Ushi Taro","phone":"(415) 702-6014","price":"$$","reviewCount":90,"reviewScore":4,"meta":{"revision":0,"created":1547531155016,"version":0},"$loki":117},{"_id":"5c3d65bd3525a329e0c090b8","address":"1408 Clay St","location":{"type":"Point","coordinates":[-122.4911771,37.7534118]},"isApproved":true,"items":[],"keys":["Noodles"],"lastUpdated":1547527612439,"name":"Eight Noodle Shop","phone":"(707) 637-4198","price":"$$","reviewCount":371,"reviewScore":3.5,"meta":{"revision":0,"created":1547531155016,"version":0},"$loki":118},{"_id":"5c3d65bd3525a329e0c14531","address":"1890 W San Carlos St","location":{"type":"Point","coordinates":[-122.033257382042,37.2586620417155]},"isApproved":true,"items":[],"keys":["Chinese"],"lastUpdated":1547527612715,"name":"Edna Ray","phone":"(408) 293-3149","price":"","reviewCount":9,"reviewScore":4,"meta":{"revision":0,"created":1547531155016,"version":0},"$loki":119},{"_id":"5c3d65bd3525a329e0c00b95","address":"287 Stage Rd","location":{"type":"Point","coordinates":[-122.3833849,37.2533668]},"isApproved":true,"items":[],"keys":["Bakeries","Grocery","Delis"],"lastUpdated":1547527612230,"name":"Arcangeli Grocery Co - Norm’s Market","phone":"(650) 879-0147","price":"$","reviewCount":486,"reviewScore":4.5,"meta":{"revision":0,"created":1547531155016,"version":0},"$loki":120},{"_id":"5c3d65bd3525a329e0c06f54","address":"730 Main St","location":{"type":"Point","coordinates":[-122.4298631,37.4609296]},"isApproved":true,"items":[],"keys":["Beer Bar","Gastropubs","Burgers"],"lastUpdated":1547527612388,"name":"Sacrilege Brewery + Kitchen","phone":"(650) 276-7029","price":"$$","reviewCount":202,"reviewScore":4,"meta":{"revision":0,"created":1547531155016,"version":0},"$loki":121},{"_id":"5c3d65bd3525a329e0c0ff22","address":"1865 Post St","location":{"type":"Point","coordinates":[-122.441443076057,37.4338454703479]},"isApproved":true,"items":[],"keys":["Hawaiian","Bars","Venues & Event Spaces"],"lastUpdated":1547527612609,"name":"Pa’ina Lounge & Restaurant","phone":"(415) 829-2642","price":"$$","reviewCount":495,"reviewScore":4,"meta":{"revision":0,"created":1547531155016,"version":0},"$loki":122},{"_id":"5c3d65bd3525a329e0c1266e","address":"601 Murray Cir","location":{"type":"Point","coordinates":[-122.475845686023,37.58374]},"isApproved":true,"items":[],"keys":["Bars","American (New)"],"lastUpdated":1547527612671,"name":"Farley Bar","phone":"(415) 339-4750","price":"$$$","reviewCount":220,"reviewScore":3.5,"meta":{"revision":0,"created":1547531155016,"version":0},"$loki":123},{"_id":"5c3d65bd3525a329e0c18952","address":"1330 Noriega St","location":{"type":"Point","coordinates":[-122.475953,37.583638]},"isApproved":true,"items":[],"keys":["Korean"],"lastUpdated":1547527612823,"name":"The Crew","phone":"(415) 665-8548","price":"$$","reviewCount":376,"reviewScore":4,"meta":{"revision":0,"created":1547531155016,"version":0},"$loki":124},{"_id":"5c3d65bd3525a329e0c074f2","address":"1581 Webster St","location":{"type":"Point","coordinates":[-122.513941526413,37.5460319478939]},"isApproved":true,"items":[],"keys":["Ramen"],"lastUpdated":1547527612400,"name":"Marufuku Ramen SF","phone":"(415) 872-9786","price":"$$","reviewCount":1789,"reviewScore":4.5,"meta":{"revision":0,"created":1547531155016,"version":0},"$loki":125},{"_id":"5c3d65bd3525a329e0c06284","address":"200 23rd Ave","location":{"type":"Point","coordinates":[-122.5161636,37.5412186]},"isApproved":true,"items":[],"keys":["Sushi Bars"],"lastUpdated":1547527612369,"name":"Little Sushi Bar","phone":"(415) 682-4418","price":"","reviewCount":10,"reviewScore":4,"meta":{"revision":0,"created":1547531155016,"version":0},"$loki":126},{"_id":"5c3d65bd3525a329e0c19acb","address":"8465 Cabrillo Hwy","location":{"type":"Point","coordinates":[-122.5159479,37.5413672]},"isApproved":true,"items":[],"keys":["Seafood","Fish & Chips"],"lastUpdated":1547527612849,"name":"Fish ‘n’ Frites","phone":"(650) 712-1520","price":"","reviewCount":30,"reviewScore":4.5,"meta":{"revision":0,"created":1547531155016,"version":0},"$loki":127},{"_id":"5c3d65bd3525a329e0c0e523","address":"4063 24th St","location":{"type":"Point","coordinates":[-122.5156473,37.5424959]},"isApproved":true,"items":[],"keys":["French"],"lastUpdated":1547527612573,"name":"Chez Marius","phone":"(415) 757-0947","price":"$$$","reviewCount":92,"reviewScore":4,"meta":{"revision":0,"created":1547531155016,"version":0},"$loki":128},{"_id":"5c3d65bd3525a329e0c0e1a4","address":"5454 Geary Blvd","location":{"type":"Point","coordinates":[-122.462290999375,37.4956831727813]},"isApproved":true,"items":[],"keys":["Japanese Curry"],"lastUpdated":1547527612565,"name":"Volcano","phone":"(415) 752-7671","price":"$","reviewCount":1057,"reviewScore":4,"meta":{"revision":0,"created":1547531155016,"version":0},"$loki":129},{"_id":"5c3d65bd3525a329e0c0e9e1","address":"281 Capistrano Rd","location":{"type":"Point","coordinates":[-122.485284805298,37.503461742363]},"isApproved":true,"items":[],"keys":["Seafood"],"lastUpdated":1547527612581,"name":"Barbara’s Fishtrap","phone":"(650) 728-7049","price":"$$","reviewCount":1893,"reviewScore":4,"meta":{"revision":0,"created":1547531155016,"version":0},"$loki":130},{"_id":"5c3d65bd3525a329e0c11ac8","address":"4210 N Cabrillo Hwy","location":{"type":"Point","coordinates":[-122.475846760164,37.5024966279369]},"isApproved":true,"items":[],"keys":["Seafood"],"lastUpdated":1547527612652,"name":"Sam’s Chowder House","phone":"(650) 712-0245","price":"$$","reviewCount":3594,"reviewScore":3.5,"meta":{"revision":0,"created":1547531155016,"version":0},"$loki":131},{"_id":"5c3d65bd3525a329e0c192df","address":"5800 Sir Francis Drake Blvd","location":{"type":"Point","coordinates":[-122.4811045,37.5060952]},"isApproved":true,"items":[],"keys":["American (Traditional)","Venues & Event Spaces"],"lastUpdated":1547527612833,"name":"San Geronimo Restaurant & Bar","phone":"(415) 488-4030","price":"$$$","reviewCount":4,"reviewScore":4,"meta":{"revision":0,"created":1547531155016,"version":0},"$loki":132},{"_id":"5c3d65bd3525a329e0c01ec1","address":"70 W Manor Dr","location":{"type":"Point","coordinates":[-122.4811164,37.5056476]},"isApproved":true,"items":[],"keys":["Seafood","Fish & Chips","British"],"lastUpdated":1547527612260,"name":"Camelot Fish & Chips","phone":"(650) 355-1555","price":"$$","reviewCount":586,"reviewScore":4,"meta":{"revision":0,"created":1547531155016,"version":0},"$loki":133},{"_id":"5c3d65bd3525a329e0c18bbe","address":"560 Divisadero St","location":{"type":"Point","coordinates":[-122.4861282,37.5049441]},"isApproved":true,"items":[],"keys":["American (New)","Modern European","Desserts"],"lastUpdated":1547527612824,"name":"Nopa","phone":"(415) 864-8643","price":"$$$","reviewCount":4864,"reviewScore":4,"meta":{"revision":0,"created":1547531155016,"version":0},"$loki":134},{"_id":"5c3d65bd3525a329e0c1084f","address":"1007 Guerrero St","location":{"type":"Point","coordinates":[-122.486249059439,37.5047694146633]},"isApproved":true,"items":[],"keys":["Mediterranean","Turkish"],"lastUpdated":1547527612620,"name":"Tuba Authentic Turkish Restaurant","phone":"(415) 826-8822","price":"$$","reviewCount":943,"reviewScore":4.5,"meta":{"revision":0,"created":1547531155016,"version":0},"$loki":135},{"_id":"5c3d65bd3525a329e0c19a09","address":"1500 South Van Ness Ave","location":{"type":"Point","coordinates":[-122.4868356,37.5050921]},"isApproved":true,"items":[],"keys":["Mediterranean","Tapas/Small Plates"],"lastUpdated":1547527612848,"name":"Troje Restaurant","phone":"(415) 341-0034","price":"","reviewCount":1,"reviewScore":5,"meta":{"revision":0,"created":1547531155016,"version":0},"$loki":136},{"_id":"5c3d65bd3525a329e0c070af","address":"171 7th St","location":{"type":"Point","coordinates":[-122.4328337,37.4648602]},"isApproved":true,"items":[],"keys":["Sandwiches","Breakfast & Brunch"],"lastUpdated":1547527612389,"name":"Gherkin’s Sandwich Shop","phone":"(650) 728-2211","price":"$$","reviewCount":278,"reviewScore":4,"meta":{"revision":0,"created":1547531155016,"version":0},"$loki":137},{"_id":"5c3d65bd3525a329e0c16385","address":"736 Clement St","location":{"type":"Point","coordinates":[-122.43055768311,37.4673778803703]},"isApproved":true,"items":[],"keys":["Dim Sum"],"lastUpdated":1547527612764,"name":"Good Luck Dim Sum","phone":"(415) 386-3388","price":"$","reviewCount":1489,"reviewScore":4,"meta":{"revision":0,"created":1547531155016,"version":0},"$loki":138},{"_id":"5c3d65bd3525a329e0c0fadf","address":"855 Rincon Ave","location":{"type":"Point","coordinates":[-122.429305356,37.4678956582]},"isApproved":true,"items":[],"keys":["Chinese","Seafood","Soup"],"lastUpdated":1547527612601,"name":"New Oceanic Restaurant","phone":"(925) 455-1188","price":"$$","reviewCount":200,"reviewScore":4,"meta":{"revision":0,"created":1547531155016,"version":0},"$loki":139},{"_id":"5c3d65bd3525a329e0c171d1","address":"629 San Mateo Ave","location":{"type":"Point","coordinates":[-122.4284097,37.4666658]},"isApproved":true,"items":[],"keys":["Hawaiian","Poke"],"lastUpdated":1547527612783,"name":"Sam Choy’s Poke To The Max","phone":"(650) 763-0763","price":"","reviewCount":87,"reviewScore":4,"meta":{"revision":0,"created":1547531155016,"version":0},"$loki":140},{"_id":"5c3d65bd3525a329e0c19c34","address":"2390 Clarke Ave","location":{"type":"Point","coordinates":[-122.4284097,37.4666658]},"isApproved":true,"items":[],"keys":["Mexican"],"lastUpdated":1547527612850,"name":"Taqueria La Cazuela","phone":"(650) 289-0727","price":"$","reviewCount":231,"reviewScore":4.5,"meta":{"revision":0,"created":1547531155016,"version":0},"$loki":141},{"_id":"5c3d65bd3525a329e0c0f7bf","address":"1668 Haight St","location":{"type":"Point","coordinates":[-122.428784,37.465604]},"isApproved":true,"items":[],"keys":["Indian"],"lastUpdated":1547527612600,"name":"Om Indian Cuisine","phone":"(415) 525-3705","price":"$$","reviewCount":258,"reviewScore":4,"meta":{"revision":0,"created":1547531155016,"version":0},"$loki":142},{"_id":"5c3d65bd3525a329e0c0f6e7","address":"5217 Geary Blvd","location":{"type":"Point","coordinates":[-122.362957,37.587033]},"isApproved":true,"items":[],"keys":["Desserts","Juice Bars & Smoothies","Hong Kong Style Cafe"],"lastUpdated":1547527612599,"name":"Sweet Mango Dessert Cafe","phone":"(415) 668-8812","price":"","reviewCount":12,"reviewScore":4,"meta":{"revision":0,"created":1547531155016,"version":0},"$loki":143},{"_id":"5c3d65bd3525a329e0c038ec","address":"5336 Geary Blvd","location":{"type":"Point","coordinates":[-122.4093622,37.6189514]},"isApproved":true,"items":[],"keys":["Ramen","Noodles"],"lastUpdated":1547527612310,"name":"Ichiraku Ramen","phone":"(415) 813-0878","price":"$$","reviewCount":125,"reviewScore":4,"meta":{"revision":0,"created":1547531155016,"version":0},"$loki":144},{"_id":"5c3d65bd3525a329e0c0b3e2","address":"25 Lusk St","location":{"type":"Point","coordinates":[-122.3933872,37.6018754]},"isApproved":true,"items":[],"keys":["Cocktail Bars","Tacos","American (Traditional)"],"lastUpdated":1547527612498,"name":"Rooftop 25","phone":"(415) 495-5875","price":"$$","reviewCount":87,"reviewScore":4,"meta":{"revision":0,"created":1547531155016,"version":0},"$loki":145},{"_id":"5c3d65bd3525a329e0c14295","address":"3811 Railroad Ave","location":{"type":"Point","coordinates":[-122.3933872,37.6018754]},"isApproved":true,"items":[],"keys":["Filipino"],"lastUpdated":1547527612713,"name":"Lutong Bahay 1","phone":"(925) 267-9140","price":"$","reviewCount":121,"reviewScore":4.5,"meta":{"revision":0,"created":1547531155016,"version":0},"$loki":146},{"_id":"5c3d65bd3525a329e0c0f3cb","address":"1725 Alameda St","location":{"type":"Point","coordinates":[-122.391315776092,37.6006971644202]},"isApproved":true,"items":[],"keys":["Seafood","Japanese","Asian Fusion"],"lastUpdated":1547527612592,"name":"Skool","phone":"(415) 255-8800","price":"$$","reviewCount":1608,"reviewScore":4,"meta":{"revision":0,"created":1547531155016,"version":0},"$loki":147},{"_id":"5c3d65bd3525a329e0c05933","address":"1803A El Camino Real","location":{"type":"Point","coordinates":[-122.384475,37.59399]},"isApproved":true,"items":[],"keys":["Korean","Chicken Wings"],"lastUpdated":1547527612355,"name":"Spicy Factory","phone":"(650) 231-8288","price":"","reviewCount":54,"reviewScore":4.5,"meta":{"revision":0,"created":1547531155016,"version":0},"$loki":148},{"_id":"5c3d65bd3525a329e0c0a9e4","address":"303 Southland Mall Dr","location":{"type":"Point","coordinates":[-122.3836283,37.5955932]},"isApproved":true,"items":[],"keys":["Seafood","Hawaiian","Barbeque"],"lastUpdated":1547527612482,"name":"Hang Ten Boiler","phone":"(510) 887-8288","price":"$$","reviewCount":416,"reviewScore":3.5,"meta":{"revision":0,"created":1547531155016,"version":0},"$loki":149},{"_id":"5c3d65bd3525a329e0c141aa","address":"450 Capistrano Rd","location":{"type":"Point","coordinates":[-122.3817794,37.6003313]},"isApproved":true,"items":[],"keys":["Tapas/Small Plates","Spanish","Mediterranean"],"lastUpdated":1547527612713,"name":"Seville Tapas","phone":"(650) 563-4181","price":"$$","reviewCount":212,"reviewScore":4,"meta":{"revision":0,"created":1547531155016,"version":0},"$loki":150},{"_id":"5c3d65bd3525a329e0c089be","address":"24297 Hesperian Blvd","location":{"type":"Point","coordinates":[-122.3816638,37.6004233]},"isApproved":true,"items":[],"keys":["American (Traditional)","Pubs"],"lastUpdated":1547527612429,"name":"Buddy’s Bites and Brews","phone":"(510) 300-3388","price":"$$","reviewCount":1109,"reviewScore":3.5,"meta":{"revision":0,"created":1547531155016,"version":0},"$loki":151},{"_id":"5c3d65bd3525a329e0c08ea0","address":"7473 Village Pkwy","location":{"type":"Point","coordinates":[-122.3904897,37.6546664]},"isApproved":true,"items":[],"keys":["Mexican"],"lastUpdated":1547527612438,"name":"Taqueria Los Pericos","phone":"(925) 556-9127","price":"$","reviewCount":956,"reviewScore":4,"meta":{"revision":0,"created":1547531155016,"version":0},"$loki":152},{"_id":"5c3d65bd3525a329e0c0cbfd","address":"5000 Sierra Point Pkwy","location":{"type":"Point","coordinates":[-122.388187,37.6727971]},"isApproved":true,"items":[],"keys":["Bars","American (New)"],"lastUpdated":1547527612533,"name":"WhiteCaps Drinks + Eats","phone":"(650) 871-8565","price":"$$","reviewCount":49,"reviewScore":3.5,"meta":{"revision":0,"created":1547531155016,"version":0},"$loki":153},{"_id":"5c3d65bd3525a329e0c15792","address":"286 Magnolia Ave","location":{"type":"Point","coordinates":[-122.4306328,37.6508803]},"isApproved":true,"items":[],"keys":["Italian"],"lastUpdated":1547527612746,"name":"Gia Ristorante Italiano","phone":"(415) 891-3979","price":"$$$","reviewCount":153,"reviewScore":4.5,"meta":{"revision":0,"created":1547531155016,"version":0},"$loki":154},{"_id":"5c3d65bd3525a329e0c13b50","address":"3486 Mission St","location":{"type":"Point","coordinates":[-122.412228137255,37.6557878294219]},"isApproved":true,"items":[],"keys":["Himalayan/Nepalese"],"lastUpdated":1547527612704,"name":"Cuisine of Nepal","phone":"(415) 647-2222","price":"$$","reviewCount":468,"reviewScore":4.5,"meta":{"revision":0,"created":1547531155016,"version":0},"$loki":155},{"_id":"5c3d65bd3525a329e0c0279e","address":"3085 Meridian Ave","location":{"type":"Point","coordinates":[-122.4088313,37.6595812]},"isApproved":true,"items":[],"keys":["Korean","Barbeque","Hot Pot"],"lastUpdated":1547527612285,"name":"Goku Korean BBQ and Hot Pot","phone":"(408) 784-3228","price":"$$","reviewCount":383,"reviewScore":4,"meta":{"revision":0,"created":1547531155016,"version":0},"$loki":156},{"_id":"5c3d65bd3525a329e0c19d00","address":"32115 Union Landing Blvd","location":{"type":"Point","coordinates":[-122.4094176,37.6552224]},"isApproved":true,"items":[],"keys":["Steakhouses","Barbeque","American (Traditional)"],"lastUpdated":1547527612850,"name":"Texas Roadhouse","phone":"(510) 324-7623","price":"$$","reviewCount":2480,"reviewScore":4,"meta":{"revision":0,"created":1547531155016,"version":0},"$loki":157},{"_id":"5c3d65bd3525a329e0c11bf4","address":"343 Clement St","location":{"type":"Point","coordinates":[-122.4101366,37.6471173]},"isApproved":true,"items":[],"keys":["Japanese","Korean","Asian Fusion"],"lastUpdated":1547527612660,"name":"KoJa Kitchen","phone":"(415) 463-5085","price":"$$","reviewCount":559,"reviewScore":4,"meta":{"revision":0,"created":1547531155016,"version":0},"$loki":158},{"_id":"5c3d65bd3525a329e0c168c1","address":"5560 Coast Hwy","location":{"type":"Point","coordinates":[-122.4115194,37.6269532]},"isApproved":true,"items":[],"keys":["American (Traditional)","Beer Bar","Burgers"],"lastUpdated":1547527612772,"name":"Devil’s Slide Taproom","phone":"(650) 898-8855","price":"$$","reviewCount":328,"reviewScore":3.5,"meta":{"revision":0,"created":1547531155016,"version":0},"$loki":159},{"_id":"5c3d65bd3525a329e0c073d6","address":"5325 Mowry Ave","location":{"type":"Point","coordinates":[-122.4110437,37.6261573]},"isApproved":true,"items":[],"keys":["American (Traditional)"],"lastUpdated":1547527612399,"name":"Country Way","phone":"(510) 797-3188","price":"$$","reviewCount":2053,"reviewScore":4,"meta":{"revision":0,"created":1547531155016,"version":0},"$loki":160},{"_id":"5c3d65bd3525a329e0c0a7cf","address":"2278 Westborough Blvd","location":{"type":"Point","coordinates":[-122.4110437,37.6261573]},"isApproved":true,"items":[],"keys":["Chicken Wings","Korean","Asian Fusion"],"lastUpdated":1547527612481,"name":"Bonchon - South San Francisco","phone":"(650) 636-4192","price":"$$","reviewCount":582,"reviewScore":3.5,"meta":{"revision":0,"created":1547531155016,"version":0},"$loki":161},{"_id":"5c3d65bd3525a329e0c0bb78","address":"3853 24th St","location":{"type":"Point","coordinates":[-122.411523167369,37.6227693727866]},"isApproved":true,"items":[],"keys":["Burgers","Fast Food"],"lastUpdated":1547527612509,"name":"Hi-Way Burger & Fry","phone":"(415) 641-6000","price":"$$","reviewCount":95,"reviewScore":4,"meta":{"revision":0,"created":1547531155016,"version":0},"$loki":162},{"_id":"5c3d65bd3525a329e0bffd78","address":"10151 Cabrillo Hwy N","location":{"type":"Point","coordinates":[-122.424908618057,37.6262753370063]},"isApproved":true,"items":[],"keys":["Japanese","Sushi Bars","Asian Fusion"],"lastUpdated":1547527612222,"name":"Monster Chef","phone":"(650) 713-5140","price":"$$$","reviewCount":482,"reviewScore":3.5,"meta":{"revision":0,"created":1547531155016,"version":0},"$loki":163},{"_id":"5c3d65bd3525a329e0c0001d","address":"2278 Westborough Blvd","location":{"type":"Point","coordinates":[-122.45265,37.644996]},"isApproved":true,"items":[],"keys":["Tiki Bars","Asian Fusion","Venues & Event Spaces"],"lastUpdated":1547527612223,"name":"Hula Hoops Restaurant & Bar","phone":"(650) 952-3255","price":"$$","reviewCount":219,"reviewScore":4,"meta":{"revision":0,"created":1547531155016,"version":0},"$loki":164},{"_id":"5c3d65bd3525a329e0c1135d","address":"3600 Taraval","location":{"type":"Point","coordinates":[-122.487636,37.613158]},"isApproved":true,"items":[],"keys":["Mexican","Bars","Breakfast & Brunch"],"lastUpdated":1547527612642,"name":"Underdogs Too","phone":"(415) 759-8112","price":"","reviewCount":38,"reviewScore":4,"meta":{"revision":0,"created":1547531155016,"version":0},"$loki":165},{"_id":"5c3d65bd3525a329e0c06103","address":"50 Eureka Dr","location":{"type":"Point","coordinates":[-122.496627493909,37.6099145099444]},"isApproved":true,"items":[],"keys":["Vietnamese","Sandwiches"],"lastUpdated":1547527612368,"name":"Dinosaurs","phone":"(650) 557-1421","price":"$","reviewCount":280,"reviewScore":4,"meta":{"revision":0,"created":1547531155016,"version":0},"$loki":166},{"_id":"5c3d65bd3525a329e0c00af7","address":"41 Throckmorton Ave","location":{"type":"Point","coordinates":[-122.4968252,37.6094855]},"isApproved":true,"items":[],"keys":["Mexican","Diners","Cocktail Bars"],"lastUpdated":1547527612230,"name":"Playa","phone":"(415) 384-8871","price":"$$","reviewCount":290,"reviewScore":3.5,"meta":{"revision":0,"created":1547531155016,"version":0},"$loki":167},{"_id":"5c3d65bd3525a329e0c0f913","address":"99 San Mateo Rd","location":{"type":"Point","coordinates":[-122.4965205,37.6096398]},"isApproved":true,"items":[],"keys":["Seafood","Sandwiches","Burgers"],"lastUpdated":1547527612600,"name":"The Fisherman’s Taverna","phone":"(650) 729-3120","price":"$$","reviewCount":190,"reviewScore":4,"meta":{"revision":0,"created":1547531155016,"version":0},"$loki":168},{"_id":"5c3d65bd3525a329e0c0b721","address":"224 Vintage Way","location":{"type":"Point","coordinates":[-122.494654,37.609369]},"isApproved":true,"items":[],"keys":["American (New)","Bars","Music Venues"],"lastUpdated":1547527612505,"name":"HopMonk Tavern Novato","phone":"(415) 892-6200","price":"$$","reviewCount":557,"reviewScore":3.5,"meta":{"revision":0,"created":1547531155016,"version":0},"$loki":169},{"_id":"5c3d65bd3525a329e0c1245f","address":"101 San Anselmo Ave","location":{"type":"Point","coordinates":[-122.506783451065,37.5943351857532]},"isApproved":true,"items":[],"keys":["Bakeries","Coffee & Tea","Sandwiches"],"lastUpdated":1547527612670,"name":"M.H.Bread and Butter","phone":"(415) 755-4575","price":"$$","reviewCount":319,"reviewScore":4.5,"meta":{"revision":0,"created":1547531155016,"version":0},"$loki":170},{"_id":"5c3d65bd3525a329e0c088e8","address":"932 Larkin St","location":{"type":"Point","coordinates":[-122.479351,37.674404]},"isApproved":true,"items":[],"keys":["Korean","Tapas/Small Plates","Chicken Shop"],"lastUpdated":1547527612429,"name":"Aria Korean Tapas","phone":"(415) 292-6914","price":"$","reviewCount":516,"reviewScore":4,"meta":{"revision":0,"created":1547531155016,"version":0},"$loki":171},{"_id":"5c3d65bd3525a329e0c0d1d8","address":"2172 Market St","location":{"type":"Point","coordinates":[-122.4919944,37.6492406]},"isApproved":true,"items":[],"keys":["Breakfast & Brunch"],"lastUpdated":1547527612545,"name":"Wooden Spoon","phone":"(415) 946-3005","price":"$$","reviewCount":173,"reviewScore":4.5,"meta":{"revision":0,"created":1547531155016,"version":0},"$loki":172},{"_id":"5c3d65bd3525a329e0c16f56","address":"3282 Mission St","location":{"type":"Point","coordinates":[-122.467947606607,37.6519788278094]},"isApproved":true,"items":[],"keys":["Ramen"],"lastUpdated":1547527612781,"name":"RakiRaki Ramen & Tsukemen","phone":"(415) 237-6252","price":"","reviewCount":93,"reviewScore":4,"meta":{"revision":0,"created":1547531155016,"version":0},"$loki":173},{"_id":"5c3d65bd3525a329e0c0e7e9","address":"1 Ferry Bldg","location":{"type":"Point","coordinates":[-122.4666269,37.6660259]},"isApproved":true,"items":[],"keys":["Seafood","Seafood Markets","Live/Raw Food"],"lastUpdated":1547527612574,"name":"Hog Island Oyster Co","phone":"(415) 391-7117","price":"$$","reviewCount":5484,"reviewScore":4.5,"meta":{"revision":0,"created":1547531155016,"version":0},"$loki":174},{"_id":"5c3d65bd3525a329e0c13bc4","address":"2210 Fillmore St","location":{"type":"Point","coordinates":[-122.469087280333,37.6705977084431]},"isApproved":true,"items":[],"keys":["Middle Eastern","Mediterranean","Armenian"],"lastUpdated":1547527612704,"name":"La Mediterranee","phone":"(415) 921-2956","price":"$$","reviewCount":1425,"reviewScore":4,"meta":{"revision":0,"created":1547531155016,"version":0},"$loki":175},{"_id":"5c3d65bd3525a329e0c07c8e","address":"203 Octavia Blvd","location":{"type":"Point","coordinates":[-122.4598765,37.6858002]},"isApproved":true,"items":[],"keys":["American (New)","Sandwiches","Breakfast & Brunch"],"lastUpdated":1547527612410,"name":"Straw","phone":"(415) 431-3663","price":"$$","reviewCount":1706,"reviewScore":4,"meta":{"revision":0,"created":1547531155016,"version":0},"$loki":176},{"_id":"5c3d65bd3525a329e0c1a3bb","address":"66 School St","location":{"type":"Point","coordinates":[-122.465666506628,37.6934866127548]},"isApproved":true,"items":[],"keys":["Filipino","Barbeque"],"lastUpdated":1547527612859,"name":"Fil-Am Cuisine","phone":"(650) 992-6191","price":"$","reviewCount":908,"reviewScore":4,"meta":{"revision":0,"created":1547531155016,"version":0},"$loki":177},{"_id":"5c3d65bd3525a329e0c05b2a","address":"2042 4th St","location":{"type":"Point","coordinates":[-122.4536903,37.7231141]},"isApproved":true,"items":[],"keys":["Indian","Halal","Himalayan/Nepalese"],"lastUpdated":1547527612356,"name":"Halal Indian Cuisine","phone":"(415) 419-2642","price":"","reviewCount":1,"reviewScore":5,"meta":{"revision":0,"created":1547531155016,"version":0},"$loki":178},{"_id":"5c3d65bd3525a329e0c16fb8","address":"1735 Noriega St","location":{"type":"Point","coordinates":[-122.4641365,37.7057429]},"isApproved":true,"items":[],"keys":["American (Traditional)","Breweries"],"lastUpdated":1547527612782,"name":"Sunset Reservoir Brewing Company","phone":"(415) 571-8452","price":"$$","reviewCount":564,"reviewScore":3.5,"meta":{"revision":0,"created":1547531155016,"version":0},"$loki":179},{"_id":"5c3d65bd3525a329e0c177be","address":"2827 California St","location":{"type":"Point","coordinates":[-122.4853765,37.7015324]},"isApproved":true,"items":[],"keys":["Sushi Bars","Bars"],"lastUpdated":1547527612792,"name":"Tataki","phone":"(415) 931-1182","price":"$$","reviewCount":1204,"reviewScore":4,"meta":{"revision":0,"created":1547531155016,"version":0},"$loki":180},{"_id":"5c3d65bd3525a329e0c107f6","address":"","location":{"type":"Point","coordinates":[-122.4712704,37.6931006]},"isApproved":true,"items":[],"keys":["Food Trucks","Moroccan"],"lastUpdated":1547527612619,"name":"Casablanca Moroccan and Mediterranean Food","phone":"(415) 608-2915","price":"$$","reviewCount":31,"reviewScore":4,"meta":{"revision":0,"created":1547531155016,"version":0},"$loki":181},{"_id":"5c3d65bd3525a329e0c062c1","address":"525 Crespi Dr","location":{"type":"Point","coordinates":[-122.4695971,37.6869456]},"isApproved":true,"items":[],"keys":["Peruvian","Bars","Breakfast & Brunch"],"lastUpdated":1547527612369,"name":"Puerto 27 Peruvian Kitchen & Pisco Bar","phone":"(650) 733-7343","price":"$$","reviewCount":1101,"reviewScore":3.5,"meta":{"revision":0,"created":1547531155016,"version":0},"$loki":182},{"_id":"5c3d65bd3525a329e0c1b18f","address":"505 Skyline Dr","location":{"type":"Point","coordinates":[-122.4898202,37.6831221]},"isApproved":true,"items":[],"keys":["Fast Food","Chicken Wings"],"lastUpdated":1547527612877,"name":"Krispy Krunchy Chicken","phone":"(650) 992-2500","price":"","reviewCount":46,"reviewScore":4,"meta":{"revision":0,"created":1547531155016,"version":0},"$loki":183},{"_id":"5c3d65bd3525a329e0c046f5","address":"3044 Taraval St","location":{"type":"Point","coordinates":[-122.498943,37.742199]},"isApproved":true,"items":[],"keys":["Sports Bars","Chicken Wings"],"lastUpdated":1547527612329,"name":"After Hours","phone":"(415) 890-4618","price":"$$","reviewCount":68,"reviewScore":4.5,"meta":{"revision":0,"created":1547531155016,"version":0},"$loki":184},{"_id":"5c3d65bd3525a329e0c1988a","address":"950 King Dr","location":{"type":"Point","coordinates":[-122.4870484,37.7423353]},"isApproved":true,"items":[],"keys":["Seafood","Hot Pot","Dim Sum"],"lastUpdated":1547527612842,"name":"Pop Kitchen","phone":"(650) 410-5118","price":"$$$","reviewCount":91,"reviewScore":4.5,"meta":{"revision":0,"created":1547531155016,"version":0},"$loki":185},{"_id":"5c3d65bd3525a329e0c1755a","address":"2408 Junipero Serra Blvd","location":{"type":"Point","coordinates":[-122.476349,37.742904]},"isApproved":true,"items":[],"keys":["Mexican","Seafood","Breakfast & Brunch"],"lastUpdated":1547527612790,"name":"Guerrero’s Taqueria 3","phone":"(415) 769-5055","price":"","reviewCount":18,"reviewScore":3,"meta":{"revision":0,"created":1547531155016,"version":0},"$loki":186},{"_id":"5c3d65bd3525a329e0c0c79b","address":"107 Sevilla Ave","location":{"type":"Point","coordinates":[-122.476769041141,37.7280199192926]},"isApproved":true,"items":[],"keys":["Breakfast & Brunch","Sandwiches","Coffee & Tea"],"lastUpdated":1547527612526,"name":"The Press","phone":"(650) 726-9775","price":"$$","reviewCount":233,"reviewScore":4,"meta":{"revision":0,"created":1547531155016,"version":0},"$loki":187},{"_id":"5c3d65bd3525a329e0c15aa0","address":"3519 Balboa St","location":{"type":"Point","coordinates":[-122.4770808,37.7280817]},"isApproved":true,"items":[],"keys":["American (New)","Breakfast & Brunch"],"lastUpdated":1547527612753,"name":"Cassava","phone":"(415) 640-8990","price":"$$","reviewCount":789,"reviewScore":4,"meta":{"revision":0,"created":1547531155016,"version":0},"$loki":188},{"_id":"5c3d65bd3525a329e0c0ac9d","address":"1914 Fillmore St","location":{"type":"Point","coordinates":[-122.476854,37.727893]},"isApproved":true,"items":[],"keys":["Seafood","American (New)"],"lastUpdated":1547527612490,"name":"Woodhouse Fish Company","phone":"(415) 437-2722","price":"$$","reviewCount":2096,"reviewScore":4,"meta":{"revision":0,"created":1547531155016,"version":0},"$loki":189},{"_id":"5c3d65bd3525a329e0c0e06c","address":"349 Clement St","location":{"type":"Point","coordinates":[-122.4566068,37.7241641]},"isApproved":true,"items":[],"keys":["Greek","Turkish","Mediterranean"],"lastUpdated":1547527612564,"name":"Kitchen Istanbul","phone":"(415) 753-9479","price":"$$","reviewCount":432,"reviewScore":4.5,"meta":{"revision":0,"created":1547531155016,"version":0},"$loki":190},{"_id":"5c3d65bd3525a329e0c005c2","address":"2 Orinda Theatre Square","location":{"type":"Point","coordinates":[-122.4663397,37.7406245]},"isApproved":true,"items":[],"keys":["Indian"],"lastUpdated":1547527612227,"name":"Saffron Indian Restaurant & Bar","phone":"(925) 217-1211","price":"","reviewCount":48,"reviewScore":4.5,"meta":{"revision":0,"created":1547531155016,"version":0},"$loki":191},{"_id":"5c3d65bd3525a329e0c18ab7","address":"2018 Lombard St","location":{"type":"Point","coordinates":[-122.433249,37.7512497]},"isApproved":true,"items":[],"keys":["Spanish","Tapas Bars"],"lastUpdated":1547527612823,"name":"Alegrias","phone":"(415) 929-8888","price":"$$","reviewCount":743,"reviewScore":4,"meta":{"revision":0,"created":1547531155016,"version":0},"$loki":192},{"_id":"5c3d65bd3525a329e0c06847","address":"1045 Terra Nova Blvd","location":{"type":"Point","coordinates":[-122.42876,37.75149]},"isApproved":true,"items":[],"keys":["Chinese"],"lastUpdated":1547527612378,"name":"Ju Fu Restaurant","phone":"(650) 359-0777","price":"$$","reviewCount":102,"reviewScore":4.5,"meta":{"revision":0,"created":1547531155016,"version":0},"$loki":193},{"_id":"5c3d65bd3525a329e0c02dca","address":"4165 Cushing Pkwy","location":{"type":"Point","coordinates":[-122.42872,37.76269]},"isApproved":true,"items":[],"keys":["Chinese"],"lastUpdated":1547527612294,"name":"Teo Chow Noodle Shack","phone":"(510) 657-2800","price":"$","reviewCount":716,"reviewScore":4,"meta":{"revision":0,"created":1547531155016,"version":0},"$loki":194},{"_id":"5c3d65bd3525a329e0c1728e","address":"2101 Fillmore St","location":{"type":"Point","coordinates":[-122.435089,37.759958]},"isApproved":true,"items":[],"keys":["Wine Bars","Pizza"],"lastUpdated":1547527612783,"name":"Santino’s Vino","phone":"(415) 449-9257","price":"","reviewCount":21,"reviewScore":4,"meta":{"revision":0,"created":1547531155016,"version":0},"$loki":195},{"_id":"5c3d65bd3525a329e0c00b35","address":"1160 Arnold Dr","location":{"type":"Point","coordinates":[-122.4336963,37.7608414]},"isApproved":true,"items":[],"keys":["Juice Bars & Smoothies","Salad","Coffee & Tea"],"lastUpdated":1547527612230,"name":"Going Green","phone":"(925) 293-4285","price":"$","reviewCount":147,"reviewScore":4.5,"meta":{"revision":0,"created":1547531155016,"version":0},"$loki":196},{"_id":"5c3d65bd3525a329e0c00f02","address":"224 B St","location":{"type":"Point","coordinates":[-122.4336963,37.7608414]},"isApproved":true,"items":[],"keys":["Cafes"],"lastUpdated":1547527612237,"name":"River Front Cafe","phone":"(707) 347-5146","price":"","reviewCount":50,"reviewScore":4,"meta":{"revision":0,"created":1547531155016,"version":0},"$loki":197},{"_id":"5c3d65bd3525a329e0c09088","address":"604 S Mary Ave","location":{"type":"Point","coordinates":[-122.4336963,37.7608414]},"isApproved":true,"items":[],"keys":["Greek"],"lastUpdated":1547527612439,"name":"Greek Spot","phone":"(408) 900-8239","price":"$$","reviewCount":404,"reviewScore":4,"meta":{"revision":0,"created":1547531155016,"version":0},"$loki":198},{"_id":"5c3d65bd3525a329e0c1867f","address":"314 Linden Ave","location":{"type":"Point","coordinates":[-122.4336963,37.7608414]},"isApproved":true,"items":[],"keys":["Caribbean"],"lastUpdated":1547527612815,"name":"Flavas Jamaican Grill","phone":"(650) 447-1713","price":"$$","reviewCount":560,"reviewScore":4,"meta":{"revision":0,"created":1547531155016,"version":0},"$loki":199},{"_id":"5c3d65bd3525a329e0c0af9b","address":"1216 Hillside Blvd","location":{"type":"Point","coordinates":[-122.434248,37.761243]},"isApproved":true,"items":[],"keys":["Mediterranean"],"lastUpdated":1547527612491,"name":"Inshallah Mediterranean Cuisine","phone":"(650) 271-6848","price":"$","reviewCount":242,"reviewScore":4.5,"meta":{"revision":0,"created":1547531155016,"version":0},"$loki":200},{"_id":"5c3d65bd3525a329e0c000b9","address":"341 Corte Madera Town Ctr","location":{"type":"Point","coordinates":[-122.4309077,37.7626468]},"isApproved":true,"items":[],"keys":["Barbeque","Beer Bar"],"lastUpdated":1547527612224,"name":"Pig In a Pickle","phone":"(415) 891-3265","price":"$$","reviewCount":349,"reviewScore":3.5,"meta":{"revision":0,"created":1547531155016,"version":0},"$loki":201},{"_id":"5c3d65bd3525a329e0c186ee","address":"8150 Cabrillo Hwy","location":{"type":"Point","coordinates":[-122.429936,37.7642317]},"isApproved":true,"items":[],"keys":["Latin American","Seafood","Peruvian"],"lastUpdated":1547527612815,"name":"La Costanera","phone":"(650) 728-1600","price":"$$$","reviewCount":1217,"reviewScore":3.5,"meta":{"revision":0,"created":1547531155016,"version":0},"$loki":202},{"_id":"5c3d65bd3525a329e0c05e32","address":"1801 Clement St","location":{"type":"Point","coordinates":[-122.430668,37.7641759]},"isApproved":true,"items":[],"keys":["Mediterranean","Breakfast & Brunch"],"lastUpdated":1547527612362,"name":"Lokma","phone":"(415) 702-6219","price":"$$","reviewCount":166,"reviewScore":4.5,"meta":{"revision":0,"created":1547531155016,"version":0},"$loki":203},{"_id":"5c3d65bd3525a329e0c11768","address":"2775 Willow Pass Rd","location":{"type":"Point","coordinates":[-122.4313074,37.76515]},"isApproved":true,"items":[],"keys":["Burgers","Hot Dogs"],"lastUpdated":1547527612650,"name":"Ben’s Burgers","phone":"(925) 458-4040","price":"$","reviewCount":101,"reviewScore":4.5,"meta":{"revision":0,"created":1547531155016,"version":0},"$loki":204},{"_id":"5c3d65bd3525a329e0c1842d","address":"450 Irving St","location":{"type":"Point","coordinates":[-122.430392,37.7666161]},"isApproved":true,"items":[],"keys":["Singaporean","Malaysian","Indonesian"],"lastUpdated":1547527612814,"name":"Lime Tree Southeast Asian Kitchen","phone":"(415) 665-1415","price":"$","reviewCount":1447,"reviewScore":4,"meta":{"revision":0,"created":1547531155016,"version":0},"$loki":205},{"_id":"5c3d65bd3525a329e0c14410","address":"131 Mirada Rd","location":{"type":"Point","coordinates":[-122.4225439,37.7685083]},"isApproved":true,"items":[],"keys":["Seafood","Steakhouses"],"lastUpdated":1547527612714,"name":"Miramar Beach Restaurant","phone":"(650) 726-9053","price":"$$","reviewCount":920,"reviewScore":3.5,"meta":{"revision":0,"created":1547531155016,"version":0},"$loki":206},{"_id":"5c3d65bd3525a329e0c0039d","address":"3003 Oak Rd","location":{"type":"Point","coordinates":[-122.4217307,37.7651781]},"isApproved":true,"items":[],"keys":["Latin American","Empanadas","Salad"],"lastUpdated":1547527612226,"name":"Sabores del Sur","phone":"(925) 954-8300","price":"$$","reviewCount":424,"reviewScore":4.5,"meta":{"revision":0,"created":1547531155016,"version":0},"$loki":207},{"_id":"5c3d65bd3525a329e0c03535","address":"43486 Ellsworth St","location":{"type":"Point","coordinates":[-122.4217307,37.7651781]},"isApproved":true,"items":[],"keys":["Taiwanese","Cafes","Bubble Tea"],"lastUpdated":1547527612303,"name":"My Delights","phone":"(510) 252-8888","price":"$","reviewCount":106,"reviewScore":4,"meta":{"revision":0,"created":1547531155016,"version":0},"$loki":208},{"_id":"5c3d65bd3525a329e0c07e75","address":"100 Rockaway Beach Ave","location":{"type":"Point","coordinates":[-122.4221383,37.7643683]},"isApproved":true,"items":[],"keys":["Seafood","Lounges"],"lastUpdated":1547527612417,"name":"Nick’s Seashore Restaurant","phone":"(650) 359-3900","price":"$$","reviewCount":1075,"reviewScore":3.5,"meta":{"revision":0,"created":1547531155016,"version":0},"$loki":209},{"_id":"5c3d65bd3525a329e0c08c9c","address":"1922 Oak Park Blvd","location":{"type":"Point","coordinates":[-122.4221383,37.7643683]},"isApproved":true,"items":[],"keys":["American (New)","Seafood","Breakfast & Brunch"],"lastUpdated":1547527612436,"name":"Wences Restaurant","phone":"(925) 566-8971","price":"$$","reviewCount":725,"reviewScore":4,"meta":{"revision":0,"created":1547531155016,"version":0},"$loki":210},{"_id":"5c3d65bd3525a329e0c0caa2","address":"246 Saratoga Ave","location":{"type":"Point","coordinates":[-122.4221383,37.7643683]},"isApproved":true,"items":[],"keys":["Japanese","Tapas/Small Plates"],"lastUpdated":1547527612533,"name":"Leichi","phone":"(408) 824-9052","price":"$$$","reviewCount":286,"reviewScore":4,"meta":{"revision":0,"created":1547531155016,"version":0},"$loki":211},{"_id":"5c3d65bd3525a329e0c17180","address":"2233 Larkspur Landing Cir","location":{"type":"Point","coordinates":[-122.4219691,37.7635714]},"isApproved":true,"items":[],"keys":["American (New)","Breakfast & Brunch","Bars"],"lastUpdated":1547527612782,"name":"Farmshop","phone":"(415) 755-6700","price":"$$$","reviewCount":521,"reviewScore":3.5,"meta":{"revision":0,"created":1547531155016,"version":0},"$loki":212},{"_id":"5c3d65bd3525a329e0c070ce","address":"1503 15th St","location":{"type":"Point","coordinates":[-122.4179241,37.7665605]},"isApproved":true,"items":[],"keys":["Moroccan"],"lastUpdated":1547527612389,"name":"Khamsa","phone":"(628) 233-1503","price":"$$","reviewCount":146,"reviewScore":4,"meta":{"revision":0,"created":1547531155016,"version":0},"$loki":213},{"_id":"5c3d65bd3525a329e0c10b8b","address":"140 Ellis St","location":{"type":"Point","coordinates":[-122.4026674,37.7706699]},"isApproved":true,"items":[],"keys":["Hot Pot","Chinese"],"lastUpdated":1547527612632,"name":"Firebird Hot Pot","phone":"","price":"","reviewCount":10,"reviewScore":3.5,"meta":{"revision":0,"created":1547531155016,"version":0},"$loki":214},{"_id":"5c3d65bd3525a329e0c11f4a","address":"1414 Jefferson St","location":{"type":"Point","coordinates":[-122.4111136,37.7601687]},"isApproved":true,"items":[],"keys":["Peruvian","Latin American"],"lastUpdated":1547527612662,"name":"Tambo","phone":"(510) 663-8262","price":"$$","reviewCount":472,"reviewScore":4,"meta":{"revision":0,"created":1547531155016,"version":0},"$loki":215},{"_id":"5c3d65bd3525a329e0c166ba","address":"2036 Agnew Rd","location":{"type":"Point","coordinates":[-122.4111136,37.7601687]},"isApproved":true,"items":[],"keys":["Hot Dogs","Food Stands"],"lastUpdated":1547527612765,"name":"Logan’s Big Dawgs","phone":"(408) 892-0762","price":"$","reviewCount":108,"reviewScore":4.5,"meta":{"revision":0,"created":1547531155016,"version":0},"$loki":216},{"_id":"5c3d65bd3525a329e0c14bb8","address":"365 Gellert Blvd","location":{"type":"Point","coordinates":[-122.418856810102,37.7619720328061]},"isApproved":true,"items":[],"keys":["Dim Sum","Seafood","Cantonese"],"lastUpdated":1547527612729,"name":"Koi Palace","phone":"(650) 992-9000","price":"$$","reviewCount":3020,"reviewScore":3.5,"meta":{"revision":0,"created":1547531155016,"version":0},"$loki":217},{"_id":"5c3d65bd3525a329e0c0463d","address":"765 Center Blvd","location":{"type":"Point","coordinates":[-122.4198861,37.7600837]},"isApproved":true,"items":[],"keys":["Breweries","Pubs","American (Traditional)"],"lastUpdated":1547527612328,"name":"Iron Springs Pub & Brewery","phone":"(415) 485-1005","price":"$$","reviewCount":315,"reviewScore":4,"meta":{"revision":0,"created":1547531155016,"version":0},"$loki":218},{"_id":"5c3d65bd3525a329e0c0a603","address":"3090 Olsen Dr","location":{"type":"Point","coordinates":[-122.4212092,37.7597582]},"isApproved":true,"items":[],"keys":["Salad","Sandwiches"],"lastUpdated":1547527612481,"name":"Mendocino Farms","phone":"(408) 207-1390","price":"$$","reviewCount":267,"reviewScore":4,"meta":{"revision":0,"created":1547531155016,"version":0},"$loki":219},{"_id":"5c3d65bd3525a329e0c0ec32","address":"1132 Ballena Blvd","location":{"type":"Point","coordinates":[-122.4212092,37.7597582]},"isApproved":true,"items":[],"keys":["Moroccan","Salad","Soup"],"lastUpdated":1547527612582,"name":"Abigail’s Moroccan Cuisine","phone":"(510) 523-5500","price":"$","reviewCount":343,"reviewScore":4.5,"meta":{"revision":0,"created":1547531155016,"version":0},"$loki":220},{"_id":"5c3d65bd3525a329e0c1a043","address":"1014 Clement St","location":{"type":"Point","coordinates":[-122.4214034,37.7573462]},"isApproved":true,"items":[],"keys":["Chinese","Desserts","Hot Pot"],"lastUpdated":1547527612857,"name":"Sweet Box","phone":"(415) 518-5206","price":"","reviewCount":9,"reviewScore":3.5,"meta":{"revision":0,"created":1547531155016,"version":0},"$loki":221},{"_id":"5c3d65bd3525a329e0c0ced2","address":"173 Throckmorton Ave","location":{"type":"Point","coordinates":[-122.4228895,37.7548912]},"isApproved":true,"items":[],"keys":["Breweries","American (New)","Bars"],"lastUpdated":1547527612535,"name":"Mill Valley Beerworks","phone":"(415) 888-8218","price":"$$","reviewCount":382,"reviewScore":3.5,"meta":{"revision":0,"created":1547531155016,"version":0},"$loki":222},{"_id":"5c3d65bd3525a329e0c1393a","address":"31804 Alvarado Blvd","location":{"type":"Point","coordinates":[-122.421318,37.755944]},"isApproved":true,"items":[],"keys":["Halal","Afghan","American (New)"],"lastUpdated":1547527612698,"name":"Tayyibaat Meat and Grill","phone":"(510) 475-7856","price":"$$","reviewCount":146,"reviewScore":4,"meta":{"revision":0,"created":1547531155016,"version":0},"$loki":223},{"_id":"5c3d65bd3525a329e0c19a29","address":"1520 Mar W","location":{"type":"Point","coordinates":[-122.421318,37.755944]},"isApproved":true,"items":[],"keys":["Cafes"],"lastUpdated":1547527612848,"name":"Angel Island Cafe","phone":"(415) 435-3392","price":"$$","reviewCount":86,"reviewScore":3.5,"meta":{"revision":0,"created":1547531155016,"version":0},"$loki":224},{"_id":"5c3d65bd3525a329e0bff567","address":"2020 Sir Francis Drake Blvd","location":{"type":"Point","coordinates":[-122.418733,37.757248]},"isApproved":true,"items":[],"keys":["Pubs","Cafes","Bike Repair/Maintenance"],"lastUpdated":1547527612217,"name":"Split Rock Tap & Wheel","phone":"(415) 721-7644","price":"","reviewCount":26,"reviewScore":4.5,"meta":{"revision":0,"created":1547531155016,"version":0},"$loki":225},{"_id":"5c3d65bd3525a329e0c0abbc","address":"1876 W 11th St","location":{"type":"Point","coordinates":[-122.418733,37.757248]},"isApproved":true,"items":[],"keys":["Ramen","Hot Pot","Bubble Tea"],"lastUpdated":1547527612489,"name":"Cafe Dazzling","phone":"(209) 740-4542","price":"$$","reviewCount":171,"reviewScore":4,"meta":{"revision":0,"created":1547531155016,"version":0},"$loki":226},{"_id":"5c3d65bd3525a329e0c07c31","address":"5017 Geary Blvd","location":{"type":"Point","coordinates":[-122.4194007,37.7555092]},"isApproved":true,"items":[],"keys":["Coffee & Tea","Sandwiches","Salad"],"lastUpdated":1547527612410,"name":"Lou’s Cafe","phone":"(415) 379-4429","price":"$","reviewCount":1414,"reviewScore":4.5,"meta":{"revision":0,"created":1547531155016,"version":0},"$loki":227},{"_id":"5c3d65bd3525a329e0c14f59","address":"652 Polk St","location":{"type":"Point","coordinates":[-122.42202,37.7438058]},"isApproved":true,"items":[],"keys":["Breakfast & Brunch","French","Soul Food"],"lastUpdated":1547527612736,"name":"Brenda’s French Soul Food","phone":"(415) 345-8100","price":"$$","reviewCount":10122,"reviewScore":4,"meta":{"revision":0,"created":1547531155016,"version":0},"$loki":228},{"_id":"5c3d65bd3525a329e0c093b4","address":"4068 18th St","location":{"type":"Point","coordinates":[-122.4204571,37.745207]},"isApproved":true,"items":[],"keys":["American (New)","Mediterranean","Wine Bars"],"lastUpdated":1547527612452,"name":"Lark","phone":"(415) 400-4623","price":"$$","reviewCount":245,"reviewScore":4,"meta":{"revision":0,"created":1547531155016,"version":0},"$loki":229},{"_id":"5c3d65bd3525a329e0c14f04","address":"44 E Blithedale Ave","location":{"type":"Point","coordinates":[-122.421003654599,37.7444460860904]},"isApproved":true,"items":[],"keys":["American (New)","Wine Bars"],"lastUpdated":1547527612736,"name":"Bungalow 44","phone":"(415) 381-2500","price":"$$$","reviewCount":486,"reviewScore":4,"meta":{"revision":0,"created":1547531155016,"version":0},"$loki":230},{"_id":"5c3d65bd3525a329e0c0dd46","address":"2800 Bayshore Blvd","location":{"type":"Point","coordinates":[-122.4161321,37.7489664]},"isApproved":true,"items":[],"keys":["Sports Bars","American (Traditional)","Music Venues"],"lastUpdated":1547527612563,"name":"7 Mile House","phone":"(415) 467-2343","price":"$$","reviewCount":961,"reviewScore":4,"meta":{"revision":0,"created":1547531155016,"version":0},"$loki":231},{"_id":"5c3d65bd3525a329e0c0f0b9","address":"487 1st St W","location":{"type":"Point","coordinates":[-122.417833,37.7524495]},"isApproved":true,"items":[],"keys":["American (New)","Venues & Event Spaces","Wine Bars"],"lastUpdated":1547527612590,"name":"Harvest Moon Cafe","phone":"(707) 933-8160","price":"$$$","reviewCount":425,"reviewScore":4,"meta":{"revision":0,"created":1547531155016,"version":0},"$loki":232},{"_id":"5c3d65bd3525a329e0c19377","address":"29950 Huntwood Ave","location":{"type":"Point","coordinates":[-122.417833,37.7524495]},"isApproved":true,"items":[],"keys":["Mexican"],"lastUpdated":1547527612834,"name":"Tacos Uruapan Taqueria Mexicana","phone":"(510) 581-1915","price":"$","reviewCount":545,"reviewScore":3.5,"meta":{"revision":0,"created":1547531155016,"version":0},"$loki":233},{"_id":"5c3d65bd3525a329e0c1ad78","address":"234 Magnolia Ave","location":{"type":"Point","coordinates":[-122.4182227,37.752654]},"isApproved":true,"items":[],"keys":["Bars","American (Traditional)"],"lastUpdated":1547527612875,"name":"Perry’s on Magnolia","phone":"(415) 927-1877","price":"$$","reviewCount":187,"reviewScore":3.5,"meta":{"revision":0,"created":1547531155016,"version":0},"$loki":234},{"_id":"5c3d65bd3525a329e0c00123","address":"1191 Admiral Callaghan Ln","location":{"type":"Point","coordinates":[-122.414467,37.738695]},"isApproved":true,"items":[],"keys":["Fast Food"],"lastUpdated":1547527612224,"name":"Chick-fil-A","phone":"(707) 648-7001","price":"$","reviewCount":240,"reviewScore":3.5,"meta":{"revision":0,"created":1547531155016,"version":0},"$loki":235},{"_id":"5c3d65bd3525a329e0c0f069","address":"44800 S Grimmer Blvd","location":{"type":"Point","coordinates":[-122.414467,37.738695]},"isApproved":true,"items":[],"keys":["Thai","Halal"],"lastUpdated":1547527612590,"name":"Sala Thai 2","phone":"(510) 445-0088","price":"$$","reviewCount":922,"reviewScore":4,"meta":{"revision":0,"created":1547531155016,"version":0},"$loki":236},{"_id":"5c3d65bd3525a329e0c04784","address":"3420 Geary Blvd","location":{"type":"Point","coordinates":[-122.4231715,37.7409899]},"isApproved":true,"items":[],"keys":["Burgers","American (New)","Beer Bar"],"lastUpdated":1547527612329,"name":"Native Burger","phone":"(415) 682-4197","price":"$$","reviewCount":162,"reviewScore":4.5,"meta":{"revision":0,"created":1547531155016,"version":0},"$loki":237},{"_id":"5c3d65bd3525a329e0c02cf6","address":"4441 Mission St","location":{"type":"Point","coordinates":[-122.424170839651,37.7362182067197]},"isApproved":true,"items":[],"keys":["Filipino"],"lastUpdated":1547527612293,"name":"Pampanguena Cuisine","phone":"(415) 586-8899","price":"$$","reviewCount":291,"reviewScore":4,"meta":{"revision":0,"created":1547531155016,"version":0},"$loki":238},{"_id":"5c3d65bd3525a329e0bffced","address":"1218 Boulevard Way","location":{"type":"Point","coordinates":[-122.4460824,37.7207252]},"isApproved":true,"items":[],"keys":["Delis","Sandwiches"],"lastUpdated":1547527612221,"name":"Morucci’s Deli","phone":"(925) 939-2426","price":"$","reviewCount":1219,"reviewScore":4.5,"meta":{"revision":0,"created":1547531155016,"version":0},"$loki":239},{"_id":"5c3d65bd3525a329e0c184b9","address":"23 Orinda Way","location":{"type":"Point","coordinates":[-122.4374676,37.720796]},"isApproved":true,"items":[],"keys":["Thai"],"lastUpdated":1547527612814,"name":"Siam Orchid","phone":"(925) 253-1975","price":"$$","reviewCount":149,"reviewScore":4,"meta":{"revision":0,"created":1547531155016,"version":0},"$loki":240},{"_id":"5c3d65bd3525a329e0c0b034","address":"7290 Sir Francis Drake Blvd","location":{"type":"Point","coordinates":[-122.437024434465,37.7220006617798]},"isApproved":true,"items":[],"keys":["Delis"],"lastUpdated":1547527612492,"name":"Lagunitas Groceries & Delicatessen","phone":"(415) 488-4844","price":"$","reviewCount":27,"reviewScore":3.5,"meta":{"revision":0,"created":1547531155016,"version":0},"$loki":241},{"_id":"5c3d65bd3525a329e0c11701","address":"3251 20th Ave","location":{"type":"Point","coordinates":[-122.4327544,37.7270576]},"isApproved":true,"items":[],"keys":["Japanese","Sushi Bars","Noodles"],"lastUpdated":1547527612650,"name":"Tosai","phone":"","price":"","reviewCount":14,"reviewScore":3.5,"meta":{"revision":0,"created":1547531155016,"version":0},"$loki":242},{"_id":"5c3d65bd3525a329e0c10445","address":"575 23rd St","location":{"type":"Point","coordinates":[-122.4438265,37.713858]},"isApproved":true,"items":[],"keys":["American (Traditional)","Chicken Wings"],"lastUpdated":1547527612618,"name":"Krispy Krunchy","phone":"(510) 235-8520","price":"$","reviewCount":65,"reviewScore":4,"meta":{"revision":0,"created":1547531155016,"version":0},"$loki":243},{"_id":"5c3d65bd3525a329e0c163a0","address":"1 Castro Ave","location":{"type":"Point","coordinates":[-122.4438265,37.713858]},"isApproved":true,"items":[],"keys":["Dive Bars","American (New)"],"lastUpdated":1547527612764,"name":"Papermill Creek Saloon","phone":"(415) 488-9235","price":"$","reviewCount":29,"reviewScore":4.5,"meta":{"revision":0,"created":1547531155016,"version":0},"$loki":244},{"_id":"5c3d65bd3525a329e0c08c52","address":"1336 9th Ave","location":{"type":"Point","coordinates":[-122.390515,37.734266]},"isApproved":true,"items":[],"keys":["Filipino"],"lastUpdated":1547527612436,"name":"Malasa","phone":"(415) 682-9980","price":"$$","reviewCount":115,"reviewScore":4.5,"meta":{"revision":0,"created":1547531155016,"version":0},"$loki":245},{"_id":"5c3d65bd3525a329e0c1839a","address":"0 Harbor Way","location":{"type":"Point","coordinates":[-122.390515,37.734266]},"isApproved":true,"items":[],"keys":["Seafood","American (Traditional)"],"lastUpdated":1547527612814,"name":"The Sardine Can","phone":"(707) 553-9492","price":"$$","reviewCount":303,"reviewScore":3.5,"meta":{"revision":0,"created":1547531155016,"version":0},"$loki":246},{"_id":"5c3d65bd3525a329e0c1920c","address":"5 Petaluma Blvd S","location":{"type":"Point","coordinates":[-122.3918301,37.7321029]},"isApproved":true,"items":[],"keys":["Burgers","Salad","Cajun/Creole"],"lastUpdated":1547527612833,"name":"Gator’s Rustic Burger & His Creole Friends","phone":"(707) 658-1845","price":"$$","reviewCount":200,"reviewScore":4.5,"meta":{"revision":0,"created":1547531155016,"version":0},"$loki":247},{"_id":"5c3d65bd3525a329e0c1a46d","address":"900 North Point St","location":{"type":"Point","coordinates":[-122.3881123,37.7589849]},"isApproved":true,"items":[],"keys":["Latin American"],"lastUpdated":1547527612859,"name":"Pico Latin Street Food","phone":"","price":"","reviewCount":28,"reviewScore":4.5,"meta":{"revision":0,"created":1547531155016,"version":0},"$loki":248},{"_id":"5c3d65bd3525a329e0c03ad8","address":"1453 18th St","location":{"type":"Point","coordinates":[-122.3970708,37.7624014]},"isApproved":true,"items":[],"keys":["American (Traditional)","Salad","Soup"],"lastUpdated":1547527612312,"name":"Mac Daddy","phone":"(415) 872-6670","price":"$$","reviewCount":450,"reviewScore":4,"meta":{"revision":0,"created":1547531155016,"version":0},"$loki":249},{"_id":"5c3d65bd3525a329e0c0fd9c","address":"1379 4th St","location":{"type":"Point","coordinates":[-122.3906461,37.7707884]},"isApproved":true,"items":[],"keys":["Donuts","Caterers","Food Stands"],"lastUpdated":1547527612608,"name":"Hookt Mini Doughnuts","phone":"(415) 890-6577","price":"$","reviewCount":29,"reviewScore":4.5,"meta":{"revision":0,"created":1547531155016,"version":0},"$loki":250},{"_id":"5c3d65bd3525a329e0c13246","address":"655 Townsend St","location":{"type":"Point","coordinates":[-122.3973701,37.7786653]},"isApproved":true,"items":[],"keys":["Vietnamese"],"lastUpdated":1547527612689,"name":"Khai","phone":"(415) 724-2325","price":"$$$$","reviewCount":122,"reviewScore":4.5,"meta":{"revision":0,"created":1547531155016,"version":0},"$loki":251},{"_id":"5c3d65bd3525a329e0c063da","address":"417 Clement St","location":{"type":"Point","coordinates":[-122.396771288052,37.7783200510611]},"isApproved":true,"items":[],"keys":["Vietnamese","Sandwiches","Noodles"],"lastUpdated":1547527612370,"name":"Cafe Bunn Mi","phone":"(415) 668-8908","price":"$","reviewCount":1145,"reviewScore":4,"meta":{"revision":0,"created":1547531155016,"version":0},"$loki":252},{"_id":"5c3d65bd3525a329e0c008ac","address":"57 Broadway Blvd","location":{"type":"Point","coordinates":[-122.3943829,37.7785673]},"isApproved":true,"items":[],"keys":["Breakfast & Brunch","Cajun/Creole","Southern"],"lastUpdated":1547527612228,"name":"The Hummingbird","phone":"(415) 457-9866","price":"$$","reviewCount":436,"reviewScore":4.5,"meta":{"revision":0,"created":1547531155016,"version":0},"$loki":253},