{"filename":"-122.5-44.75","collections":[{"name":"restaurants","data":[{"_id":"5c3d65bd3525a329e0c10585","address":"254 SW Madison Ave","location":{"type":"Point","coordinates":[-122.6119044,44.7735981]},"isApproved":true,"items":[],"keys":["Bars","Tabletop Games","Themed Cafes"],"lastUpdated":1547527612618,"name":"Gamagora Geekhouse","phone":"(541) 286-8616","price":"","reviewCount":1,"reviewScore":5,"meta":{"revision":0,"created":1547531151107,"version":0},"$loki":1},{"_id":"5c3d65bd3525a329e0c01b92","address":"233 Liberty St NE","location":{"type":"Point","coordinates":[-122.617096,44.789388]},"isApproved":true,"items":[],"keys":["Pizza"],"lastUpdated":1547527612258,"name":"Straight From New York Pizza","phone":"(503) 581-5863","price":"$","reviewCount":114,"reviewScore":4,"meta":{"revision":0,"created":1547531151107,"version":0},"$loki":2},{"_id":"5c3d65bd3525a329e0c13823","address":"46250 E Lyons Mill City Dr","location":{"type":"Point","coordinates":[-122.5714397,44.7641959]},"isApproved":true,"items":[],"keys":["Restaurants"],"lastUpdated":1547527612697,"name":"Little Beaver Restaurant","phone":"(503) 859-2519","price":"$","reviewCount":1,"reviewScore":5,"meta":{"revision":0,"created":1547531151107,"version":0},"$loki":3},{"_id":"5c3d65bd3525a329e0c06739","address":"302 N Santiam Hwy W","location":{"type":"Point","coordinates":[-122.4199721,44.7566813]},"isApproved":true,"items":[],"keys":["Mexican"],"lastUpdated":1547527612378,"name":"Sierra Mexican Restaurant","phone":"(503) 897-2210","price":"$$","reviewCount":26,"reviewScore":3.5,"meta":{"revision":0,"created":1547531151107,"version":0},"$loki":4},{"_id":"5c3d65bd3525a329e0bffd31","address":"302 N Santiam Hwy E","location":{"type":"Point","coordinates":[-122.4192997,44.7565039]},"isApproved":true,"items":[],"keys":["Grocery","Mexican"],"lastUpdated":1547527612222,"name":"Sierra Mexican Restaurant & Market","phone":"(503) 897-9911","price":"$$","reviewCount":3,"reviewScore":4,"meta":{"revision":0,"created":1547531151107,"version":0},"$loki":5},{"_id":"5c3d65bd3525a329e0c0c544","address":"2001 NW Monroe Ave","location":{"type":"Point","coordinates":[-122.4192997,44.7565039]},"isApproved":true,"items":[],"keys":["American (Traditional)"],"lastUpdated":1547527612524,"name":"Cafe Yumm!","phone":"(541) 757-9866","price":"$","reviewCount":74,"reviewScore":3.5,"meta":{"revision":0,"created":1547531151107,"version":0},"$loki":6},{"_id":"5c3d65bd3525a329e0c00cca","address":"22842 S Hwy 99 E","location":{"type":"Point","coordinates":[-122.470497202111,44.7558710210231]},"isApproved":true,"items":[],"keys":["Steakhouses"],"lastUpdated":1547527612231,"name":"Double Aught Ranch","phone":"(503) 592-9236","price":"$","reviewCount":10,"reviewScore":3,"meta":{"revision":0,"created":1547531151107,"version":0},"$loki":7},{"_id":"5c3d65bd3525a329e0c02dc9","address":"146 NW Santiam Blvd","location":{"type":"Point","coordinates":[-122.4761476,44.7556252]},"isApproved":true,"items":[],"keys":["Pizza"],"lastUpdated":1547527612294,"name":"Giovanni Mountain Pizza","phone":"(503) 897-2614","price":"$$","reviewCount":77,"reviewScore":3.5,"meta":{"revision":0,"created":1547531151107,"version":0},"$loki":8},{"_id":"5c3d65bd3525a329e0c15ab6","address":"198 NE Santiam Blvd","location":{"type":"Point","coordinates":[-122.4754968,44.7555499]},"isApproved":true,"items":[],"keys":["American (Traditional)","Ice Cream & Frozen Yogurt","Diners"],"lastUpdated":1547527612753,"name":"Poppa Al’s","phone":"(503) 897-2223","price":"$","reviewCount":67,"reviewScore":4,"meta":{"revision":0,"created":1547531151107,"version":0},"$loki":9},{"_id":"5c3d65bd3525a329e0c0bce8","address":"218 NE Santiam Blvd","location":{"type":"Point","coordinates":[-122.478791847825,44.7567989568655]},"isApproved":true,"items":[],"keys":["Cajun/Creole","Seafood","Burgers"],"lastUpdated":1547527612510,"name":"Sam’s Krispy Krunchy Chicken","phone":"(503) 897-6050","price":"$$","reviewCount":29,"reviewScore":3.5,"meta":{"revision":0,"created":1547531151107,"version":0},"$loki":10},{"_id":"5c3d65bd3525a329e0c0d357","address":"","location":{"type":"Point","coordinates":[-122.4781385,44.7540106]},"isApproved":true,"items":[],"keys":["Sandwiches","Food Trucks"],"lastUpdated":1547527612546,"name":"Half Baked Eats and Sweets","phone":"(503) 647-8802","price":"","reviewCount":1,"reviewScore":5,"meta":{"revision":0,"created":1547531151107,"version":0},"$loki":11},{"_id":"5c3d65bd3525a329e0c12884","address":"1138 Commercial St SE","location":{"type":"Point","coordinates":[-122.4853251,44.7530269]},"isApproved":true,"items":[],"keys":["Breakfast & Brunch","American (Traditional)","Sandwiches"],"lastUpdated":1547527612678,"name":"White’s Resturant","phone":"(503) 363-0297","price":"$","reviewCount":97,"reviewScore":4,"meta":{"revision":0,"created":1547531151107,"version":0},"$loki":12},{"_id":"5c3d65bd3525a329e0c1a767","address":"815 SW Linn Pl","location":{"type":"Point","coordinates":[-122.4853251,44.7530269]},"isApproved":true,"items":[],"keys":["Bars","Pool Halls","American (Traditional)"],"lastUpdated":1547527612866,"name":"Trio Tavern","phone":"(503) 897-3380","price":"$","reviewCount":10,"reviewScore":4.5,"meta":{"revision":0,"created":1547531151107,"version":0},"$loki":13},{"_id":"5c3d65bd3525a329e0c175ff","address":"320 Nw Santiam Blvd","location":{"type":"Point","coordinates":[-122.4799224,44.7566833]},"isApproved":true,"items":[],"keys":["Breakfast & Brunch","American (Traditional)"],"lastUpdated":1547527612791,"name":"Mt Cafe","phone":"(503) 897-2741","price":"$","reviewCount":14,"reviewScore":4,"meta":{"revision":0,"created":1547531151107,"version":0},"$loki":14},{"_id":"5c3d65bd3525a329e0c0b26e","address":"200 Detroit Ave","location":{"type":"Point","coordinates":[-122.151542,44.736309]},"isApproved":true,"items":[],"keys":["Bars","American (Traditional)"],"lastUpdated":1547527612498,"name":"Cedars Restaurant & Lounge","phone":"(503) 854-3636","price":"$$","reviewCount":74,"reviewScore":3,"meta":{"revision":0,"created":1547531151107,"version":0},"$loki":15},{"_id":"5c3d65bd3525a329e0c11c67","address":"195 Detroit Ave","location":{"type":"Point","coordinates":[-122.1511258,44.7345239]},"isApproved":true,"items":[],"keys":["Barbeque","Pizza"],"lastUpdated":1547527612660,"name":"Connor’s BBQ & Pizza","phone":"(503) 913-1040","price":"$$","reviewCount":70,"reviewScore":4,"meta":{"revision":0,"created":1547531151107,"version":0},"$loki":16},{"_id":"5c3d65bd3525a329e0c02783","address":"100 Detroit Ave","location":{"type":"Point","coordinates":[-122.151327825178,44.7345894124056]},"isApproved":true,"items":[],"keys":["American (Traditional)"],"lastUpdated":1547527612285,"name":"Korner Post Restaurant","phone":"(503) 854-3735","price":"$$","reviewCount":32,"reviewScore":2.5,"meta":{"revision":0,"created":1547531151107,"version":0},"$loki":17},{"_id":"5c3d65bd3525a329e0c17477","address":"209 Grandview Ave","location":{"type":"Point","coordinates":[-122.667536,45.043588]},"isApproved":true,"items":[],"keys":["Sandwiches"],"lastUpdated":1547527612790,"name":"Rollin Sandwiches","phone":"","price":"","reviewCount":2,"reviewScore":4.5,"meta":{"revision":0,"created":1547531151107,"version":0},"$loki":18},{"_id":"5c3d65bd3525a329e0c17cc2","address":"895 W Main St","location":{"type":"Point","coordinates":[-122.7885605,44.9916468]},"isApproved":true,"items":[],"keys":["American (New)"],"lastUpdated":1547527612800,"name":"Garden View Restaurant","phone":"(503) 874-2500","price":"$$","reviewCount":22,"reviewScore":3,"meta":{"revision":0,"created":1547531151107,"version":0},"$loki":19},{"_id":"5c3d65bd3525a329e0c11f19","address":"113 SW Naito Pkwy","location":{"type":"Point","coordinates":[-122.757966,44.984538]},"isApproved":true,"items":[],"keys":["Argentine","Tapas Bars","Cocktail Bars"],"lastUpdated":1547527612662,"name":"Lechon","phone":"(503) 219-9000","price":"$$","reviewCount":972,"reviewScore":4.5,"meta":{"revision":0,"created":1547531151107,"version":0},"$loki":20},{"_id":"5c3d65bd3525a329e0c001ae","address":"201 NW Davis St","location":{"type":"Point","coordinates":[-122.662403,44.9294967]},"isApproved":true,"items":[],"keys":["Moroccan","Tea Rooms","Mediterranean"],"lastUpdated":1547527612224,"name":"Kasbah Moroccan Cafe","phone":"(971) 544-0875","price":"$","reviewCount":191,"reviewScore":5,"meta":{"revision":0,"created":1547531151107,"version":0},"$loki":21},{"_id":"5c3d65bd3525a329e0c037a0","address":"517 SW 2nd Ave","location":{"type":"Point","coordinates":[-122.793565,44.8073316]},"isApproved":true,"items":[],"keys":["Middle Eastern","Halal","Moroccan"],"lastUpdated":1547527612304,"name":"Little Morocco","phone":"(541) 286-4171","price":"$","reviewCount":66,"reviewScore":4.5,"meta":{"revision":0,"created":1547531151107,"version":0},"$loki":22},{"_id":"5c3d65bd3525a329e0c1397b","address":"1752 N 1st St","location":{"type":"Point","coordinates":[-122.793915,44.807579]},"isApproved":true,"items":[],"keys":["Mexican"],"lastUpdated":1547527612698,"name":"Muchas Gracias","phone":"(503) 767-3450","price":"$","reviewCount":16,"reviewScore":3,"meta":{"revision":0,"created":1547531151107,"version":0},"$loki":23},{"_id":"5c3d65bd3525a329e0c0fa58","address":"980 N Pacific Hwy","location":{"type":"Point","coordinates":[-122.793742933028,44.8126327981713]},"isApproved":true,"items":[],"keys":["Sports Bars","Coffee & Tea","American (Traditional)"],"lastUpdated":1547527612601,"name":"Endzone","phone":"(503) 982-3309","price":"$$","reviewCount":8,"reviewScore":3.5,"meta":{"revision":0,"created":1547531151107,"version":0},"$loki":24},{"_id":"5c3d65bd3525a329e0c104b9","address":"2009 Portland Rd","location":{"type":"Point","coordinates":[-122.814077362418,44.8095034237832]},"isApproved":true,"items":[],"keys":["Mexican"],"lastUpdated":1547527612618,"name":"Muchas Gracias","phone":"(503) 554-8777","price":"$","reviewCount":32,"reviewScore":2.5,"meta":{"revision":0,"created":1547531151107,"version":0},"$loki":25},{"_id":"5c3d65bd3525a329e0c0286a","address":"1717 Freeway Ct NE","location":{"type":"Point","coordinates":[-122.8130245,44.8089319]},"isApproved":true,"items":[],"keys":["Seafood","Steakhouses","American (Traditional)"],"lastUpdated":1547527612285,"name":"Newport Seafood Grill","phone":"(503) 315-7100","price":"$$","reviewCount":159,"reviewScore":4,"meta":{"revision":0,"created":1547531151107,"version":0},"$loki":26},{"_id":"5c3d65bd3525a329e0c15b5c","address":"3743 Commercial St SE","location":{"type":"Point","coordinates":[-122.8066754,44.801427]},"isApproved":true,"items":[],"keys":["Bars","American (New)"],"lastUpdated":1547527612754,"name":"Half Penny Public House","phone":"(503) 540-5899","price":"$$","reviewCount":84,"reviewScore":4,"meta":{"revision":0,"created":1547531151107,"version":0},"$loki":27},{"_id":"5c3d65bd3525a329e0c00af3","address":"2802 Santiam Hwy","location":{"type":"Point","coordinates":[-122.794303,44.8025573]},"isApproved":true,"items":[],"keys":["Diners","Breakfast & Brunch","American (Traditional)"],"lastUpdated":1547527612230,"name":"Elmer’s Restaurant","phone":"(541) 928-4227","price":"$$","reviewCount":87,"reviewScore":4,"meta":{"revision":0,"created":1547531151107,"version":0},"$loki":28},{"_id":"5c3d65bd3525a329e0c0adc2","address":"1005 N First Ave","location":{"type":"Point","coordinates":[-122.7946459,44.8023682]},"isApproved":true,"items":[],"keys":["Barbeque","Food Stands"],"lastUpdated":1547527612490,"name":"Squatchy’s BBQ","phone":"(503) 769-3669","price":"","reviewCount":9,"reviewScore":4,"meta":{"revision":0,"created":1547531151107,"version":0},"$loki":29},{"_id":"5c3d65bd3525a329e0c0cb0f","address":"2280 Broadway St NE","location":{"type":"Point","coordinates":[-122.7951001,44.8028239]},"isApproved":true,"items":[],"keys":["American (Traditional)"],"lastUpdated":1547527612533,"name":"Josey’s Restaurant","phone":"(503) 399-0046","price":"$$","reviewCount":54,"reviewScore":4,"meta":{"revision":0,"created":1547531151107,"version":0},"$loki":30},{"_id":"5c3d65bd3525a329e0c16386","address":"413 Grange Ave","location":{"type":"Point","coordinates":[-122.795038,44.801838]},"isApproved":true,"items":[],"keys":["Chinese"],"lastUpdated":1547527612764,"name":"Happy Family Restaurant & Lounge","phone":"(503) 829-3268","price":"$","reviewCount":34,"reviewScore":3.5,"meta":{"revision":0,"created":1547531151107,"version":0},"$loki":31},{"_id":"5c3d65bd3525a329e0c0fa5e","address":"122 W Washington St","location":{"type":"Point","coordinates":[-122.794872600107,44.8007092277205]},"isApproved":true,"items":[],"keys":["Steakhouses","Sandwiches","Burgers"],"lastUpdated":1547527612601,"name":"The Mill Steakhouse Cafe, Stayton OR","phone":"","price":"","reviewCount":4,"reviewScore":3.5,"meta":{"revision":0,"created":1547531151107,"version":0},"$loki":32},{"_id":"5c3d65bd3525a329e0c04c7b","address":"1174 N 1st St","location":{"type":"Point","coordinates":[-122.7938219,44.8033891]},"isApproved":true,"items":[],"keys":["Mexican","Bakeries"],"lastUpdated":1547527612337,"name":"La Esperanza Mexican Bakery & Restaurant","phone":"(503) 769-6996","price":"$","reviewCount":3,"reviewScore":3.5,"meta":{"revision":0,"created":1547531151107,"version":0},"$loki":33},{"_id":"5c3d65bd3525a329e0c10dbf","address":"3375 Harold Dr NE","location":{"type":"Point","coordinates":[-122.7930017,44.800546]},"isApproved":true,"items":[],"keys":["Mexican"],"lastUpdated":1547527612633,"name":"El Taco Melon","phone":"","price":"$","reviewCount":10,"reviewScore":4.5,"meta":{"revision":0,"created":1547531151107,"version":0},"$loki":34},{"_id":"5c3d65bd3525a329e0c04bb3","address":"4914 River Rd N","location":{"type":"Point","coordinates":[-122.7920849,44.7970631]},"isApproved":true,"items":[],"keys":["Sushi Bars"],"lastUpdated":1547527612337,"name":"Cherry’s Nagani","phone":"(503) 385-8428","price":"$$","reviewCount":73,"reviewScore":4,"meta":{"revision":0,"created":1547531151107,"version":0},"$loki":35},{"_id":"5c3d65bd3525a329e0c09c60","address":"2503 NW Kings Blvd","location":{"type":"Point","coordinates":[-122.793548583984,44.797420501709]},"isApproved":true,"items":[],"keys":["Tacos","Cocktail Bars"],"lastUpdated":1547527612465,"name":"Tacovore","phone":"(541) 740-2208","price":"","reviewCount":18,"reviewScore":3.5,"meta":{"revision":0,"created":1547531151107,"version":0},"$loki":36},{"_id":"5c3d65bd3525a329e0c14d75","address":"300 Liberty St SE","location":{"type":"Point","coordinates":[-122.7947222,44.796926]},"isApproved":true,"items":[],"keys":["Italian","Cantonese","Chicken Shop"],"lastUpdated":1547527612730,"name":"Marco Polo Global Restaurant","phone":"(503) 364-4833","price":"$$","reviewCount":185,"reviewScore":4,"meta":{"revision":0,"created":1547531151107,"version":0},"$loki":37},{"_id":"5c3d65bd3525a329e0c0b408","address":"176 W 3rd St","location":{"type":"Point","coordinates":[-122.819168,44.824633]},"isApproved":true,"items":[],"keys":["Cafes","Breakfast & Brunch","Burgers"],"lastUpdated":1547527612498,"name":"The American Café of Lafayette","phone":"(503) 714-4459","price":"$","reviewCount":25,"reviewScore":3.5,"meta":{"revision":0,"created":1547531151107,"version":0},"$loki":38},{"_id":"5c3d65bd3525a329e0c0c4e7","address":"103 Center St","location":{"type":"Point","coordinates":[-122.7942402,44.8303168]},"isApproved":true,"items":[],"keys":["Mexican","Breakfast & Brunch","Coffee & Tea"],"lastUpdated":1547527612524,"name":"Ricos Restaurant & Café","phone":"(503) 769-2325","price":"$","reviewCount":16,"reviewScore":4.5,"meta":{"revision":0,"created":1547531151107,"version":0},"$loki":39},{"_id":"5c3d65bd3525a329e0c15136","address":"5008 Commercial St SE","location":{"type":"Point","coordinates":[-122.870133,44.8409669]},"isApproved":true,"items":[],"keys":["Social Clubs","Restaurants","Kids Activities"],"lastUpdated":1547527612737,"name":"ticket to play cafe","phone":"(503) 990-6469","price":"","reviewCount":5,"reviewScore":4,"meta":{"revision":0,"created":1547531151107,"version":0},"$loki":40},{"_id":"5c3d65bd3525a329e0c04a21","address":"3950 Market St NE","location":{"type":"Point","coordinates":[-122.868686,44.840901]},"isApproved":true,"items":[],"keys":["Diners","Breakfast & Brunch","American (Traditional)"],"lastUpdated":1547527612331,"name":"Elmer’s Restaurant","phone":"(503) 363-3950","price":"$$","reviewCount":60,"reviewScore":2.5,"meta":{"revision":0,"created":1547531151107,"version":0},"$loki":41},{"_id":"5c3d65bd3525a329e0c099ae","address":"156 SE Mill St","location":{"type":"Point","coordinates":[-122.8666975,44.8405596]},"isApproved":true,"items":[],"keys":["Cafes","Coffee & Tea","Desserts"],"lastUpdated":1547527612463,"name":"Courtyard Cafe","phone":"(503) 623-9686","price":"","reviewCount":2,"reviewScore":3.5,"meta":{"revision":0,"created":1547531151107,"version":0},"$loki":42},{"_id":"5c3d65bd3525a329e0c06e29","address":"8362 MacLeay Rd SE","location":{"type":"Point","coordinates":[-122.8903928,44.9075261]},"isApproved":true,"items":[],"keys":["Steakhouses"],"lastUpdated":1547527612387,"name":"MacLeay Country Inn","phone":"(503) 362-4225","price":"$$","reviewCount":64,"reviewScore":3,"meta":{"revision":0,"created":1547531151107,"version":0},"$loki":43},{"_id":"5c3d65bd3525a329e0c03419","address":"3098 Lancaster Drive Northeast","location":{"type":"Point","coordinates":[-122.8989892,44.9018063]},"isApproved":true,"items":[],"keys":["Chicken Wings"],"lastUpdated":1547527612302,"name":"Wingstop","phone":"(503) 362-9464","price":"$$","reviewCount":56,"reviewScore":3.5,"meta":{"revision":0,"created":1547531151107,"version":0},"$loki":44}],"idIndex":[1,2,3,4,5,6,7,8,9,10,11,12,13,14,15,16,17,18,19,20,21,22,23,24,25,26,27,28,29,30,31,32,33,34,35,36,37,38,39,40,41,42,43,44],"binaryIndices":{},"constraints":null,"uniqueNames":[],"transforms":{},"objType":"restaurants","dirty":true,"cachedIndex":null,"cachedBinaryIndex":null,"cachedData":null,"adaptiveBinaryIndices":true,"transactional":false,"cloneObjects":false,"cloneMethod":"parse-stringify","asyncListeners":false,"disableMeta":false,"disableChangesApi":true,"disableDeltaChangesApi":true,"autoupdate":false,"serializableIndices":true,"ttl":null,"maxId":44,"DynamicViews":[],"events":{"insert":[],"update":[],"pre-insert":[],"pre-update":[],"close":[],"flushbuffer":[],"error":[],"delete":[null],"warning":[null]},"changes":[]}],"databaseVersion":1.5,"engineVersion":1.5,"autosave":false,"autosaveInterval":5000,"autosaveHandle":null,"throttledSaves":true,"options":{"serializationMethod":"normal","destructureDelimiter":"$<\n"},"persistenceMethod":"fs","persistenceAdapter":null,"verbose":false,"events":{"init":[null],"loaded":[],"flushChanges":[],"close":[],"changes":[],"warning":[]},"ENV":"NODEJS"}