{"filename":"-122.25-45","collections":[{"name":"restaurants","data":[{"_id":"5c3d65bd3525a329e0c0abe9","address":"4705 Airport Rd","location":{"type":"Point","coordinates":[-122.601666729983,45.150950894782]},"isApproved":true,"items":[],"keys":["Breakfast & Brunch","Cafes"],"lastUpdated":1547527612490,"name":"Starduster Cafe","phone":"(503) 838-1781","price":"$","reviewCount":54,"reviewScore":4,"meta":{"revision":0,"created":1547531150878,"version":0},"$loki":1},{"_id":"5c3d65bd3525a329e0c11a15","address":"970 SE Madison St","location":{"type":"Point","coordinates":[-122.601666729983,45.150950894782]},"isApproved":true,"items":[],"keys":["Vietnamese"],"lastUpdated":1547527612651,"name":"XinhXinh Vietnamese Bistro","phone":"(971) 229-1492","price":"","reviewCount":41,"reviewScore":4.5,"meta":{"revision":0,"created":1547531150878,"version":0},"$loki":2},{"_id":"5c3d65bd3525a329e0c061b3","address":"174 S Main St","location":{"type":"Point","coordinates":[-122.6016418,45.1509168]},"isApproved":true,"items":[],"keys":["Sports Bars","American (Traditional)"],"lastUpdated":1547527612369,"name":"Arena Sports Bar & Grill","phone":"(503) 838-0054","price":"$","reviewCount":18,"reviewScore":3.5,"meta":{"revision":0,"created":1547531150878,"version":0},"$loki":3},{"_id":"5c3d65bd3525a329e0c17973","address":"OR-213","location":{"type":"Point","coordinates":[-122.606164254248,45.1507546282062]},"isApproved":true,"items":[],"keys":["New Mexican Cuisine"],"lastUpdated":1547527612792,"name":"Taco Bell","phone":"","price":"","reviewCount":5,"reviewScore":2.5,"meta":{"revision":0,"created":1547531150878,"version":0},"$loki":4},{"_id":"5c3d65bd3525a329e0c08c0f","address":"1705 NW Amberglen Ct","location":{"type":"Point","coordinates":[-122.6047719,45.1507921]},"isApproved":true,"items":[],"keys":["Venues & Event Spaces","Tapas/Small Plates","Cocktail Bars"],"lastUpdated":1547527612436,"name":"W XYZ Bar","phone":"(503) 277-1900","price":"","reviewCount":8,"reviewScore":4.5,"meta":{"revision":0,"created":1547531150878,"version":0},"$loki":5},{"_id":"5c3d65bd3525a329e0c0cb07","address":"31465 S Hwy 213","location":{"type":"Point","coordinates":[-122.60693,45.1513261868914]},"isApproved":true,"items":[],"keys":["Burgers"],"lastUpdated":1547527612533,"name":"Big Burger Drive-In","phone":"(503) 829-4240","price":"$","reviewCount":42,"reviewScore":3.5,"meta":{"revision":0,"created":1547531150878,"version":0},"$loki":6},{"_id":"5c3d65bd3525a329e0c1157a","address":"2732 Pacific Blvd SE","location":{"type":"Point","coordinates":[-122.5760229,45.1501115]},"isApproved":true,"items":[],"keys":["Buffets","Chinese"],"lastUpdated":1547527612649,"name":"Golden Town Buffet & Grill","phone":"(541) 981-2276","price":"$$","reviewCount":44,"reviewScore":3,"meta":{"revision":0,"created":1547531150878,"version":0},"$loki":7},{"_id":"5c3d65bd3525a329e0c03d97","address":"2212 Santiam Hwy SE","location":{"type":"Point","coordinates":[-122.5726648,45.1497434]},"isApproved":true,"items":[],"keys":["Pizza","Italian","Salad"],"lastUpdated":1547527612313,"name":"PizzAmore","phone":"(541) 917-9000","price":"$$","reviewCount":91,"reviewScore":4,"meta":{"revision":0,"created":1547531150878,"version":0},"$loki":8},{"_id":"5c3d65bd3525a329e0c041a1","address":"3838 SW Moody Ave","location":{"type":"Point","coordinates":[-122.5755191,45.1473711]},"isApproved":true,"items":[],"keys":["Thai","Street Vendors"],"lastUpdated":1547527612320,"name":"Sutisa Let’s Eat Thai Food","phone":"(503) 462-5746","price":"","reviewCount":19,"reviewScore":4.5,"meta":{"revision":0,"created":1547531150878,"version":0},"$loki":9},{"_id":"5c3d65bd3525a329e0c179c1","address":"401 Center St NE","location":{"type":"Point","coordinates":[-122.5755191,45.1473711]},"isApproved":true,"items":[],"keys":["Pizza"],"lastUpdated":1547527612792,"name":"Little Sicily Pizza","phone":"(503) 363-4779","price":"","reviewCount":1,"reviewScore":3,"meta":{"revision":0,"created":1547531150878,"version":0},"$loki":10},{"_id":"5c3d65bd3525a329e0bffcca","address":"236 W 1st Ave","location":{"type":"Point","coordinates":[-122.5759748,45.1467151]},"isApproved":true,"items":[],"keys":["Thai"],"lastUpdated":1547527612221,"name":"Tip Thai","phone":"(541) 248-3666","price":"","reviewCount":21,"reviewScore":4,"meta":{"revision":0,"created":1547531150878,"version":0},"$loki":11},{"_id":"5c3d65bd3525a329e0c142fe","address":"475 Taggart Dr NW","location":{"type":"Point","coordinates":[-122.576430205129,45.1473247528069]},"isApproved":true,"items":[],"keys":["Mexican"],"lastUpdated":1547527612713,"name":"La Hacienda Real","phone":"(503) 585-3855","price":"$$","reviewCount":59,"reviewScore":3.5,"meta":{"revision":0,"created":1547531150878,"version":0},"$loki":12},{"_id":"5c3d65bd3525a329e0c196a1","address":"525 Taggart Dr NW","location":{"type":"Point","coordinates":[-122.577136298587,45.1477307647528]},"isApproved":true,"items":[],"keys":["Bakeries","Coffee & Tea","Sandwiches"],"lastUpdated":1547527612841,"name":"Great Harvest Bread Company","phone":"(503) 363-7555","price":"$$","reviewCount":23,"reviewScore":3.5,"meta":{"revision":0,"created":1547531150878,"version":0},"$loki":13},{"_id":"5c3d65bd3525a329e0c0dc99","address":"1349 Monmouth St","location":{"type":"Point","coordinates":[-122.5760511,45.1475678]},"isApproved":true,"items":[],"keys":["Mexican"],"lastUpdated":1547527612557,"name":"Los Dos Amigos Hacienda","phone":"(503) 838-0223","price":"$$","reviewCount":18,"reviewScore":4,"meta":{"revision":0,"created":1547531150878,"version":0},"$loki":14},{"_id":"5c3d65bd3525a329e0bff6d3","address":"715 SE 1st Ave","location":{"type":"Point","coordinates":[-122.5772212,45.1478192]},"isApproved":true,"items":[],"keys":["Pizza"],"lastUpdated":1547527612217,"name":"Fultanos Pizza","phone":"(503) 266-1444","price":"$","reviewCount":45,"reviewScore":3.5,"meta":{"revision":0,"created":1547531150878,"version":0},"$loki":15},{"_id":"5c3d65bd3525a329e0c0cb8b","address":"3760 Ctr St NE","location":{"type":"Point","coordinates":[-122.5751599,45.1493587]},"isApproved":true,"items":[],"keys":["Steakhouses","Japanese","Sushi Bars"],"lastUpdated":1547527612533,"name":"Nagoya Steakhouse & Sushi","phone":"(503) 362-8018","price":"$$","reviewCount":217,"reviewScore":4,"meta":{"revision":0,"created":1547531150878,"version":0},"$loki":16},{"_id":"5c3d65bd3525a329e0c197c8","address":"17770 SW Pilkington Rd","location":{"type":"Point","coordinates":[-122.5751599,45.1493587]},"isApproved":true,"items":[],"keys":["Mexican"],"lastUpdated":1547527612842,"name":"Sabrozon Fresh Mexican Food","phone":"(503) 908-8488","price":"$","reviewCount":129,"reviewScore":4.5,"meta":{"revision":0,"created":1547531150878,"version":0},"$loki":17},{"_id":"5c3d65bd3525a329e0c002e9","address":"111 Shaver Ave","location":{"type":"Point","coordinates":[-122.580665498972,45.147875759502]},"isApproved":true,"items":[],"keys":["Food Trucks","Mexican"],"lastUpdated":1547527612225,"name":"Taqueria La Silleta","phone":"","price":"","reviewCount":4,"reviewScore":4.5,"meta":{"revision":0,"created":1547531150878,"version":0},"$loki":18},{"_id":"5c3d65bd3525a329e0c003c3","address":"3866 Center St NE","location":{"type":"Point","coordinates":[-122.5778186,45.1477927]},"isApproved":true,"items":[],"keys":["Sports Bars","Barbeque"],"lastUpdated":1547527612226,"name":"Giorgio’s Bar & Grill","phone":"(503) 363-2888","price":"","reviewCount":5,"reviewScore":3,"meta":{"revision":0,"created":1547531150878,"version":0},"$loki":19},{"_id":"5c3d65bd3525a329e0c0ce8b","address":"211 SW 5th St","location":{"type":"Point","coordinates":[-122.5771182,45.1463715]},"isApproved":true,"items":[],"keys":["Sandwiches","Salad","Soup"],"lastUpdated":1547527612534,"name":"University Hero","phone":"(541) 754-7827","price":"$","reviewCount":33,"reviewScore":4,"meta":{"revision":0,"created":1547531150878,"version":0},"$loki":20},{"_id":"5c3d65bd3525a329e0c10c3e","address":"333 N 2nd Ave","location":{"type":"Point","coordinates":[-122.5827908,45.1976817]},"isApproved":true,"items":[],"keys":["Chinese","American (Traditional)"],"lastUpdated":1547527612633,"name":"Red Apple","phone":"(503) 769-8132","price":"$","reviewCount":30,"reviewScore":3,"meta":{"revision":0,"created":1547531150878,"version":0},"$loki":21},{"_id":"5c3d65bd3525a329e0c15d1a","address":"11830 NW Cedar Falls Dr","location":{"type":"Point","coordinates":[-122.5827908,45.1976817]},"isApproved":true,"items":[],"keys":["Ramen","Izakaya"],"lastUpdated":1547527612755,"name":"Kizuki Ramen & Izakaya","phone":"(971) 266-3188","price":"$$","reviewCount":788,"reviewScore":4,"meta":{"revision":0,"created":1547531150878,"version":0},"$loki":22},{"_id":"5c3d65bd3525a329e0c07186","address":"1450 Monmouth St","location":{"type":"Point","coordinates":[-122.5808816,45.2084285]},"isApproved":true,"items":[],"keys":["Chinese"],"lastUpdated":1547527612397,"name":"Jade Terrace","phone":"(503) 606-4092","price":"$","reviewCount":22,"reviewScore":3.5,"meta":{"revision":0,"created":1547531150878,"version":0},"$loki":23},{"_id":"5c3d65bd3525a329e0c08ded","address":"101 W Historic Columbia River Hwy","location":{"type":"Point","coordinates":[-122.3338032,45.2944367]},"isApproved":true,"items":[],"keys":["Cocktail Bars","American (Traditional)","French"],"lastUpdated":1547527612437,"name":"Troutini","phone":"(503) 912-1462","price":"$$","reviewCount":201,"reviewScore":4,"meta":{"revision":0,"created":1547531150878,"version":0},"$loki":24},{"_id":"5c3d65bd3525a329e0c172ac","address":"210 NE Lutheran Church Rd","location":{"type":"Point","coordinates":[-122.3356139,45.2944522]},"isApproved":true,"items":[],"keys":["Coffee & Tea","Ice Cream & Frozen Yogurt","Breakfast & Brunch"],"lastUpdated":1547527612783,"name":"The Cabin Drive-Thru","phone":"(509) 427-0095","price":"$","reviewCount":37,"reviewScore":5,"meta":{"revision":0,"created":1547531150878,"version":0},"$loki":25},{"_id":"5c3d65bd3525a329e0c0f40f","address":"","location":{"type":"Point","coordinates":[-122.3341302,45.2920726]},"isApproved":true,"items":[],"keys":["Food Trucks","Mexican"],"lastUpdated":1547527612592,"name":"Pepes Tacos","phone":"(503) 756-2710","price":"$","reviewCount":20,"reviewScore":4.5,"meta":{"revision":0,"created":1547531150878,"version":0},"$loki":26},{"_id":"5c3d65bd3525a329e0c1891c","address":"1213 June St","location":{"type":"Point","coordinates":[-122.332656383514,45.2840286879517]},"isApproved":true,"items":[],"keys":["Mexican"],"lastUpdated":1547527612822,"name":"Lake Taco","phone":"(541) 386-2276","price":"$","reviewCount":139,"reviewScore":4.5,"meta":{"revision":0,"created":1547531150878,"version":0},"$loki":27},{"_id":"5c3d65bd3525a329e0c10015","address":"216 W Steuben St","location":{"type":"Point","coordinates":[-122.3336159,45.2852579]},"isApproved":true,"items":[],"keys":["Barbeque"],"lastUpdated":1547527612609,"name":"Pine Shed Ribs and Barbecue","phone":"(509) 281-3330","price":"$$","reviewCount":42,"reviewScore":3.5,"meta":{"revision":0,"created":1547531150878,"version":0},"$loki":28},{"_id":"5c3d65bd3525a329e0c19c9b","address":"73 1st St","location":{"type":"Point","coordinates":[-122.335885,45.285579]},"isApproved":true,"items":[],"keys":["American (Traditional)","Breakfast & Brunch"],"lastUpdated":1547527612850,"name":"Big T’s Grill","phone":"(509) 427-0333","price":"$$","reviewCount":83,"reviewScore":4,"meta":{"revision":0,"created":1547531150878,"version":0},"$loki":29},{"_id":"5c3d65bd3525a329e0bff4b2","address":"34 N Mariposa Dr","location":{"type":"Point","coordinates":[-122.335635605751,45.2864340020772]},"isApproved":true,"items":[],"keys":["American (Traditional)","Lounges"],"lastUpdated":1547527612216,"name":"Anglers Restaurant & Lounge","phone":"(541) 544-2299","price":"$$","reviewCount":5,"reviewScore":4,"meta":{"revision":0,"created":1547531150878,"version":0},"$loki":30},{"_id":"5c3d65bd3525a329e0c1b493","address":"18801 SE Stark St","location":{"type":"Point","coordinates":[-122.3337051,45.286412]},"isApproved":true,"items":[],"keys":["Mexican"],"lastUpdated":1547527612885,"name":"Don Pedro Mexican Food","phone":"(503) 618-1359","price":"$","reviewCount":109,"reviewScore":3.5,"meta":{"revision":0,"created":1547531150878,"version":0},"$loki":31},{"_id":"5c3d65bd3525a329e0c07a1d","address":"395 NW Wa Na Pa St","location":{"type":"Point","coordinates":[-122.3349178,45.2870991]},"isApproved":true,"items":[],"keys":["American (Traditional)","Ice Cream & Frozen Yogurt"],"lastUpdated":1547527612409,"name":"East Wind Drive-In","phone":"(541) 374-8380","price":"$","reviewCount":177,"reviewScore":4,"meta":{"revision":0,"created":1547531150878,"version":0},"$loki":32},{"_id":"5c3d65bd3525a329e0c01991","address":"Clackamas Hwy","location":{"type":"Point","coordinates":[-122.334819,45.287415]},"isApproved":true,"items":[],"keys":["Mexican"],"lastUpdated":1547527612257,"name":"Pepe’s Taco Truck","phone":"","price":"$","reviewCount":5,"reviewScore":4,"meta":{"revision":0,"created":1547531150878,"version":0},"$loki":33},{"_id":"5c3d65bd3525a329e0c120fa","address":"411 S Broadway St","location":{"type":"Point","coordinates":[-122.335548,45.286609]},"isApproved":true,"items":[],"keys":["Pizza","Italian"],"lastUpdated":1547527612663,"name":"Figaro’s Pizza","phone":"(503) 630-4400","price":"$$","reviewCount":11,"reviewScore":3.5,"meta":{"revision":0,"created":1547531150878,"version":0},"$loki":34},{"_id":"5c3d65bd3525a329e0c09420","address":"19422 SE Stark St","location":{"type":"Point","coordinates":[-122.3375849,45.2876373]},"isApproved":true,"items":[],"keys":["Mexican"],"lastUpdated":1547527612453,"name":"El Indio’s","phone":"(503) 665-4919","price":"$$","reviewCount":36,"reviewScore":3.5,"meta":{"revision":0,"created":1547531150878,"version":0},"$loki":35},{"_id":"5c3d65bd3525a329e0c19b7f","address":"240 SW 1st St","location":{"type":"Point","coordinates":[-122.337661,45.288382]},"isApproved":true,"items":[],"keys":["Breweries","American (Traditional)"],"lastUpdated":1547527612849,"name":"Walking Man Brewing","phone":"(509) 427-5520","price":"$$","reviewCount":206,"reviewScore":4,"meta":{"revision":0,"created":1547531150878,"version":0},"$loki":36},{"_id":"5c3d65bd3525a329e0c061d7","address":"68010 E Fairway Ave","location":{"type":"Point","coordinates":[-122.3349655,45.2881549]},"isApproved":true,"items":[],"keys":["Burgers","Salad","Fish & Chips"],"lastUpdated":1547527612369,"name":"Mallards Cafe & Pub","phone":"(503) 622-2241","price":"$$","reviewCount":31,"reviewScore":2.5,"meta":{"revision":0,"created":1547531150878,"version":0},"$loki":37},{"_id":"5c3d65bd3525a329e0c13528","address":"1131 SW Skamania Lodge Way","location":{"type":"Point","coordinates":[-122.3387119,45.2883624]},"isApproved":true,"items":[],"keys":["Diners","American (New)"],"lastUpdated":1547527612696,"name":"Cascade Dining Room","phone":"(800) 221-7117","price":"$$","reviewCount":15,"reviewScore":3.5,"meta":{"revision":0,"created":1547531150878,"version":0},"$loki":38},{"_id":"5c3d65bd3525a329e0c0e4ae","address":"16 Oak St","location":{"type":"Point","coordinates":[-122.3392504,45.2885387]},"isApproved":true,"items":[],"keys":["American (New)","Bars"],"lastUpdated":1547527612572,"name":"Celilo Restaurant & Bar","phone":"(541) 386-5710","price":"$$","reviewCount":238,"reviewScore":4,"meta":{"revision":0,"created":1547531150878,"version":0},"$loki":39},{"_id":"5c3d65bd3525a329e0c13899","address":"66674 E Hwy 26","location":{"type":"Point","coordinates":[-122.33989700675,45.2893880344526]},"isApproved":true,"items":[],"keys":["Pubs","American (Traditional)"],"lastUpdated":1547527612698,"name":"Whistle Stop Bar & Grill","phone":"(503) 622-3440","price":"$","reviewCount":34,"reviewScore":3,"meta":{"revision":0,"created":1547531150878,"version":0},"$loki":40},{"_id":"5c3d65bd3525a329e0c0797d","address":"53000 Historic Columbia River Hwy","location":{"type":"Point","coordinates":[-122.2430123,45.2196721]},"isApproved":true,"items":[],"keys":["American (New)"],"lastUpdated":1547527612409,"name":"Multnomah Falls Lodge Restaurant","phone":"(503) 695-2376","price":"$$","reviewCount":320,"reviewScore":3.5,"meta":{"revision":0,"created":1547531150878,"version":0},"$loki":41},{"_id":"5c3d65bd3525a329e0c04c59","address":"4780 Hwy 35","location":{"type":"Point","coordinates":[-122.193489,45.19849]},"isApproved":true,"items":[],"keys":["Pizza","American (Traditional)","Bars"],"lastUpdated":1547527612337,"name":"Saw Tooth Roadhouse","phone":"(541) 354-2511","price":"$$","reviewCount":36,"reviewScore":4,"meta":{"revision":0,"created":1547531150878,"version":0},"$loki":42},{"_id":"5c3d65bd3525a329e0c06739","address":"302 N Santiam Hwy W","location":{"type":"Point","coordinates":[-122.4199721,44.7566813]},"isApproved":true,"items":[],"keys":["Mexican"],"lastUpdated":1547527612378,"name":"Sierra Mexican Restaurant","phone":"(503) 897-2210","price":"$$","reviewCount":26,"reviewScore":3.5,"meta":{"revision":0,"created":1547531150878,"version":0},"$loki":43},{"_id":"5c3d65bd3525a329e0bffd31","address":"302 N Santiam Hwy E","location":{"type":"Point","coordinates":[-122.4192997,44.7565039]},"isApproved":true,"items":[],"keys":["Grocery","Mexican"],"lastUpdated":1547527612222,"name":"Sierra Mexican Restaurant & Market","phone":"(503) 897-9911","price":"$$","reviewCount":3,"reviewScore":4,"meta":{"revision":0,"created":1547531150878,"version":0},"$loki":44},{"_id":"5c3d65bd3525a329e0c0c544","address":"2001 NW Monroe Ave","location":{"type":"Point","coordinates":[-122.4192997,44.7565039]},"isApproved":true,"items":[],"keys":["American (Traditional)"],"lastUpdated":1547527612524,"name":"Cafe Yumm!","phone":"(541) 757-9866","price":"$","reviewCount":74,"reviewScore":3.5,"meta":{"revision":0,"created":1547531150878,"version":0},"$loki":45},{"_id":"5c3d65bd3525a329e0c00cca","address":"22842 S Hwy 99 E","location":{"type":"Point","coordinates":[-122.470497202111,44.7558710210231]},"isApproved":true,"items":[],"keys":["Steakhouses"],"lastUpdated":1547527612231,"name":"Double Aught Ranch","phone":"(503) 592-9236","price":"$","reviewCount":10,"reviewScore":3,"meta":{"revision":0,"created":1547531150878,"version":0},"$loki":46},{"_id":"5c3d65bd3525a329e0c02dc9","address":"146 NW Santiam Blvd","location":{"type":"Point","coordinates":[-122.4761476,44.7556252]},"isApproved":true,"items":[],"keys":["Pizza"],"lastUpdated":1547527612294,"name":"Giovanni Mountain Pizza","phone":"(503) 897-2614","price":"$$","reviewCount":77,"reviewScore":3.5,"meta":{"revision":0,"created":1547531150878,"version":0},"$loki":47},{"_id":"5c3d65bd3525a329e0c15ab6","address":"198 NE Santiam Blvd","location":{"type":"Point","coordinates":[-122.4754968,44.7555499]},"isApproved":true,"items":[],"keys":["American (Traditional)","Ice Cream & Frozen Yogurt","Diners"],"lastUpdated":1547527612753,"name":"Poppa Al’s","phone":"(503) 897-2223","price":"$","reviewCount":67,"reviewScore":4,"meta":{"revision":0,"created":1547531150878,"version":0},"$loki":48},{"_id":"5c3d65bd3525a329e0c0bce8","address":"218 NE Santiam Blvd","location":{"type":"Point","coordinates":[-122.478791847825,44.7567989568655]},"isApproved":true,"items":[],"keys":["Cajun/Creole","Seafood","Burgers"],"lastUpdated":1547527612510,"name":"Sam’s Krispy Krunchy Chicken","phone":"(503) 897-6050","price":"$$","reviewCount":29,"reviewScore":3.5,"meta":{"revision":0,"created":1547531150878,"version":0},"$loki":49},{"_id":"5c3d65bd3525a329e0c0d357","address":"","location":{"type":"Point","coordinates":[-122.4781385,44.7540106]},"isApproved":true,"items":[],"keys":["Sandwiches","Food Trucks"],"lastUpdated":1547527612546,"name":"Half Baked Eats and Sweets","phone":"(503) 647-8802","price":"","reviewCount":1,"reviewScore":5,"meta":{"revision":0,"created":1547531150878,"version":0},"$loki":50},{"_id":"5c3d65bd3525a329e0c12884","address":"1138 Commercial St SE","location":{"type":"Point","coordinates":[-122.4853251,44.7530269]},"isApproved":true,"items":[],"keys":["Breakfast & Brunch","American (Traditional)","Sandwiches"],"lastUpdated":1547527612678,"name":"White’s Resturant","phone":"(503) 363-0297","price":"$","reviewCount":97,"reviewScore":4,"meta":{"revision":0,"created":1547531150878,"version":0},"$loki":51},{"_id":"5c3d65bd3525a329e0c1a767","address":"815 SW Linn Pl","location":{"type":"Point","coordinates":[-122.4853251,44.7530269]},"isApproved":true,"items":[],"keys":["Bars","Pool Halls","American (Traditional)"],"lastUpdated":1547527612866,"name":"Trio Tavern","phone":"(503) 897-3380","price":"$","reviewCount":10,"reviewScore":4.5,"meta":{"revision":0,"created":1547531150878,"version":0},"$loki":52},{"_id":"5c3d65bd3525a329e0c175ff","address":"320 Nw Santiam Blvd","location":{"type":"Point","coordinates":[-122.4799224,44.7566833]},"isApproved":true,"items":[],"keys":["Breakfast & Brunch","American (Traditional)"],"lastUpdated":1547527612791,"name":"Mt Cafe","phone":"(503) 897-2741","price":"$","reviewCount":14,"reviewScore":4,"meta":{"revision":0,"created":1547531150878,"version":0},"$loki":53},{"_id":"5c3d65bd3525a329e0c0b26e","address":"200 Detroit Ave","location":{"type":"Point","coordinates":[-122.151542,44.736309]},"isApproved":true,"items":[],"keys":["Bars","American (Traditional)"],"lastUpdated":1547527612498,"name":"Cedars Restaurant & Lounge","phone":"(503) 854-3636","price":"$$","reviewCount":74,"reviewScore":3,"meta":{"revision":0,"created":1547531150878,"version":0},"$loki":54},{"_id":"5c3d65bd3525a329e0c11c67","address":"195 Detroit Ave","location":{"type":"Point","coordinates":[-122.1511258,44.7345239]},"isApproved":true,"items":[],"keys":["Barbeque","Pizza"],"lastUpdated":1547527612660,"name":"Connor’s BBQ & Pizza","phone":"(503) 913-1040","price":"$$","reviewCount":70,"reviewScore":4,"meta":{"revision":0,"created":1547531150878,"version":0},"$loki":55},{"_id":"5c3d65bd3525a329e0c02783","address":"100 Detroit Ave","location":{"type":"Point","coordinates":[-122.151327825178,44.7345894124056]},"isApproved":true,"items":[],"keys":["American (Traditional)"],"lastUpdated":1547527612285,"name":"Korner Post Restaurant","phone":"(503) 854-3735","price":"$$","reviewCount":32,"reviewScore":2.5,"meta":{"revision":0,"created":1547531150878,"version":0},"$loki":56},{"_id":"5c3d65bd3525a329e0c00b2a","address":"615 Main St E","location":{"type":"Point","coordinates":[-122.4341175,45.1716926]},"isApproved":true,"items":[],"keys":["Fast Food","Burgers"],"lastUpdated":1547527612230,"name":"Burgerville USA","phone":"(503) 838-6096","price":"$","reviewCount":61,"reviewScore":3.5,"meta":{"revision":0,"created":1547531150878,"version":0},"$loki":57},{"_id":"5c3d65bd3525a329e0c06c1e","address":"39400 Pioneer Blvd","location":{"type":"Point","coordinates":[-122.4341175,45.1716926]},"isApproved":true,"items":[],"keys":["Breakfast & Brunch","American (Traditional)"],"lastUpdated":1547527612386,"name":"Stephanie’s International Café","phone":"(503) 482-0808","price":"$$","reviewCount":64,"reviewScore":3.5,"meta":{"revision":0,"created":1547531150878,"version":0},"$loki":58},{"_id":"5c3d65bd3525a329e0bfff37","address":"744 Old Salem Rd NE","location":{"type":"Point","coordinates":[-122.686248030411,45.072765136142]},"isApproved":true,"items":[],"keys":["Barbeque","Steakhouses","Sandwiches"],"lastUpdated":1547527612223,"name":"Oregon Barbecue","phone":"(541) 704-7333","price":"$$","reviewCount":126,"reviewScore":4.5,"meta":{"revision":0,"created":1547531150878,"version":0},"$loki":59},{"_id":"5c3d65bd3525a329e0c16082","address":"1109 Sw 1st Ave","location":{"type":"Point","coordinates":[-122.686248030411,45.072765136142]},"isApproved":true,"items":[],"keys":["Thai"],"lastUpdated":1547527612756,"name":"Thai Corner Cuisine","phone":"(503) 263-2442","price":"$","reviewCount":116,"reviewScore":4.5,"meta":{"revision":0,"created":1547531150878,"version":0},"$loki":60},{"_id":"5c3d65bd3525a329e0c17477","address":"209 Grandview Ave","location":{"type":"Point","coordinates":[-122.667536,45.043588]},"isApproved":true,"items":[],"keys":["Sandwiches"],"lastUpdated":1547527612790,"name":"Rollin Sandwiches","phone":"","price":"","reviewCount":2,"reviewScore":4.5,"meta":{"revision":0,"created":1547531150878,"version":0},"$loki":61},{"_id":"5c3d65bd3525a329e0c001ae","address":"201 NW Davis St","location":{"type":"Point","coordinates":[-122.662403,44.9294967]},"isApproved":true,"items":[],"keys":["Moroccan","Tea Rooms","Mediterranean"],"lastUpdated":1547527612224,"name":"Kasbah Moroccan Cafe","phone":"(971) 544-0875","price":"$","reviewCount":191,"reviewScore":5,"meta":{"revision":0,"created":1547531150878,"version":0},"$loki":62}],"idIndex":[1,2,3,4,5,6,7,8,9,10,11,12,13,14,15,16,17,18,19,20,21,22,23,24,25,26,27,28,29,30,31,32,33,34,35,36,37,38,39,40,41,42,43,44,45,46,47,48,49,50,51,52,53,54,55,56,57,58,59,60,61,62],"binaryIndices":{},"constraints":null,"uniqueNames":[],"transforms":{},"objType":"restaurants","dirty":true,"cachedIndex":null,"cachedBinaryIndex":null,"cachedData":null,"adaptiveBinaryIndices":true,"transactional":false,"cloneObjects":false,"cloneMethod":"parse-stringify","asyncListeners":false,"disableMeta":false,"disableChangesApi":true,"disableDeltaChangesApi":true,"autoupdate":false,"serializableIndices":true,"ttl":null,"maxId":62,"DynamicViews":[],"events":{"insert":[],"update":[],"pre-insert":[],"pre-update":[],"close":[],"flushbuffer":[],"error":[],"delete":[null],"warning":[null]},"changes":[]}],"databaseVersion":1.5,"engineVersion":1.5,"autosave":false,"autosaveInterval":5000,"autosaveHandle":null,"throttledSaves":true,"options":{"serializationMethod":"normal","destructureDelimiter":"$<\n"},"persistenceMethod":"fs","persistenceAdapter":null,"verbose":false,"events":{"init":[null],"loaded":[],"flushChanges":[],"close":[],"changes":[],"warning":[]},"ENV":"NODEJS"}