{"filename":"-122.5-48.25","collections":[{"name":"restaurants","data":[{"_id":"5c3d65bd3525a329e0c0ae08","address":"108 N Township St","location":{"type":"Point","coordinates":[-122.226457,48.5114356]},"isApproved":true,"items":[],"keys":["Fast Food","Sandwiches"],"lastUpdated":1547527612491,"name":"Subway","phone":"(360) 856-5778","price":"$","reviewCount":9,"reviewScore":1.5,"meta":{"revision":0,"created":1547531156717,"version":0},"$loki":1},{"_id":"5c3d65bd3525a329e0c12e66","address":"1550 S Burlington Blvd","location":{"type":"Point","coordinates":[-122.226457,48.5114356]},"isApproved":true,"items":[],"keys":["Pizza"],"lastUpdated":1547527612681,"name":"Little Caesar’s Pizza","phone":"(360) 757-0608","price":"","reviewCount":4,"reviewScore":1,"meta":{"revision":0,"created":1547531156717,"version":0},"$loki":2},{"_id":"5c3d65bd3525a329e0c15ee0","address":"4370 Meridian St","location":{"type":"Point","coordinates":[-122.226457,48.5114356]},"isApproved":true,"items":[],"keys":["Indian"],"lastUpdated":1547527612756,"name":"Punjabi Junction","phone":"(360) 656-6025","price":"$$","reviewCount":102,"reviewScore":4,"meta":{"revision":0,"created":1547531156717,"version":0},"$loki":3},{"_id":"5c3d65bd3525a329e0c18a8c","address":"201 East Holly St","location":{"type":"Point","coordinates":[-122.2253981,48.5100402]},"isApproved":true,"items":[],"keys":["Sandwiches","Mediterranean","Fast Food"],"lastUpdated":1547527612823,"name":"Pita Pit","phone":"(360) 778-3657","price":"$","reviewCount":46,"reviewScore":4,"meta":{"revision":0,"created":1547531156717,"version":0},"$loki":4},{"_id":"5c3d65bd3525a329e0c118fe","address":"800 SE Pioneer Way","location":{"type":"Point","coordinates":[-122.2288029,48.509802]},"isApproved":true,"items":[],"keys":["Vietnamese","Asian Fusion","Laotian"],"lastUpdated":1547527612651,"name":"Tamayo’s","phone":"(425) 429-1181","price":"$$","reviewCount":166,"reviewScore":4,"meta":{"revision":0,"created":1547531156717,"version":0},"$loki":5},{"_id":"5c3d65bd3525a329e0c1b167","address":"811 Iowa St","location":{"type":"Point","coordinates":[-122.257840186357,48.5016408771312]},"isApproved":true,"items":[],"keys":["Fast Food","Ice Cream & Frozen Yogurt"],"lastUpdated":1547527612877,"name":"Dairy Queen","phone":"(360) 671-0855","price":"$","reviewCount":16,"reviewScore":4,"meta":{"revision":0,"created":1547531156717,"version":0},"$loki":6},{"_id":"5c3d65bd3525a329e0c099a5","address":"2083 State Route 20","location":{"type":"Point","coordinates":[-122.25889,48.500596]},"isApproved":true,"items":[],"keys":["Pizza"],"lastUpdated":1547527612463,"name":"Cascade Pizza Inn","phone":"(360) 856-1136","price":"","reviewCount":1,"reviewScore":1,"meta":{"revision":0,"created":1547531156717,"version":0},"$loki":7},{"_id":"5c3d65bd3525a329e0c0c9d2","address":"1172 State Rt 20","location":{"type":"Point","coordinates":[-122.26010565061,48.5008627908766]},"isApproved":true,"items":[],"keys":["Burgers","Salad","Sandwiches"],"lastUpdated":1547527612532,"name":"Skagit Valley Burgers Express","phone":"(360) 707-8778","price":"$$","reviewCount":136,"reviewScore":4.5,"meta":{"revision":0,"created":1547531156717,"version":0},"$loki":8},{"_id":"5c3d65bd3525a329e0c10083","address":"852 W State Rte 20","location":{"type":"Point","coordinates":[-122.2544909,48.5026535]},"isApproved":true,"items":[],"keys":["Italian","Pizza"],"lastUpdated":1547527612610,"name":"Cascade Pizza & Italian Cuisine","phone":"(360) 856-1136","price":"$$","reviewCount":30,"reviewScore":3,"meta":{"revision":0,"created":1547531156717,"version":0},"$loki":9},{"_id":"5c3d65bd3525a329e0c18bc4","address":"1038 S Burlington Blvd","location":{"type":"Point","coordinates":[-122.255734609739,48.5020681700315]},"isApproved":true,"items":[],"keys":["Thai"],"lastUpdated":1547527612824,"name":"Taste Of Thai By Wipa","phone":"(360) 899-5823","price":"","reviewCount":43,"reviewScore":5,"meta":{"revision":0,"created":1547531156717,"version":0},"$loki":10},{"_id":"5c3d65bd3525a329e0c16a17","address":"600 Crossroads Sq","location":{"type":"Point","coordinates":[-122.2490984,48.5045954]},"isApproved":true,"items":[],"keys":["Burgers","Fast Food"],"lastUpdated":1547527612773,"name":"Burger King","phone":"(360) 856-5798","price":"$","reviewCount":13,"reviewScore":1.5,"meta":{"revision":0,"created":1547531156717,"version":0},"$loki":11},{"_id":"5c3d65bd3525a329e0c1881b","address":"2315 Williams St","location":{"type":"Point","coordinates":[-122.2391939,48.5055929]},"isApproved":true,"items":[],"keys":["Restaurants"],"lastUpdated":1547527612822,"name":"Columbia Place","phone":"(360) 671-3630","price":"","reviewCount":1,"reviewScore":1,"meta":{"revision":0,"created":1547531156717,"version":0},"$loki":12},{"_id":"5c3d65bd3525a329e0c0914d","address":"2001 E College Way","location":{"type":"Point","coordinates":[-122.238165177405,48.5054716360468]},"isApproved":true,"items":[],"keys":["Japanese"],"lastUpdated":1547527612446,"name":"Kyoto Kitchen Japanese Restaurant","phone":"(360) 428-3699","price":"$$","reviewCount":94,"reviewScore":4,"meta":{"revision":0,"created":1547531156717,"version":0},"$loki":13},{"_id":"5c3d65bd3525a329e0c13e12","address":"701 S 2nd St","location":{"type":"Point","coordinates":[-122.2383724,48.5057467]},"isApproved":true,"items":[],"keys":["Cafes","Diners","Sandwiches"],"lastUpdated":1547527612706,"name":"The Lunchbox Diner","phone":"(360) 336-2026","price":"$$","reviewCount":11,"reviewScore":4.5,"meta":{"revision":0,"created":1547531156717,"version":0},"$loki":14},{"_id":"5c3d65bd3525a329e0c070d5","address":"3320 Commercial Ave","location":{"type":"Point","coordinates":[-122.2390439,48.5051121]},"isApproved":true,"items":[],"keys":["Seafood","Fish & Chips","Breakfast & Brunch"],"lastUpdated":1547527612389,"name":"Bob’s Chowder Bar","phone":"(360) 299-8000","price":"$$","reviewCount":164,"reviewScore":4,"meta":{"revision":0,"created":1547531156717,"version":0},"$loki":15},{"_id":"5c3d65bd3525a329e0c1a715","address":"708 Metcalf St","location":{"type":"Point","coordinates":[-122.238967,48.5050175]},"isApproved":true,"items":[],"keys":["American (Traditional)","Burgers","Pubs"],"lastUpdated":1547527612866,"name":"Iron Mountain Bar & Grill","phone":"(360) 982-2079","price":"","reviewCount":5,"reviewScore":5,"meta":{"revision":0,"created":1547531156717,"version":0},"$loki":16},{"_id":"5c3d65bd3525a329e0c0e461","address":"707 Metcalf St","location":{"type":"Point","coordinates":[-122.2382708,48.5050026]},"isApproved":true,"items":[],"keys":["Steakhouses","American (Traditional)","Wraps"],"lastUpdated":1547527612572,"name":"Liberty Bistro","phone":"(360) 855-2917","price":"$$","reviewCount":20,"reviewScore":4.5,"meta":{"revision":0,"created":1547531156717,"version":0},"$loki":17},{"_id":"5c3d65bd3525a329e0c17f35","address":"11768 Westar Ln","location":{"type":"Point","coordinates":[-122.238219,48.5036349]},"isApproved":true,"items":[],"keys":["Bakeries","Cooking Classes","Gluten-Free"],"lastUpdated":1547527612802,"name":"King Arthur Baking School","phone":"(800) 652-3334","price":"$$","reviewCount":4,"reviewScore":5,"meta":{"revision":0,"created":1547531156717,"version":0},"$loki":18},{"_id":"5c3d65bd3525a329e0c13ac6","address":"1005 Commercial Ave","location":{"type":"Point","coordinates":[-122.2381617,48.5035005]},"isApproved":true,"items":[],"keys":["Pizza","Sandwiches","Hawaiian"],"lastUpdated":1547527612699,"name":"Coconut Kenny’s","phone":"(360) 899-4438","price":"$$","reviewCount":14,"reviewScore":4,"meta":{"revision":0,"created":1547531156717,"version":0},"$loki":19},{"_id":"5c3d65bd3525a329e0c0e8d4","address":"818 Metcalf St","location":{"type":"Point","coordinates":[-122.2390187,48.5039069]},"isApproved":true,"items":[],"keys":["Breakfast & Brunch","American (Traditional)"],"lastUpdated":1547527612575,"name":"Hometown Cafe","phone":"(360) 855-5012","price":"$","reviewCount":17,"reviewScore":3.5,"meta":{"revision":0,"created":1547531156717,"version":0},"$loki":20},{"_id":"5c3d65bd3525a329e0c15a5f","address":"410 W Bakerview Rd","location":{"type":"Point","coordinates":[-122.2389697,48.5047586]},"isApproved":true,"items":[],"keys":["Salvadoran"],"lastUpdated":1547527612748,"name":"Restaurante Morazan","phone":"(360) 656-6617","price":"$","reviewCount":18,"reviewScore":4.5,"meta":{"revision":0,"created":1547531156717,"version":0},"$loki":21},{"_id":"5c3d65bd3525a329e0c00f4d","address":"321 State St","location":{"type":"Point","coordinates":[-122.2363241,48.5030965]},"isApproved":true,"items":[],"keys":["Burgers"],"lastUpdated":1547527612237,"name":"Hal’s Drive In","phone":"(360) 855-0868","price":"$","reviewCount":36,"reviewScore":4,"meta":{"revision":0,"created":1547531156717,"version":0},"$loki":22},{"_id":"5c3d65bd3525a329e0c067e6","address":"1880 SW Camano Dr","location":{"type":"Point","coordinates":[-122.243406,48.23975]},"isApproved":true,"items":[],"keys":["Cafes"],"lastUpdated":1547527612378,"name":"Cama Beach Cafe & Catering","phone":"(360) 387-3266","price":"$$","reviewCount":50,"reviewScore":4.5,"meta":{"revision":0,"created":1547531156717,"version":0},"$loki":23},{"_id":"5c3d65bd3525a329e0c0a9af","address":"1708 Commercial Ave","location":{"type":"Point","coordinates":[-122.1841675,48.2145095]},"isApproved":true,"items":[],"keys":["Asian Fusion","Sushi Bars"],"lastUpdated":1547527612482,"name":"Happy Wok Teriyaki Sushi & Roll","phone":"(360) 293-0300","price":"$","reviewCount":54,"reviewScore":4,"meta":{"revision":0,"created":1547531156717,"version":0},"$loki":24},{"_id":"5c3d65bd3525a329e0c076d6","address":"7619 Country Clb Dr","location":{"type":"Point","coordinates":[-122.1274356,48.157375]},"isApproved":true,"items":[],"keys":["American (Traditional)"],"lastUpdated":1547527612402,"name":"Gleneagle Family Restaurant","phone":"(360) 474-9955","price":"$","reviewCount":9,"reviewScore":3.5,"meta":{"revision":0,"created":1547531156717,"version":0},"$loki":25},{"_id":"5c3d65bd3525a329e0c10396","address":"117 E Division St","location":{"type":"Point","coordinates":[-122.1260545,48.1989012]},"isApproved":true,"items":[],"keys":["Vegan","Vegetarian","Bars"],"lastUpdated":1547527612617,"name":"Mirkwood & Shire Cafe","phone":"(360) 403-9020","price":"$$","reviewCount":83,"reviewScore":3.5,"meta":{"revision":0,"created":1547531156717,"version":0},"$loki":26},{"_id":"5c3d65bd3525a329e0c0c64b","address":"709 Orchard Pl","location":{"type":"Point","coordinates":[-122.128605,48.198405]},"isApproved":true,"items":[],"keys":["Delis","Pizza","Barbeque"],"lastUpdated":1547527612525,"name":"Jeckyl & Hyde Deli & Ale House","phone":"(360) 715-9100","price":"$$","reviewCount":65,"reviewScore":3.5,"meta":{"revision":0,"created":1547531156717,"version":0},"$loki":27},{"_id":"5c3d65bd3525a329e0c01a79","address":"509 West Ave","location":{"type":"Point","coordinates":[-122.1281165,48.1984114]},"isApproved":true,"items":[],"keys":["Pizza"],"lastUpdated":1547527612257,"name":"Pizza Factory","phone":"(360) 435-8701","price":"$$","reviewCount":30,"reviewScore":3,"meta":{"revision":0,"created":1547531156717,"version":0},"$loki":28},{"_id":"5c3d65bd3525a329e0c0c5a1","address":"434 N Olympic Ave","location":{"type":"Point","coordinates":[-122.126600034535,48.197133525839]},"isApproved":true,"items":[],"keys":["Coffee & Tea","Bakeries","Sandwiches"],"lastUpdated":1547527612524,"name":"Moe’s","phone":"(360) 322-7604","price":"","reviewCount":9,"reviewScore":4.5,"meta":{"revision":0,"created":1547531156717,"version":0},"$loki":29},{"_id":"5c3d65bd3525a329e0bff4f6","address":"32945 State Rt 20","location":{"type":"Point","coordinates":[-122.12676,48.1966149]},"isApproved":true,"items":[],"keys":["American (Traditional)"],"lastUpdated":1547527612216,"name":"Frank’s Place Family Dining","phone":"(360) 675-5850","price":"$","reviewCount":88,"reviewScore":2.5,"meta":{"revision":0,"created":1547531156717,"version":0},"$loki":30},{"_id":"5c3d65bd3525a329e0c06949","address":"2501 Washington St","location":{"type":"Point","coordinates":[-122.1350704,48.1872191]},"isApproved":true,"items":[],"keys":["Seafood"],"lastUpdated":1547527612379,"name":"Sea J’s Cafe","phone":"(360) 385-6312","price":"$","reviewCount":82,"reviewScore":3.5,"meta":{"revision":0,"created":1547531156717,"version":0},"$loki":31},{"_id":"5c3d65bd3525a329e0c06256","address":"231 N Olympic Ave","location":{"type":"Point","coordinates":[-122.1261051,48.1946052]},"isApproved":true,"items":[],"keys":["American (New)","French","Seafood"],"lastUpdated":1547527612369,"name":"Bistro San Martin","phone":"(360) 474-9229","price":"$$$","reviewCount":141,"reviewScore":4.5,"meta":{"revision":0,"created":1547531156717,"version":0},"$loki":32},{"_id":"5c3d65bd3525a329e0c12b6d","address":"322 N Olympic Ave","location":{"type":"Point","coordinates":[-122.1267325,48.1954974]},"isApproved":true,"items":[],"keys":["American (New)"],"lastUpdated":1547527612680,"name":"Crosswalk Tavern","phone":"(360) 403-0492","price":"","reviewCount":2,"reviewScore":2.5,"meta":{"revision":0,"created":1547531156717,"version":0},"$loki":33},{"_id":"5c3d65bd3525a329e0c16e64","address":"5048 Mt Baker Hwy","location":{"type":"Point","coordinates":[-122.1266725,48.1950657]},"isApproved":true,"items":[],"keys":["American (Traditional)"],"lastUpdated":1547527612780,"name":"Eddy Music & Sports Bar","phone":"(360) 354-7428","price":"","reviewCount":1,"reviewScore":3,"meta":{"revision":0,"created":1547531156717,"version":0},"$loki":34},{"_id":"5c3d65bd3525a329e0c114cc","address":"Commercial Ave","location":{"type":"Point","coordinates":[-122.1266639,48.1951748]},"isApproved":true,"items":[],"keys":["Cafes"],"lastUpdated":1547527612643,"name":"Whidbey Coffee","phone":"(800) 575-5282","price":"$","reviewCount":4,"reviewScore":4.5,"meta":{"revision":0,"created":1547531156717,"version":0},"$loki":35},{"_id":"5c3d65bd3525a329e0c099a2","address":"329 N Olympic Ave","location":{"type":"Point","coordinates":[-122.1260637,48.1957011]},"isApproved":true,"items":[],"keys":["Mexican","Bars","Seafood"],"lastUpdated":1547527612463,"name":"Playa Bonita","phone":"(360) 403-7130","price":"$$","reviewCount":40,"reviewScore":3.5,"meta":{"revision":0,"created":1547531156717,"version":0},"$loki":36},{"_id":"5c3d65bd3525a329e0c01ff1","address":"80 1st St","location":{"type":"Point","coordinates":[-122.1261376,48.1959513]},"isApproved":true,"items":[],"keys":["Bars","American (New)"],"lastUpdated":1547527612274,"name":"Herb’s Tavern","phone":"(360) 378-7076","price":"$$","reviewCount":111,"reviewScore":3,"meta":{"revision":0,"created":1547531156717,"version":0},"$loki":37},{"_id":"5c3d65bd3525a329e0c081bb","address":"2030 Riverside Dr","location":{"type":"Point","coordinates":[-122.1267606,48.1812833]},"isApproved":true,"items":[],"keys":["Steakhouses"],"lastUpdated":1547527612419,"name":"Max Dale’s Steak & Chop House","phone":"(360) 424-7171","price":"$$","reviewCount":88,"reviewScore":3.5,"meta":{"revision":0,"created":1547531156717,"version":0},"$loki":38},{"_id":"5c3d65bd3525a329e0c12b42","address":"20308 77th Ave NE","location":{"type":"Point","coordinates":[-122.12703,48.180122]},"isApproved":true,"items":[],"keys":["Japanese"],"lastUpdated":1547527612680,"name":"K’s Teriyaki","phone":"(360) 474-0789","price":"$$","reviewCount":23,"reviewScore":4,"meta":{"revision":0,"created":1547531156717,"version":0},"$loki":39},{"_id":"5c3d65bd3525a329e0c0af77","address":"6015 192nd St NE","location":{"type":"Point","coordinates":[-122.1510685,48.1704571]},"isApproved":true,"items":[],"keys":["Grocery","Mexican","Wholesalers"],"lastUpdated":1547527612491,"name":"San Juan Salsa Company","phone":"(360) 435-2100","price":"","reviewCount":2,"reviewScore":5,"meta":{"revision":0,"created":1547531156717,"version":0},"$loki":40},{"_id":"5c3d65bd3525a329e0c16e50","address":"401 Harris Ave","location":{"type":"Point","coordinates":[-122.1421402,48.1812882]},"isApproved":true,"items":[],"keys":["Coffee & Tea","Soup","Sandwiches"],"lastUpdated":1547527612780,"name":"Coffee Junction","phone":"(360) 733-3172","price":"$","reviewCount":5,"reviewScore":3,"meta":{"revision":0,"created":1547531156717,"version":0},"$loki":41},{"_id":"5c3d65bd3525a329e0c1a7ad","address":"830 SE Pioneer Way","location":{"type":"Point","coordinates":[-122.139927,48.181425]},"isApproved":true,"items":[],"keys":["Breakfast & Brunch","American (New)","Mexican"],"lastUpdated":1547527612867,"name":"Noe Jose Cafe","phone":"(360) 682-6119","price":"$$","reviewCount":122,"reviewScore":4.5,"meta":{"revision":0,"created":1547531156717,"version":0},"$loki":42},{"_id":"5c3d65bd3525a329e0c00194","address":"925 Water St","location":{"type":"Point","coordinates":[-122.190696,48.17518]},"isApproved":true,"items":[],"keys":["American (New)","Seafood","Steakhouses"],"lastUpdated":1547527612224,"name":"The Belmont","phone":"(360) 385-3007","price":"$$","reviewCount":89,"reviewScore":3,"meta":{"revision":0,"created":1547531156717,"version":0},"$loki":43},{"_id":"5c3d65bd3525a329e0c0262d","address":"1208 E Maple St","location":{"type":"Point","coordinates":[-122.1511176,48.1613913]},"isApproved":true,"items":[],"keys":["Chinese"],"lastUpdated":1547527612284,"name":"New Peking","phone":"(360) 734-5272","price":"$$","reviewCount":52,"reviewScore":3.5,"meta":{"revision":0,"created":1547531156717,"version":0},"$loki":44},{"_id":"5c3d65bd3525a329e0c06ca6","address":"16414 Twin Lakes Ave","location":{"type":"Point","coordinates":[-122.150467000902,48.1591182780782]},"isApproved":true,"items":[],"keys":["Asian Fusion"],"lastUpdated":1547527612386,"name":"Miyako’s Teriyaki & Wok","phone":"(360) 654-1920","price":"$","reviewCount":63,"reviewScore":3.5,"meta":{"revision":0,"created":1547531156717,"version":0},"$loki":45},{"_id":"5c3d65bd3525a329e0bffaf4","address":"2631 172ND STREET NE","location":{"type":"Point","coordinates":[-122.194158,48.152967]},"isApproved":true,"items":[],"keys":["Fast Food","Delis","Sandwiches"],"lastUpdated":1547527612220,"name":"Firehouse Subs","phone":"(360) 652-8368","price":"$$","reviewCount":34,"reviewScore":2.5,"meta":{"revision":0,"created":1547531156717,"version":0},"$loki":46},{"_id":"5c3d65bd3525a329e0c076c0","address":"1148 10th St","location":{"type":"Point","coordinates":[-122.193065381558,48.1535858830004]},"isApproved":true,"items":[],"keys":["Pizza","Sandwiches","Cocktail Bars"],"lastUpdated":1547527612402,"name":"Ovn Wood Fired Pizza","phone":"(360) 393-4327","price":"$$","reviewCount":113,"reviewScore":4,"meta":{"revision":0,"created":1547531156717,"version":0},"$loki":47},{"_id":"5c3d65bd3525a329e0c0680d","address":"1120 Barkley Blvd","location":{"type":"Point","coordinates":[-122.1848989,48.153201]},"isApproved":true,"items":[],"keys":["Fast Food","Chicken Wings","Chicken Shop"],"lastUpdated":1547527612378,"name":"KFC","phone":"(360) 734-4550","price":"$","reviewCount":19,"reviewScore":2.5,"meta":{"revision":0,"created":1547531156717,"version":0},"$loki":48},{"_id":"5c3d65bd3525a329e0c0ccd1","address":"3405 172nd St NE","location":{"type":"Point","coordinates":[-122.1848989,48.153201]},"isApproved":true,"items":[],"keys":["Japanese"],"lastUpdated":1547527612534,"name":"No 1 Teriyaki","phone":"(360) 653-5084","price":"$","reviewCount":15,"reviewScore":3.5,"meta":{"revision":0,"created":1547531156717,"version":0},"$loki":49},{"_id":"5c3d65bd3525a329e0c137fb","address":"77 Village Rd","location":{"type":"Point","coordinates":[-122.1805111,48.1528236]},"isApproved":true,"items":[],"keys":["Cafes"],"lastUpdated":1547527612697,"name":"Vita’s Wildly Delicious - Temp. CLOSED","phone":"(360) 468-4268","price":"$$","reviewCount":39,"reviewScore":4.5,"meta":{"revision":0,"created":1547531156717,"version":0},"$loki":50},{"_id":"5c3d65bd3525a329e0c038b5","address":"100 E Montgomery St","location":{"type":"Point","coordinates":[-122.175628590863,48.1519905007752]},"isApproved":true,"items":[],"keys":["Italian"],"lastUpdated":1547527612304,"name":"IL Granaio","phone":"(360) 419-0674","price":"$$","reviewCount":104,"reviewScore":3.5,"meta":{"revision":0,"created":1547531156717,"version":0},"$loki":51},{"_id":"5c3d65bd3525a329e0c0b6d0","address":"1020 W Bakerview Rd","location":{"type":"Point","coordinates":[-122.1756916,48.1522679]},"isApproved":true,"items":[],"keys":["Fast Food"],"lastUpdated":1547527612500,"name":"Jack In the Box","phone":"(360) 647-6072","price":"$","reviewCount":14,"reviewScore":2.5,"meta":{"revision":0,"created":1547531156717,"version":0},"$loki":52},{"_id":"5c3d65bd3525a329e0c1a719","address":"1306 Lakeway Dr","location":{"type":"Point","coordinates":[-122.178611755371,48.1521009809685]},"isApproved":true,"items":[],"keys":["Pizza"],"lastUpdated":1547527612866,"name":"Papa John’s Pizza","phone":"(360) 671-7272","price":"$$","reviewCount":11,"reviewScore":4,"meta":{"revision":0,"created":1547531156717,"version":0},"$loki":53},{"_id":"5c3d65bd3525a329e0c070e3","address":"217 East College Way","location":{"type":"Point","coordinates":[-122.178747,48.148788]},"isApproved":true,"items":[],"keys":["Fast Food","Mexican","Tex-Mex"],"lastUpdated":1547527612389,"name":"Taco Bell","phone":"(360) 428-6090","price":"$","reviewCount":16,"reviewScore":2.5,"meta":{"revision":0,"created":1547531156717,"version":0},"$loki":54},{"_id":"5c3d65bd3525a329e0c00d2a","address":"700 Ohio St","location":{"type":"Point","coordinates":[-122.1841163,48.1502268]},"isApproved":true,"items":[],"keys":["Food Trucks","Mexican"],"lastUpdated":1547527612236,"name":"Tacos El Mexicano","phone":"(360) 739-3870","price":"$","reviewCount":1,"reviewScore":4,"meta":{"revision":0,"created":1547531156717,"version":0},"$loki":55},{"_id":"5c3d65bd3525a329e0c0c1c7","address":"1220 N Forest St","location":{"type":"Point","coordinates":[-122.1838402,48.1495353]},"isApproved":true,"items":[],"keys":["Delis","Gluten-Free","Vegetarian"],"lastUpdated":1547527612517,"name":"Swan Cafe","phone":"(360) 734-0542","price":"$","reviewCount":9,"reviewScore":4,"meta":{"revision":0,"created":1547531156717,"version":0},"$loki":56},{"_id":"5c3d65bd3525a329e0c12cb6","address":"211 W Holly St","location":{"type":"Point","coordinates":[-122.1809727,48.148898]},"isApproved":true,"items":[],"keys":["Pizza","Salad","Bars"],"lastUpdated":1547527612680,"name":"Goat Mountain Pizza","phone":"(360) 510-6336","price":"$","reviewCount":160,"reviewScore":4,"meta":{"revision":0,"created":1547531156717,"version":0},"$loki":57},{"_id":"5c3d65bd3525a329e0c049cb","address":"2219 Rimland Dr Suite 115 Bellingham Wa 98226","location":{"type":"Point","coordinates":[-122.181186676025,48.1484002641731]},"isApproved":true,"items":[],"keys":["Health & Medical","Real Estate Agents","Restaurants"],"lastUpdated":1547527612331,"name":"Barkley Village","phone":"(360) 671-6450","price":"","reviewCount":1,"reviewScore":5,"meta":{"revision":0,"created":1547531156717,"version":0},"$loki":58},{"_id":"5c3d65bd3525a329e0c005fd","address":"1204 Cornwall Ave","location":{"type":"Point","coordinates":[-122.185502,48.1485401]},"isApproved":true,"items":[],"keys":["Chinese","Noodles"],"lastUpdated":1547527612227,"name":"Dumpling King","phone":"(360) 392-8393","price":"$$","reviewCount":51,"reviewScore":3,"meta":{"revision":0,"created":1547531156717,"version":0},"$loki":59},{"_id":"5c3d65bd3525a329e0c01578","address":"17020 Twin Lakes Avenue","location":{"type":"Point","coordinates":[-122.1895365,48.1496463]},"isApproved":true,"items":[],"keys":["Chicken Wings","American (Traditional)","Sports Bars"],"lastUpdated":1547527612249,"name":"Buffalo Wild Wings","phone":"(360) 652-5349","price":"$$","reviewCount":138,"reviewScore":2.5,"meta":{"revision":0,"created":1547531156717,"version":0},"$loki":60},{"_id":"5c3d65bd3525a329e0c05d9f","address":"1038 Water St","location":{"type":"Point","coordinates":[-122.189758,48.149515]},"isApproved":true,"items":[],"keys":["Brasseries","American (Traditional)"],"lastUpdated":1547527612361,"name":"The Old Whiskey Mill","phone":"(360) 385-4422","price":"$$","reviewCount":87,"reviewScore":3,"meta":{"revision":0,"created":1547531156717,"version":0},"$loki":61},{"_id":"5c3d65bd3525a329e0c0211e","address":"11 Bellwether Way","location":{"type":"Point","coordinates":[-122.190469,48.1507461]},"isApproved":true,"items":[],"keys":["Sushi Bars","Conveyor Belt Sushi"],"lastUpdated":1547527612275,"name":"Kuru Kuru Sushi","phone":"(360) 392-8224","price":"$$","reviewCount":148,"reviewScore":3.5,"meta":{"revision":0,"created":1547531156717,"version":0},"$loki":62},{"_id":"5c3d65bd3525a329e0c1a2f2","address":"5625 3rd","location":{"type":"Point","coordinates":[-122.1895826,48.1501669]},"isApproved":true,"items":[],"keys":["Cantonese"],"lastUpdated":1547527612858,"name":"Kowloon Inn","phone":"(360) 384-4600","price":"$$","reviewCount":16,"reviewScore":2.5,"meta":{"revision":0,"created":1547531156717,"version":0},"$loki":63},{"_id":"5c3d65bd3525a329e0c01afe","address":"531 SE Midway Blvd","location":{"type":"Point","coordinates":[-122.1851523,48.1503348]},"isApproved":true,"items":[],"keys":["Pizza","Bowling","Arcades"],"lastUpdated":1547527612258,"name":"Oak Bowl & Mario’s Pizza","phone":"(360) 679-2533","price":"$","reviewCount":17,"reviewScore":3.5,"meta":{"revision":0,"created":1547531156717,"version":0},"$loki":64},{"_id":"5c3d65bd3525a329e0bffa41","address":"3323 169th Pl N E","location":{"type":"Point","coordinates":[-122.1851572,48.1503348]},"isApproved":true,"items":[],"keys":["Bakeries","Sandwiches","Breakfast & Brunch"],"lastUpdated":1547527612220,"name":"Smokey Point Bakery Cafe","phone":"(360) 572-0238","price":"$","reviewCount":80,"reviewScore":4.5,"meta":{"revision":0,"created":1547531156717,"version":0},"$loki":65},{"_id":"5c3d65bd3525a329e0c0c0d7","address":"2433 E Bakerview Rd","location":{"type":"Point","coordinates":[-122.1866083,48.1529045]},"isApproved":true,"items":[],"keys":["Burgers","Fast Food","Coffee & Tea"],"lastUpdated":1547527612516,"name":"McDonald’s","phone":"(360) 733-3267","price":"$","reviewCount":5,"reviewScore":3.5,"meta":{"revision":0,"created":1547531156717,"version":0},"$loki":66},{"_id":"5c3d65bd3525a329e0c0f5ea","address":"1220 N Forest St","location":{"type":"Point","coordinates":[-122.1875492,48.1536474]},"isApproved":true,"items":[],"keys":["Health Markets","Delis","Grocery"],"lastUpdated":1547527612598,"name":"Community Food Co-op","phone":"(360) 734-8158","price":"$$","reviewCount":76,"reviewScore":3.5,"meta":{"revision":0,"created":1547531156717,"version":0},"$loki":67},{"_id":"5c3d65bd3525a329e0c142a9","address":"1308 Burlington Blvd.","location":{"type":"Point","coordinates":[-122.191169559583,48.1511858538066]},"isApproved":true,"items":[],"keys":["Fast Food","Tex-Mex","Mexican"],"lastUpdated":1547527612713,"name":"Taco Bell","phone":"(360) 757-7403","price":"$","reviewCount":9,"reviewScore":2.5,"meta":{"revision":0,"created":1547531156717,"version":0},"$loki":68},{"_id":"5c3d65bd3525a329e0c100ba","address":"365 Spring St","location":{"type":"Point","coordinates":[-122.19221568691,48.151631553762]},"isApproved":true,"items":[],"keys":["Pizza","Burgers","Sandwiches"],"lastUpdated":1547527612610,"name":"Cousin Vinnie’s NY Pizza Cafe","phone":"(360) 378-8308","price":"$$","reviewCount":27,"reviewScore":3,"meta":{"revision":0,"created":1547531156717,"version":0},"$loki":69},{"_id":"5c3d65bd3525a329e0c09e24","address":"2631 172nd St NE","location":{"type":"Point","coordinates":[-122.194118,48.152766]},"isApproved":true,"items":[],"keys":["Mexican","Fast Food"],"lastUpdated":1547527612471,"name":"QDOBA Mexican Eats","phone":"(360) 652-8385","price":"$$","reviewCount":36,"reviewScore":2.5,"meta":{"revision":0,"created":1547531156717,"version":0},"$loki":70},{"_id":"5c3d65bd3525a329e0c1009f","address":"306 N Main St","location":{"type":"Point","coordinates":[-122.194609,48.152476]},"isApproved":true,"items":[],"keys":["Breakfast & Brunch","Coffee & Tea","Gift Shops"],"lastUpdated":1547527612610,"name":"Sunshine Drip","phone":"(360) 682-6201","price":"$$","reviewCount":31,"reviewScore":4.5,"meta":{"revision":0,"created":1547531156717,"version":0},"$loki":71},{"_id":"5c3d65bd3525a329e0c07b47","address":"1383 Marine Dr","location":{"type":"Point","coordinates":[-122.1894543,48.1486434]},"isApproved":true,"items":[],"keys":["Grocery","Delis"],"lastUpdated":1547527612410,"name":"Fort Bellingham Market & Deli","phone":"(360) 733-0527","price":"","reviewCount":4,"reviewScore":4.5,"meta":{"revision":0,"created":1547531156717,"version":0},"$loki":72},{"_id":"5c3d65bd3525a329e0c03bc0","address":"1301 E Maple St","location":{"type":"Point","coordinates":[-122.1904695,48.1457898]},"isApproved":true,"items":[],"keys":["Greek","Mediterranean"],"lastUpdated":1547527612312,"name":"Five Columns","phone":"(360) 676-9900","price":"$$","reviewCount":46,"reviewScore":3.5,"meta":{"revision":0,"created":1547531156717,"version":0},"$loki":73},{"_id":"5c3d65bd3525a329e0c06ed6","address":"5631 Riverside Dr","location":{"type":"Point","coordinates":[-122.18903,48.14663]},"isApproved":true,"items":[],"keys":["American (New)","Ice Cream & Frozen Yogurt"],"lastUpdated":1547527612388,"name":"Dairy Queen","phone":"(360) 384-1312","price":"$","reviewCount":5,"reviewScore":3,"meta":{"revision":0,"created":1547531156717,"version":0},"$loki":74},{"_id":"5c3d65bd3525a329e0c02b63","address":"1822 Freeway Dr","location":{"type":"Point","coordinates":[-122.211121,48.1519051]},"isApproved":true,"items":[],"keys":["Fast Food","Sandwiches"],"lastUpdated":1547527612286,"name":"Arby’s","phone":"(360) 428-0223","price":"$","reviewCount":19,"reviewScore":2.5,"meta":{"revision":0,"created":1547531156717,"version":0},"$loki":75},{"_id":"5c3d65bd3525a329e0c16ddd","address":"","location":{"type":"Point","coordinates":[-122.196955,48.15247]},"isApproved":true,"items":[],"keys":["American (New)"],"lastUpdated":1547527612780,"name":"The Upstage Restaurant & Theater","phone":"","price":"$$$$","reviewCount":1,"reviewScore":4,"meta":{"revision":0,"created":1547531156717,"version":0},"$loki":76},{"_id":"5c3d65bd3525a329e0c15768","address":"1100 Railroad Ave","location":{"type":"Point","coordinates":[-122.196124,48.152607]},"isApproved":true,"items":[],"keys":["Hot Dogs","Food Stands"],"lastUpdated":1547527612746,"name":"Chow Hot Dogs","phone":"(360) 610-7188","price":"","reviewCount":2,"reviewScore":5,"meta":{"revision":0,"created":1547531156717,"version":0},"$loki":77},{"_id":"5c3d65bd3525a329e0c129fb","address":"1017 Hodgin St","location":{"type":"Point","coordinates":[-122.196051822721,48.1528858461104]},"isApproved":true,"items":[],"keys":["Burgers","Fast Food","Coffee & Tea"],"lastUpdated":1547527612679,"name":"McDonald’s","phone":"(360) 856-2822","price":"$","reviewCount":8,"reviewScore":2.5,"meta":{"revision":0,"created":1547531156717,"version":0},"$loki":78},{"_id":"5c3d65bd3525a329e0c007f1","address":"2543 172nd St NE","location":{"type":"Point","coordinates":[-122.196093,48.153121]},"isApproved":true,"items":[],"keys":["Chicken Wings","Fast Food"],"lastUpdated":1547527612228,"name":"Popeyes Louisiana Kitchen","phone":"(360) 654-8299","price":"","reviewCount":33,"reviewScore":2,"meta":{"revision":0,"created":1547531156717,"version":0},"$loki":79},{"_id":"5c3d65bd3525a329e0c12edf","address":"8910 Viking Way","location":{"type":"Point","coordinates":[-122.2745766,48.155409]},"isApproved":true,"items":[],"keys":["Thai"],"lastUpdated":1547527612687,"name":"Stanwood Thai","phone":"(360) 572-2200","price":"","reviewCount":6,"reviewScore":4,"meta":{"revision":0,"created":1547531156717,"version":0},"$loki":80},{"_id":"5c3d65bd3525a329e0c16653","address":"2323 E Section St","location":{"type":"Point","coordinates":[-122.182278335094,48.1186242143753]},"isApproved":true,"items":[],"keys":["Japanese"],"lastUpdated":1547527612765,"name":"Umi Teriyaki","phone":"(360) 848-8470","price":"$","reviewCount":15,"reviewScore":3,"meta":{"revision":0,"created":1547531156717,"version":0},"$loki":81},{"_id":"5c3d65bd3525a329e0c104ae","address":"104 South Samish Way","location":{"type":"Point","coordinates":[-122.1838579,48.1312104]},"isApproved":true,"items":[],"keys":["Pizza"],"lastUpdated":1547527612618,"name":"Pizza Hut","phone":"(360) 733-5660","price":"$","reviewCount":13,"reviewScore":3.5,"meta":{"revision":0,"created":1547531156717,"version":0},"$loki":82},{"_id":"5c3d65bd3525a329e0c0c08f","address":"1232 N State St","location":{"type":"Point","coordinates":[-122.1836199,48.1347192]},"isApproved":true,"items":[],"keys":["Pizza"],"lastUpdated":1547527612516,"name":"Rudy’s Pizzeria","phone":"(360) 647-7547","price":"$","reviewCount":99,"reviewScore":3.5,"meta":{"revision":0,"created":1547531156717,"version":0},"$loki":83},{"_id":"5c3d65bd3525a329e0c059af","address":"1710 Riverside Drive","location":{"type":"Point","coordinates":[-122.1608306,48.1517163]},"isApproved":true,"items":[],"keys":["Pizza"],"lastUpdated":1547527612355,"name":"Pizza Hut","phone":"(360) 424-7020","price":"$","reviewCount":6,"reviewScore":2.5,"meta":{"revision":0,"created":1547531156717,"version":0},"$loki":84},{"_id":"5c3d65bd3525a329e0c0e7f3","address":"5200 172nd St NE","location":{"type":"Point","coordinates":[-122.156829,48.150156]},"isApproved":true,"items":[],"keys":["American (Traditional)","Steakhouses","Breakfast & Brunch"],"lastUpdated":1547527612574,"name":"Buzz Inn Steakhouse","phone":"(360) 658-1529","price":"$$","reviewCount":65,"reviewScore":2.5,"meta":{"revision":0,"created":1547531156717,"version":0},"$loki":85},{"_id":"5c3d65bd3525a329e0c091be","address":"32650 State Route 20","location":{"type":"Point","coordinates":[-122.189125856114,48.0934552166389]},"isApproved":true,"items":[],"keys":["Sandwiches","Mediterranean","Fast Food"],"lastUpdated":1547527612451,"name":"Pita Pit","phone":"(360) 675-5111","price":"$","reviewCount":33,"reviewScore":3,"meta":{"revision":0,"created":1547531156717,"version":0},"$loki":86},{"_id":"5c3d65bd3525a329e0c10ecc","address":"1030 Lakeway Dr","location":{"type":"Point","coordinates":[-122.3485607,48.1865261]},"isApproved":true,"items":[],"keys":["Tacos"],"lastUpdated":1547527612640,"name":"Taqueria","phone":"(360) 714-6820","price":"","reviewCount":2,"reviewScore":5,"meta":{"revision":0,"created":1547531156717,"version":0},"$loki":87},{"_id":"5c3d65bd3525a329e0c18dc6","address":"1207 Q Ave","location":{"type":"Point","coordinates":[-122.298238945321,48.155882432696]},"isApproved":true,"items":[],"keys":["Bars","Breakfast & Brunch"],"lastUpdated":1547527612831,"name":"Anthony’s Homeport","phone":"(360) 588-0333","price":"$$","reviewCount":10,"reviewScore":4,"meta":{"revision":0,"created":1547531156717,"version":0},"$loki":88},{"_id":"5c3d65bd3525a329e0c0059e","address":"2202 State Rt 530 NE","location":{"type":"Point","coordinates":[-122.200466394424,48.1874411852514]},"isApproved":true,"items":[],"keys":["American (Traditional)","Breakfast & Brunch","Diners"],"lastUpdated":1547527612227,"name":"Denny’s","phone":"(360) 652-9444","price":"$","reviewCount":59,"reviewScore":2,"meta":{"revision":0,"created":1547531156717,"version":0},"$loki":89},{"_id":"5c3d65bd3525a329e0c03545","address":"9322 271th St NW","location":{"type":"Point","coordinates":[-122.251841185576,48.2004542710267]},"isApproved":true,"items":[],"keys":["Japanese"],"lastUpdated":1547527612303,"name":"Naha Teriyaki","phone":"(360) 629-0681","price":"$","reviewCount":17,"reviewScore":4,"meta":{"revision":0,"created":1547531156717,"version":0},"$loki":90},{"_id":"5c3d65bd3525a329e0c18319","address":"12 Front St NE","location":{"type":"Point","coordinates":[-122.365113459528,48.2397147263674]},"isApproved":true,"items":[],"keys":["Sandwiches","Soup","American (Traditional)"],"lastUpdated":1547527612813,"name":"The Lower Loft Eatery","phone":"(360) 678-2900","price":"","reviewCount":14,"reviewScore":4,"meta":{"revision":0,"created":1547531156717,"version":0},"$loki":91},{"_id":"5c3d65bd3525a329e0c11205","address":"1200 11th St","location":{"type":"Point","coordinates":[-122.3654208,48.2397935]},"isApproved":true,"items":[],"keys":["Cafes","Chocolatiers & Shops"],"lastUpdated":1547527612642,"name":"Evolve Chocolate + Cafe","phone":"(360) 220-1898","price":"","reviewCount":16,"reviewScore":3.5,"meta":{"revision":0,"created":1547531156717,"version":0},"$loki":92},{"_id":"5c3d65bd3525a329e0c17d29","address":"248 Reuben Memorial Dr","location":{"type":"Point","coordinates":[-122.367486,48.2409696]},"isApproved":true,"items":[],"keys":["American (Traditional)","Barbeque","Bars"],"lastUpdated":1547527612801,"name":"Madrona Bar & Grill","phone":"(360) 378-2155","price":"$$","reviewCount":124,"reviewScore":4,"meta":{"revision":0,"created":1547531156717,"version":0},"$loki":93},{"_id":"5c3d65bd3525a329e0c09daf","address":"9902 270th St NW","location":{"type":"Point","coordinates":[-122.366836555651,48.240815094195]},"isApproved":true,"items":[],"keys":["American (Traditional)","Comfort Food","Diners"],"lastUpdated":1547527612471,"name":"Spartan Drive-In","phone":"(360) 629-8988","price":"$","reviewCount":37,"reviewScore":3.5,"meta":{"revision":0,"created":1547531156717,"version":0},"$loki":94},{"_id":"5c3d65bd3525a329e0c09b3e","address":"590 S Burlington Blvd","location":{"type":"Point","coordinates":[-122.366572,48.2401831]},"isApproved":true,"items":[],"keys":["Mexican"],"lastUpdated":1547527612464,"name":"Taqueria Los Jarritos","phone":"(360) 755-1723","price":"$","reviewCount":89,"reviewScore":4,"meta":{"revision":0,"created":1547531156717,"version":0},"$loki":95},{"_id":"5c3d65bd3525a329e0c0a56c","address":"32170 State Rte 20","location":{"type":"Point","coordinates":[-122.3663322,48.2408221]},"isApproved":true,"items":[],"keys":["Delis"],"lastUpdated":1547527612480,"name":"Apple a Day Cafe","phone":"(360) 679-3219","price":"$","reviewCount":11,"reviewScore":4,"meta":{"revision":0,"created":1547531156717,"version":0},"$loki":96},{"_id":"5c3d65bd3525a329e0c0d915","address":"1020 Harris Ave","location":{"type":"Point","coordinates":[-122.3662851,48.2417666]},"isApproved":true,"items":[],"keys":["Seafood","Fish & Chips"],"lastUpdated":1547527612555,"name":"Fairhaven Fish and Chips","phone":"(360) 733-5021","price":"$$","reviewCount":177,"reviewScore":4,"meta":{"revision":0,"created":1547531156717,"version":0},"$loki":97},{"_id":"5c3d65bd3525a329e0c009d5","address":"2520 Commercial Ave","location":{"type":"Point","coordinates":[-122.3686469,48.241752]},"isApproved":true,"items":[],"keys":["Mexican","Fast Food"],"lastUpdated":1547527612229,"name":"Agave Tacqueria","phone":"(360) 588-1288","price":"$","reviewCount":150,"reviewScore":4,"meta":{"revision":0,"created":1547531156717,"version":0},"$loki":98},{"_id":"5c3d65bd3525a329e0c00360","address":"165 West St","location":{"type":"Point","coordinates":[-122.3693585,48.2417764]},"isApproved":true,"items":[],"keys":["Italian","Bars"],"lastUpdated":1547527612225,"name":"Vinny’s Ristorante","phone":"(360) 378-1934","price":"$$","reviewCount":94,"reviewScore":3.5,"meta":{"revision":0,"created":1547531156717,"version":0},"$loki":99},{"_id":"5c3d65bd3525a329e0c14af0","address":"27018 102nd Ave NW","location":{"type":"Point","coordinates":[-122.3706317,48.2416127]},"isApproved":true,"items":[],"keys":["Pizza"],"lastUpdated":1547527612728,"name":"Sahara Pizza","phone":"(360) 629-6886","price":"$$","reviewCount":33,"reviewScore":3.5,"meta":{"revision":0,"created":1547531156717,"version":0},"$loki":100},{"_id":"5c3d65bd3525a329e0c0d734","address":"27008 102nd Ave NW","location":{"type":"Point","coordinates":[-122.3707467,48.2417092]},"isApproved":true,"items":[],"keys":["Seafood","Desserts","Salad"],"lastUpdated":1547527612554,"name":"Crow Island Farms","phone":"(360) 572-3249","price":"","reviewCount":18,"reviewScore":5,"meta":{"revision":0,"created":1547531156717,"version":0},"$loki":101},{"_id":"5c3d65bd3525a329e0c043d3","address":"130 Hudson St","location":{"type":"Point","coordinates":[-122.3512022,48.2422878]},"isApproved":true,"items":[],"keys":["Breakfast & Brunch"],"lastUpdated":1547527612321,"name":"Hudson Point Cafe","phone":"(360) 379-0592","price":"$$","reviewCount":193,"reviewScore":4,"meta":{"revision":0,"created":1547531156717,"version":0},"$loki":102},{"_id":"5c3d65bd3525a329e0c0d40b","address":"8924 271st St NW","location":{"type":"Point","coordinates":[-122.354441955686,48.2419559305847]},"isApproved":true,"items":[],"keys":["Mexican"],"lastUpdated":1547527612546,"name":"Raliberto’s Taco Shop","phone":"(360) 629-2000","price":"","reviewCount":5,"reviewScore":3,"meta":{"revision":0,"created":1547531156717,"version":0},"$loki":103},{"_id":"5c3d65bd3525a329e0c12ad6","address":"1072 Lakeway Dr","location":{"type":"Point","coordinates":[-122.35794,48.2404106]},"isApproved":true,"items":[],"keys":["Pizza"],"lastUpdated":1547527612680,"name":"Little Caesar’s Pizza","phone":"(360) 647-7749","price":"$","reviewCount":13,"reviewScore":3,"meta":{"revision":0,"created":1547531156717,"version":0},"$loki":104},{"_id":"5c3d65bd3525a329e0c0a4c2","address":"26910 92nd Avenue NW","location":{"type":"Point","coordinates":[-122.3595081,48.2410035]},"isApproved":true,"items":[],"keys":["Pizza"],"lastUpdated":1547527612480,"name":"Papa Murphy’s","phone":"(360) 629-3826","price":"","reviewCount":2,"reviewScore":4.5,"meta":{"revision":0,"created":1547531156717,"version":0},"$loki":105},{"_id":"5c3d65bd3525a329e0c1271f","address":"111 West Holly St","location":{"type":"Point","coordinates":[-122.357792455827,48.2419398233343]},"isApproved":true,"items":[],"keys":["Tapas/Small Plates","Wine Bars"],"lastUpdated":1547527612672,"name":"Tasca del Tinto","phone":"(360) 927-6236","price":"$$","reviewCount":35,"reviewScore":4,"meta":{"revision":0,"created":1547531156717,"version":0},"$loki":106},{"_id":"5c3d65bd3525a329e0c0e65e","address":"4192 Meridian St","location":{"type":"Point","coordinates":[-122.353349,48.24054]},"isApproved":true,"items":[],"keys":["Breakfast & Brunch"],"lastUpdated":1547527612574,"name":"The Birch Door Cafe","phone":"(360) 306-8598","price":"$$","reviewCount":315,"reviewScore":4.5,"meta":{"revision":0,"created":1547531156717,"version":0},"$loki":107},{"_id":"5c3d65bd3525a329e0c11fae","address":"210 E Chestnut St","location":{"type":"Point","coordinates":[-122.352781,48.2410325]},"isApproved":true,"items":[],"keys":["Bars","Kombucha","Seafood"],"lastUpdated":1547527612662,"name":"Culture Cafe at Kombucha Town","phone":"(360) 746-6558","price":"$","reviewCount":44,"reviewScore":4,"meta":{"revision":0,"created":1547531156717,"version":0},"$loki":108},{"_id":"5c3d65bd3525a329e0c0d2ab","address":"1702 Commercial Avenue","location":{"type":"Point","coordinates":[-122.3526942,48.2410337]},"isApproved":true,"items":[],"keys":["Fast Food","Tex-Mex","Mexican"],"lastUpdated":1547527612545,"name":"Taco Bell","phone":"(360) 588-1620","price":"$","reviewCount":27,"reviewScore":1.5,"meta":{"revision":0,"created":1547531156717,"version":0},"$loki":109},{"_id":"5c3d65bd3525a329e0c17bb8","address":"1130 S Burlington Blvd","location":{"type":"Point","coordinates":[-122.3511902,48.2419474]},"isApproved":true,"items":[],"keys":["Coffee & Tea","Breakfast & Brunch"],"lastUpdated":1547527612800,"name":"North Cove Coffee","phone":"(360) 707-2683","price":"$$","reviewCount":39,"reviewScore":4,"meta":{"revision":0,"created":1547531156717,"version":0},"$loki":110},{"_id":"5c3d65bd3525a329e0c07703","address":"1107 Railroad Ave","location":{"type":"Point","coordinates":[-122.350402,48.241979]},"isApproved":true,"items":[],"keys":["Pubs","Breweries","American (Traditional)"],"lastUpdated":1547527612402,"name":"Boundary Bay Brewery & Bistro","phone":"(360) 647-5593","price":"$$","reviewCount":780,"reviewScore":4,"meta":{"revision":0,"created":1547531156717,"version":0},"$loki":111},{"_id":"5c3d65bd3525a329e0c1a218","address":"8630 271st St NW","location":{"type":"Point","coordinates":[-122.350341796875,48.2420082092285]},"isApproved":true,"items":[],"keys":["American (New)"],"lastUpdated":1547527612858,"name":"Conway Boxcar","phone":"(360) 629-0651","price":"$$","reviewCount":39,"reviewScore":3.5,"meta":{"revision":0,"created":1547531156717,"version":0},"$loki":112},{"_id":"5c3d65bd3525a329e0c1b189","address":"8620 271st St NW","location":{"type":"Point","coordinates":[-122.3501952,48.241904]},"isApproved":true,"items":[],"keys":["Polish"],"lastUpdated":1547527612877,"name":"The Polska Kuchnia","phone":"(206) 355-2893","price":"$$","reviewCount":79,"reviewScore":4.5,"meta":{"revision":0,"created":1547531156717,"version":0},"$loki":113},{"_id":"5c3d65bd3525a329e0c0ce46","address":"8628 271st St NW","location":{"type":"Point","coordinates":[-122.3500434,48.2420398]},"isApproved":true,"items":[],"keys":["American (New)"],"lastUpdated":1547527612534,"name":"Stanwood Grill","phone":"(360) 629-5253","price":"$$","reviewCount":27,"reviewScore":3.5,"meta":{"revision":0,"created":1547531156717,"version":0},"$loki":114},{"_id":"5c3d65bd3525a329e0c028a4","address":"7200 267th NW","location":{"type":"Point","coordinates":[-122.331101112427,48.2385828800266]},"isApproved":true,"items":[],"keys":["Fast Food","Japanese"],"lastUpdated":1547527612285,"name":"Miyako’s Teriyaki & Wok","phone":"(360) 629-4535","price":"$","reviewCount":18,"reviewScore":3.5,"meta":{"revision":0,"created":1547531156717,"version":0},"$loki":115},{"_id":"5c3d65bd3525a329e0c032ad","address":"161 Telegraph Rd","location":{"type":"Point","coordinates":[-122.3288378,48.2380777]},"isApproved":true,"items":[],"keys":["Diners","American (Traditional)","Breakfast & Brunch"],"lastUpdated":1547527612302,"name":"Denny’s","phone":"(360) 676-0173","price":"$","reviewCount":41,"reviewScore":2.5,"meta":{"revision":0,"created":1547531156717,"version":0},"$loki":116},{"_id":"5c3d65bd3525a329e0c0818c","address":"420 W Gates St","location":{"type":"Point","coordinates":[-122.3308163,48.2391125]},"isApproved":true,"items":[],"keys":["Indian"],"lastUpdated":1547527612419,"name":"Taste of India","phone":"(360) 428-2866","price":"$$","reviewCount":88,"reviewScore":4.5,"meta":{"revision":0,"created":1547531156717,"version":0},"$loki":117},{"_id":"5c3d65bd3525a329e0c0a597","address":"7009 265th St NW","location":{"type":"Point","coordinates":[-122.3259539,48.2376071]},"isApproved":true,"items":[],"keys":["Sandwiches","Fast Food"],"lastUpdated":1547527612480,"name":"Subway","phone":"(360) 629-2678","price":"$","reviewCount":12,"reviewScore":3,"meta":{"revision":0,"created":1547531156717,"version":0},"$loki":118},{"_id":"5c3d65bd3525a329e0c1399f","address":"430 SE Pioneer Way","location":{"type":"Point","coordinates":[-122.328823359649,48.2377742392213]},"isApproved":true,"items":[],"keys":["American (Traditional)"],"lastUpdated":1547527612698,"name":"Artie’s Restaurant","phone":"(360) 675-9100","price":"$","reviewCount":8,"reviewScore":1.5,"meta":{"revision":0,"created":1547531156717,"version":0},"$loki":119},{"_id":"5c3d65bd3525a329e0c154a1","address":"26479 72nd Ave NW","location":{"type":"Point","coordinates":[-122.3297307,48.236703]},"isApproved":true,"items":[],"keys":["Mexican"],"lastUpdated":1547527612745,"name":"Taco Time","phone":"(360) 629-5018","price":"$","reviewCount":12,"reviewScore":3,"meta":{"revision":0,"created":1547531156717,"version":0},"$loki":120},{"_id":"5c3d65bd3525a329e0c16bf3","address":"1219 Cornwall Ave","location":{"type":"Point","coordinates":[-122.3260834,48.236519]},"isApproved":true,"items":[],"keys":["Greek","Mediterranean"],"lastUpdated":1547527612773,"name":"Cafe Akroteri","phone":"(360) 676-5554","price":"$$","reviewCount":107,"reviewScore":4,"meta":{"revision":0,"created":1547531156717,"version":0},"$loki":121},{"_id":"5c3d65bd3525a329e0c188b0","address":"1627 Freeway Dr","location":{"type":"Point","coordinates":[-122.454904912689,48.2415318403282]},"isApproved":true,"items":[],"keys":["Mexican","Grocery","Meat Shops"],"lastUpdated":1547527612822,"name":"Carniceria Los Compadres","phone":"(360) 336-5020","price":"$","reviewCount":32,"reviewScore":4.5,"meta":{"revision":0,"created":1547531156717,"version":0},"$loki":122},{"_id":"5c3d65bd3525a329e0c0687b","address":"901 Grace St NW","location":{"type":"Point","coordinates":[-122.4554368,48.241251]},"isApproved":true,"items":[],"keys":["Desserts","Bars","American (Traditional)"],"lastUpdated":1547527612378,"name":"Oystercatcher","phone":"(360) 678-0683","price":"$$$","reviewCount":178,"reviewScore":4.5,"meta":{"revision":0,"created":1547531156717,"version":0},"$loki":123},{"_id":"5c3d65bd3525a329e0c0702e","address":"848 N Sunrise Blvd","location":{"type":"Point","coordinates":[-122.4554368,48.241251]},"isApproved":true,"items":[],"keys":["Breakfast & Brunch","Burgers","Sandwiches"],"lastUpdated":1547527612389,"name":"The Baked Cafe","phone":"(425) 232-5885","price":"","reviewCount":21,"reviewScore":5,"meta":{"revision":0,"created":1547531156717,"version":0},"$loki":124},{"_id":"5c3d65bd3525a329e0c08a46","address":"848 N Sunrise Blvd","location":{"type":"Point","coordinates":[-122.455436848104,48.2412510012762]},"isApproved":true,"items":[],"keys":["Barbeque"],"lastUpdated":1547527612430,"name":"Orlando’s BBQ Station","phone":"(360) 914-5506","price":"","reviewCount":1,"reviewScore":5,"meta":{"revision":0,"created":1547531156717,"version":0},"$loki":125},{"_id":"5c3d65bd3525a329e0c0e4d7","address":"9808 State Rt 532","location":{"type":"Point","coordinates":[-122.456128,48.2412103]},"isApproved":true,"items":[],"keys":["Sandwiches","Coffee & Tea","Bakeries"],"lastUpdated":1547527612573,"name":"The Cookie Mill","phone":"(360) 629-2362","price":"$","reviewCount":31,"reviewScore":4.5,"meta":{"revision":0,"created":1547531156717,"version":0},"$loki":126},{"_id":"5c3d65bd3525a329e0c0ea3e","address":"18729 Fir Island Rd","location":{"type":"Point","coordinates":[-122.4752032,48.2228566]},"isApproved":true,"items":[],"keys":["Mexican","Breakfast & Brunch"],"lastUpdated":1547527612581,"name":"Taqueria Sanchez","phone":"(360) 445-2900","price":"","reviewCount":6,"reviewScore":5,"meta":{"revision":0,"created":1547531156717,"version":0},"$loki":127},{"_id":"5c3d65bd3525a329e0c0e0fa","address":"720 S 1st","location":{"type":"Point","coordinates":[-122.4742733,48.2239824]},"isApproved":true,"items":[],"keys":["Bakeries","Breakfast & Brunch"],"lastUpdated":1547527612565,"name":"Calico Cupboard Old Town Cafe & Bakery","phone":"(360) 466-4451","price":"$$","reviewCount":194,"reviewScore":4,"meta":{"revision":0,"created":1547531156717,"version":0},"$loki":128},{"_id":"5c3d65bd3525a329e0c09223","address":"4373 Meridian St","location":{"type":"Point","coordinates":[-122.474210291321,48.2234045700806]},"isApproved":true,"items":[],"keys":["Mexican"],"lastUpdated":1547527612451,"name":"Taco Time","phone":"(360) 752-2233","price":"$","reviewCount":14,"reviewScore":3.5,"meta":{"revision":0,"created":1547531156717,"version":0},"$loki":129},{"_id":"5c3d65bd3525a329e0c099ab","address":"2418 Alabama St","location":{"type":"Point","coordinates":[-122.4745055,48.2261898]},"isApproved":true,"items":[],"keys":["Pizza","Burgers","Sandwiches"],"lastUpdated":1547527612463,"name":"Pizzazza","phone":"(360) 218-7012","price":"$$","reviewCount":30,"reviewScore":4,"meta":{"revision":0,"created":1547531156717,"version":0},"$loki":130},{"_id":"5c3d65bd3525a329e0c14ca9","address":"1317 Commercial St","location":{"type":"Point","coordinates":[-122.474677760763,48.2315231546993]},"isApproved":true,"items":[],"keys":["American (New)","Comfort Food","Burgers"],"lastUpdated":1547527612729,"name":"Brandywine Kitchen","phone":"(360) 734-1071","price":"$$","reviewCount":169,"reviewScore":3.5,"meta":{"revision":0,"created":1547531156717,"version":0},"$loki":131},{"_id":"5c3d65bd3525a329e0c17e50","address":"33185 Sr 20","location":{"type":"Point","coordinates":[-122.6412655,48.3092157]},"isApproved":true,"items":[],"keys":["Chinese"],"lastUpdated":1547527612801,"name":"China City","phone":"(360) 279-8899","price":"$$","reviewCount":133,"reviewScore":3,"meta":{"revision":0,"created":1547531156717,"version":0},"$loki":132},{"_id":"5c3d65bd3525a329e0c15233","address":"1320 Memorial Hwy","location":{"type":"Point","coordinates":[-122.643741,48.3115786]},"isApproved":true,"items":[],"keys":["Mexican"],"lastUpdated":1547527612737,"name":"Mexico Cafe","phone":"(360) 424-1977","price":"$$","reviewCount":71,"reviewScore":3.5,"meta":{"revision":0,"created":1547531156717,"version":0},"$loki":133},{"_id":"5c3d65bd3525a329e0c120cf","address":"1304 12th St","location":{"type":"Point","coordinates":[-122.6664532,48.3255586]},"isApproved":true,"items":[],"keys":["Burgers","Sandwiches","Bars"],"lastUpdated":1547527612663,"name":"Whiskey’s Burger Bistro","phone":"(360) 526-2905","price":"$$","reviewCount":73,"reviewScore":3.5,"meta":{"revision":0,"created":1547531156717,"version":0},"$loki":134},{"_id":"5c3d65bd3525a329e0c04d1e","address":"107 Doe Bay Rd","location":{"type":"Point","coordinates":[-122.6488043,48.3250612]},"isApproved":true,"items":[],"keys":["Cafes"],"lastUpdated":1547527612338,"name":"Doe Bay Cafe","phone":"(360) 376-8059","price":"$$","reviewCount":131,"reviewScore":4.5,"meta":{"revision":0,"created":1547531156717,"version":0},"$loki":135},{"_id":"5c3d65bd3525a329e0c154e5","address":"215 Tyler St","location":{"type":"Point","coordinates":[-122.671030885338,48.3425767661909]},"isApproved":true,"items":[],"keys":["Cafes"],"lastUpdated":1547527612745,"name":"Tyler Street Cafe","phone":"(360) 379-2815","price":"","reviewCount":8,"reviewScore":4,"meta":{"revision":0,"created":1547531156717,"version":0},"$loki":136},{"_id":"5c3d65bd3525a329e0c0436d","address":"5305 Northwest Dr","location":{"type":"Point","coordinates":[-122.672958,48.343408]},"isApproved":true,"items":[],"keys":["Restaurants"],"lastUpdated":1547527612321,"name":"Fools Onion Restaurant","phone":"(360) 647-2800","price":"","reviewCount":1,"reviewScore":1,"meta":{"revision":0,"created":1547531156717,"version":0},"$loki":137},{"_id":"5c3d65bd3525a329e0c00b86","address":"190 East Bakerview Rd","location":{"type":"Point","coordinates":[-122.6526803,48.3762226]},"isApproved":true,"items":[],"keys":["Mexican"],"lastUpdated":1547527612230,"name":"Lilia’s Mexican Cuisine","phone":"(360) 527-3181","price":"$$","reviewCount":42,"reviewScore":3.5,"meta":{"revision":0,"created":1547531156717,"version":0},"$loki":138},{"_id":"5c3d65bd3525a329e0c10dc4","address":"315 Morris St","location":{"type":"Point","coordinates":[-122.4931962,48.392355]},"isApproved":true,"items":[],"keys":["American (Traditional)","Burgers","Breakfast & Brunch"],"lastUpdated":1547527612633,"name":"The Slider Cafe","phone":"(360) 466-4466","price":"$$","reviewCount":75,"reviewScore":4.5,"meta":{"revision":0,"created":1547531156717,"version":0},"$loki":139},{"_id":"5c3d65bd3525a329e0c0757a","address":"18247 State Rte 9","location":{"type":"Point","coordinates":[-122.494713749376,48.3923924924405]},"isApproved":true,"items":[],"keys":["American (Traditional)","Bars"],"lastUpdated":1547527612401,"name":"Big Lake Bar & Grill","phone":"(360) 422-6411","price":"$$","reviewCount":29,"reviewScore":3.5,"meta":{"revision":0,"created":1547531156717,"version":0},"$loki":140},{"_id":"5c3d65bd3525a329e0c0c292","address":"617 Metcalf St","location":{"type":"Point","coordinates":[-122.4958041,48.3932772]},"isApproved":true,"items":[],"keys":["Mexican"],"lastUpdated":1547527612518,"name":"Mestizo Mexican Family Restaurant","phone":"(360) 855-1300","price":"$$","reviewCount":52,"reviewScore":4.5,"meta":{"revision":0,"created":1547531156717,"version":0},"$loki":141},{"_id":"5c3d65bd3525a329e0c08045","address":"508 Morris St","location":{"type":"Point","coordinates":[-122.495888804177,48.3916373751603]},"isApproved":true,"items":[],"keys":["Thai"],"lastUpdated":1547527612419,"name":"La Conner Thai Garden Restaurant","phone":"(360) 466-9999","price":"$$","reviewCount":36,"reviewScore":4,"meta":{"revision":0,"created":1547531156717,"version":0},"$loki":142},{"_id":"5c3d65bd3525a329e0c03629","address":"510 Commercial Ave","location":{"type":"Point","coordinates":[-122.495215684175,48.3912341082649]},"isApproved":true,"items":[],"keys":["Breakfast & Brunch","Burgers","Tacos"],"lastUpdated":1547527612303,"name":"Adrift","phone":"(360) 588-0653","price":"$$","reviewCount":637,"reviewScore":4.5,"meta":{"revision":0,"created":1547531156717,"version":0},"$loki":143},{"_id":"5c3d65bd3525a329e0c0b2cf","address":"2578 Chuckanut Dr","location":{"type":"Point","coordinates":[-122.496749489779,48.3917167423107]},"isApproved":true,"items":[],"keys":["Seafood","Salad","Wine Bars"],"lastUpdated":1547527612498,"name":"The Oyster Bar","phone":"(360) 766-6185","price":"$$$","reviewCount":169,"reviewScore":4,"meta":{"revision":0,"created":1547531156717,"version":0},"$loki":144},{"_id":"5c3d65bd3525a329e0bff562","address":"128 S 1st St","location":{"type":"Point","coordinates":[-122.496756,48.391322]},"isApproved":true,"items":[],"keys":["Cafes"],"lastUpdated":1547527612216,"name":"Waterfront Cafe","phone":"(360) 466-1579","price":"$$","reviewCount":61,"reviewScore":3.5,"meta":{"revision":0,"created":1547531156717,"version":0},"$loki":145},{"_id":"5c3d65bd3525a329e0c06e2e","address":"32760 WA-20","location":{"type":"Point","coordinates":[-122.4964977,48.391021]},"isApproved":true,"items":[],"keys":["Greek","Mediterranean"],"lastUpdated":1547527612387,"name":"Nadya’s Greek Cuisine","phone":"(360) 279-0190","price":"$","reviewCount":97,"reviewScore":4,"meta":{"revision":0,"created":1547531156717,"version":0},"$loki":146},{"_id":"5c3d65bd3525a329e0c0a0bb","address":"326 NE Camano Dr","location":{"type":"Point","coordinates":[-122.497855812574,48.3901099]},"isApproved":true,"items":[],"keys":["American (New)","Bars"],"lastUpdated":1547527612472,"name":"Rockaway Bar & Grill","phone":"(360) 926-8920","price":"$$","reviewCount":96,"reviewScore":3.5,"meta":{"revision":0,"created":1547531156717,"version":0},"$loki":147},{"_id":"5c3d65bd3525a329e0c1aecd","address":"2120 Commercial Ave","location":{"type":"Point","coordinates":[-122.4979433,48.3896203]},"isApproved":true,"items":[],"keys":["Chicken Wings","Burgers","Arcades"],"lastUpdated":1547527612876,"name":"Vagabond Station","phone":"(360) 421-4227","price":"$","reviewCount":69,"reviewScore":4.5,"meta":{"revision":0,"created":1547531156717,"version":0},"$loki":148},{"_id":"5c3d65bd3525a329e0c0e3d3","address":"6168 State Rte 20","location":{"type":"Point","coordinates":[-122.496845146264,48.3905808111091]},"isApproved":true,"items":[],"keys":["Seafood","Burgers"],"lastUpdated":1547527612572,"name":"The Shrimp Shack","phone":"(360) 293-2531","price":"$$","reviewCount":237,"reviewScore":4,"meta":{"revision":0,"created":1547531156717,"version":0},"$loki":149},{"_id":"5c3d65bd3525a329e0c00ceb","address":"502 Commercial Ave","location":{"type":"Point","coordinates":[-122.4905503,48.3909209]},"isApproved":true,"items":[],"keys":["Delis","Coffee & Tea","Caterers"],"lastUpdated":1547527612231,"name":"Gere-a-Deli","phone":"(360) 293-7383","price":"$","reviewCount":222,"reviewScore":4.5,"meta":{"revision":0,"created":1547531156717,"version":0},"$loki":150},{"_id":"5c3d65bd3525a329e0c14b03","address":"623 Morris St","location":{"type":"Point","coordinates":[-122.4888997,48.3923377]},"isApproved":true,"items":[],"keys":["Seafood","American (New)","Bars"],"lastUpdated":1547527612728,"name":"Seeds Bistro and Bar","phone":"(360) 466-3280","price":"$$","reviewCount":195,"reviewScore":3.5,"meta":{"revision":0,"created":1547531156717,"version":0},"$loki":151},{"_id":"5c3d65bd3525a329e0c0eca7","address":"18729 Fir Island Rd","location":{"type":"Point","coordinates":[-122.3407765,48.3415941]},"isApproved":true,"items":[],"keys":["Delis"],"lastUpdated":1547527612582,"name":"Conway Deli","phone":"","price":"$","reviewCount":2,"reviewScore":4,"meta":{"revision":0,"created":1547531156717,"version":0},"$loki":152},{"_id":"5c3d65bd3525a329e0c114ff","address":"2219 Commercial Ave","location":{"type":"Point","coordinates":[-122.3407765,48.3415941]},"isApproved":true,"items":[],"keys":["Barbeque","Burgers","Food Trucks"],"lastUpdated":1547527612643,"name":"Dad’s Diner A Go-Go","phone":"(360) 840-2938","price":"$$","reviewCount":81,"reviewScore":4.5,"meta":{"revision":0,"created":1547531156717,"version":0},"$loki":153},{"_id":"5c3d65bd3525a329e0c01fe7","address":"18611 Main St","location":{"type":"Point","coordinates":[-122.3434788,48.3407227]},"isApproved":true,"items":[],"keys":["Pubs","Steakhouses","Burgers"],"lastUpdated":1547527612274,"name":"Conway Pub and Eatery","phone":"(360) 445-4733","price":"$$","reviewCount":118,"reviewScore":3.5,"meta":{"revision":0,"created":1547531156717,"version":0},"$loki":154},{"_id":"5c3d65bd3525a329e0c19815","address":"1830 S Burlington Blvd","location":{"type":"Point","coordinates":[-122.34716,48.339997]},"isApproved":true,"items":[],"keys":["Japanese","Sushi Bars","Steakhouses"],"lastUpdated":1547527612842,"name":"Sakura","phone":"(360) 588-4281","price":"$$","reviewCount":197,"reviewScore":3.5,"meta":{"revision":0,"created":1547531156717,"version":0},"$loki":155},{"_id":"5c3d65bd3525a329e0c03582","address":"1308 11th St","location":{"type":"Point","coordinates":[-122.331994,48.4003344]},"isApproved":true,"items":[],"keys":["Cafes","American (Traditional)","Breakfast & Brunch"],"lastUpdated":1547527612303,"name":"Skylarks Hidden Cafe","phone":"(360) 715-3642","price":"$$","reviewCount":246,"reviewScore":3.5,"meta":{"revision":0,"created":1547531156717,"version":0},"$loki":156},{"_id":"5c3d65bd3525a329e0c13096","address":"1725 E Blackburn Rd","location":{"type":"Point","coordinates":[-122.3193669,48.4066887]},"isApproved":true,"items":[],"keys":["Mexican","Beer Bar","Beer Gardens"],"lastUpdated":1547527612688,"name":"Jorge’s Kitchen","phone":"(360) 424-6838","price":"$","reviewCount":101,"reviewScore":4.5,"meta":{"revision":0,"created":1547531156717,"version":0},"$loki":157},{"_id":"5c3d65bd3525a329e0c0193b","address":"32195 State Route 20","location":{"type":"Point","coordinates":[-122.326737754047,48.4089648108295]},"isApproved":true,"items":[],"keys":["Mexican","Bars"],"lastUpdated":1547527612251,"name":"El Cazador Mexican Grill & Cantina","phone":"(360) 675-6114","price":"$$","reviewCount":190,"reviewScore":3.5,"meta":{"revision":0,"created":1547531156717,"version":0},"$loki":158},{"_id":"5c3d65bd3525a329e0c09758","address":"109 N Beach Rd","location":{"type":"Point","coordinates":[-122.31666,48.4136964]},"isApproved":true,"items":[],"keys":["Juice Bars & Smoothies","Ice Cream & Frozen Yogurt","American (Traditional)"],"lastUpdated":1547527612461,"name":"Clever Cow Creamery - Temp. CLOSED","phone":"(360) 376-5222","price":"$","reviewCount":73,"reviewScore":4.5,"meta":{"revision":0,"created":1547531156717,"version":0},"$loki":159},{"_id":"5c3d65bd3525a329e0c027b2","address":"5415 Mt Baker Hwy","location":{"type":"Point","coordinates":[-122.2219213,48.3813957]},"isApproved":true,"items":[],"keys":["Italian","Coffee & Tea"],"lastUpdated":1547527612285,"name":"Rifugio’s Country Italian Cuisine","phone":"(360) 592-2888","price":"$$","reviewCount":63,"reviewScore":4.5,"meta":{"revision":0,"created":1547531156717,"version":0},"$loki":160},{"_id":"5c3d65bd3525a329e0c144a5","address":"210 Lopez Rd","location":{"type":"Point","coordinates":[-122.264191570509,48.4294154713486]},"isApproved":true,"items":[],"keys":["American (New)"],"lastUpdated":1547527612714,"name":"Ursa Minor","phone":"(360) 622-2730","price":"$$$","reviewCount":16,"reviewScore":4.5,"meta":{"revision":0,"created":1547531156717,"version":0},"$loki":161},{"_id":"5c3d65bd3525a329e0c0b9d7","address":"848 N Sunrise Blvd","location":{"type":"Point","coordinates":[-122.2409306,48.4015655]},"isApproved":true,"items":[],"keys":["Comfort Food","Brewpubs","American (Traditional)"],"lastUpdated":1547527612507,"name":"Naked City - Camano Island","phone":"(360) 631-5432","price":"$$","reviewCount":47,"reviewScore":3.5,"meta":{"revision":0,"created":1547531156717,"version":0},"$loki":162},{"_id":"5c3d65bd3525a329e0c16cb0","address":"4800 Eaglemont Dr","location":{"type":"Point","coordinates":[-122.2770555,48.4011929]},"isApproved":true,"items":[],"keys":["American (New)","Diners","Bars"],"lastUpdated":1547527612774,"name":"Fireweed Terrace","phone":"(360) 428-1954","price":"$$","reviewCount":21,"reviewScore":2.5,"meta":{"revision":0,"created":1547531156717,"version":0},"$loki":163},{"_id":"5c3d65bd3525a329e0c1887c","address":"10600 Quil Ceda Blvd","location":{"type":"Point","coordinates":[-122.312383,48.414152]},"isApproved":true,"items":[],"keys":["Food Trucks","Chinese","Bubble Tea"],"lastUpdated":1547527612822,"name":"Lau’s Chinese","phone":"(425) 737-6548","price":"$","reviewCount":20,"reviewScore":4.5,"meta":{"revision":0,"created":1547531156717,"version":0},"$loki":164},{"_id":"5c3d65bd3525a329e0bffbbc","address":"2323 E Section St","location":{"type":"Point","coordinates":[-122.312717,48.41417]},"isApproved":true,"items":[],"keys":["Sandwiches","Fast Food"],"lastUpdated":1547527612220,"name":"Subway","phone":"(360) 848-0770","price":"","reviewCount":7,"reviewScore":1.5,"meta":{"revision":0,"created":1547531156717,"version":0},"$loki":165},{"_id":"5c3d65bd3525a329e0c0d0eb","address":"3904 Meridian St","location":{"type":"Point","coordinates":[-122.3077476,48.4222267]},"isApproved":true,"items":[],"keys":["Diners","Breakfast & Brunch","American (Traditional)"],"lastUpdated":1547527612545,"name":"Shari’s Cafe & Pies","phone":"(360) 647-0193","price":"$$","reviewCount":61,"reviewScore":3,"meta":{"revision":0,"created":1547531156717,"version":0},"$loki":166},{"_id":"5c3d65bd3525a329e0c16459","address":"17103 28th Dr NE","location":{"type":"Point","coordinates":[-122.3125681,48.4353015]},"isApproved":true,"items":[],"keys":["Mexican","Fast Food"],"lastUpdated":1547527612764,"name":"Chipotle Mexican Grill","phone":"(360) 652-9086","price":"","reviewCount":13,"reviewScore":3.5,"meta":{"revision":0,"created":1547531156717,"version":0},"$loki":167},{"_id":"5c3d65bd3525a329e0c133e0","address":"2121 E College Way","location":{"type":"Point","coordinates":[-122.314181,48.436219]},"isApproved":true,"items":[],"keys":["Mexican","Seafood","Vegetarian"],"lastUpdated":1547527612690,"name":"Lorenzo’s Mexican Restaurant","phone":"(360) 848-7793","price":"$$","reviewCount":44,"reviewScore":3.5,"meta":{"revision":0,"created":1547531156717,"version":0},"$loki":168},{"_id":"5c3d65bd3525a329e0c19520","address":"215 Tyler St","location":{"type":"Point","coordinates":[-122.3131121,48.4349568]},"isApproved":true,"items":[],"keys":["Pizza"],"lastUpdated":1547527612840,"name":"Hillbottom Pie","phone":"(360) 385-1306","price":"$$","reviewCount":145,"reviewScore":4,"meta":{"revision":0,"created":1547531156717,"version":0},"$loki":169},{"_id":"5c3d65bd3525a329e0c04835","address":"1605 N 18th St","location":{"type":"Point","coordinates":[-122.3192409,48.4350762]},"isApproved":true,"items":[],"keys":["Pizza"],"lastUpdated":1547527612330,"name":"Little Caesars Pizza Pizza","phone":"(360) 424-0773","price":"$","reviewCount":8,"reviewScore":3,"meta":{"revision":0,"created":1547531156717,"version":0},"$loki":170},{"_id":"5c3d65bd3525a329e0c0354c","address":"1501 Parker Way","location":{"type":"Point","coordinates":[-122.3220721,48.4341218]},"isApproved":true,"items":[],"keys":["Bakeries","Coffee & Tea","Sandwiches"],"lastUpdated":1547527612303,"name":"Indulge Bakery","phone":"(360) 399-7266","price":"","reviewCount":1,"reviewScore":5,"meta":{"revision":0,"created":1547531156717,"version":0},"$loki":171},{"_id":"5c3d65bd3525a329e0c03170","address":"405 S Main St","location":{"type":"Point","coordinates":[-122.3211475,48.4331293]},"isApproved":true,"items":[],"keys":["Hotels","American (New)","Lounges"],"lastUpdated":1547527612296,"name":"Tyee Restaurant & Motel","phone":"(360) 678-6616","price":"$","reviewCount":65,"reviewScore":3,"meta":{"revision":0,"created":1547531156717,"version":0},"$loki":172},{"_id":"5c3d65bd3525a329e0c06837","address":"1075 Burlington Blvd.","location":{"type":"Point","coordinates":[-122.33472,48.4324098]},"isApproved":true,"items":[],"keys":["Burgers","American (Traditional)"],"lastUpdated":1547527612378,"name":"Red Robin Gourmet Burgers","phone":"(360) 757-8646","price":"$$","reviewCount":92,"reviewScore":2.5,"meta":{"revision":0,"created":1547531156717,"version":0},"$loki":173},{"_id":"5c3d65bd3525a329e0c1a3ed","address":"420 N Olympic Ave","location":{"type":"Point","coordinates":[-122.3364542,48.4354314]},"isApproved":true,"items":[],"keys":["Bowling","Bars","American (Traditional)"],"lastUpdated":1547527612859,"name":"Rocket Alley Bar & Grill","phone":"(360) 435-8600","price":"$$","reviewCount":37,"reviewScore":3.5,"meta":{"revision":0,"created":1547531156717,"version":0},"$loki":174},{"_id":"5c3d65bd3525a329e0c19d51","address":"1633 Riverside Dr","location":{"type":"Point","coordinates":[-122.335689,48.4356327]},"isApproved":true,"items":[],"keys":["Cafes"],"lastUpdated":1547527612850,"name":"Bigfoot Java","phone":"(360) 428-3081","price":"$","reviewCount":18,"reviewScore":4.5,"meta":{"revision":0,"created":1547531156717,"version":0},"$loki":175},{"_id":"5c3d65bd3525a329e0c12c07","address":"402 36th St","location":{"type":"Point","coordinates":[-122.3243973,48.4355008]},"isApproved":true,"items":[],"keys":["Pizza","Chicken Wings","Sandwiches"],"lastUpdated":1547527612680,"name":"Domino’s Pizza","phone":"(360) 671-8282","price":"$$","reviewCount":13,"reviewScore":2.5,"meta":{"revision":0,"created":1547531156717,"version":0},"$loki":176},{"_id":"5c3d65bd3525a329e0c10c3a","address":"117 W Magnolia St","location":{"type":"Point","coordinates":[-122.3322435,48.4357629]},"isApproved":true,"items":[],"keys":["Mexican"],"lastUpdated":1547527612633,"name":"Taco Lobo","phone":"(360) 756-0711","price":"$","reviewCount":160,"reviewScore":4,"meta":{"revision":0,"created":1547531156717,"version":0},"$loki":177},{"_id":"5c3d65bd3525a329e0c15375","address":"2003 Riverside Dr","location":{"type":"Point","coordinates":[-122.335673,48.438289]},"isApproved":true,"items":[],"keys":["Fast Food","Chicken Wings","Chicken Shop"],"lastUpdated":1547527612738,"name":"KFC","phone":"(360) 424-7177","price":"$","reviewCount":12,"reviewScore":1.5,"meta":{"revision":0,"created":1547531156717,"version":0},"$loki":178},{"_id":"5c3d65bd3525a329e0c157f1","address":"2003 Riverside Dr","location":{"type":"Point","coordinates":[-122.3357714,48.4383188]},"isApproved":true,"items":[],"keys":["Fast Food"],"lastUpdated":1547527612747,"name":"A&W Restaurant","phone":"(360) 424-7177","price":"$","reviewCount":8,"reviewScore":1.5,"meta":{"revision":0,"created":1547531156717,"version":0},"$loki":179},{"_id":"5c3d65bd3525a329e0c1216f","address":"2000 Riverside Dr","location":{"type":"Point","coordinates":[-122.3347501,48.4383392]},"isApproved":true,"items":[],"keys":["Breakfast & Brunch","American (Traditional)","Cafes"],"lastUpdated":1547527612663,"name":"Riverside Cafe","phone":"(360) 424-6060","price":"$$","reviewCount":31,"reviewScore":3,"meta":{"revision":0,"created":1547531156717,"version":0},"$loki":180},{"_id":"5c3d65bd3525a329e0c113af","address":"7705 204th St NE","location":{"type":"Point","coordinates":[-122.333254,48.4393428]},"isApproved":true,"items":[],"keys":["Mediterranean","Greek","Tapas Bars"],"lastUpdated":1547527612642,"name":"Kafé Neo Woodstone Taverna","phone":"(360) 322-6943","price":"$$","reviewCount":65,"reviewScore":4,"meta":{"revision":0,"created":1547531156717,"version":0},"$loki":181},{"_id":"5c3d65bd3525a329e0c056d3","address":"2222 Riverside Dr","location":{"type":"Point","coordinates":[-122.3341618,48.4410937]},"isApproved":true,"items":[],"keys":["Mexican"],"lastUpdated":1547527612348,"name":"Taqueria La Bamba","phone":"(360) 424-0824","price":"$","reviewCount":90,"reviewScore":4.5,"meta":{"revision":0,"created":1547531156717,"version":0},"$loki":182},{"_id":"5c3d65bd3525a329e0c121b1","address":"2222 Riverside Dr","location":{"type":"Point","coordinates":[-122.33438372612,48.4412801740022]},"isApproved":true,"items":[],"keys":["Japanese","Korean","Vietnamese"],"lastUpdated":1547527612663,"name":"Orange Teriyaki Wok & PHO","phone":"(360) 899-5564","price":"$$","reviewCount":58,"reviewScore":4,"meta":{"revision":0,"created":1547531156717,"version":0},"$loki":183},{"_id":"5c3d65bd3525a329e0c0bb04","address":"601 NE Midway Blvd","location":{"type":"Point","coordinates":[-122.3358619,48.4387058]},"isApproved":true,"items":[],"keys":["Barbeque","Sandwiches","Southern"],"lastUpdated":1547527612508,"name":"The BBQ Joint","phone":"(360) 679-3500","price":"$$","reviewCount":120,"reviewScore":3.5,"meta":{"revision":0,"created":1547531156717,"version":0},"$loki":184},{"_id":"5c3d65bd3525a329e0c196ec","address":"20800 Marine Dr","location":{"type":"Point","coordinates":[-122.336654,48.4393367]},"isApproved":true,"items":[],"keys":["Festivals","Dinner Theater"],"lastUpdated":1547527612841,"name":"The Lights of Christmas","phone":"(800) 228-6724","price":"","reviewCount":8,"reviewScore":5,"meta":{"revision":0,"created":1547531156717,"version":0},"$loki":185},{"_id":"5c3d65bd3525a329e0c01fec","address":"32295 Sr 20","location":{"type":"Point","coordinates":[-122.335749165714,48.4375320824573]},"isApproved":true,"items":[],"keys":["American (Traditional)","Beer Bar"],"lastUpdated":1547527612274,"name":"Flyers Restaurant and Brewery","phone":"(360) 675-5858","price":"$$","reviewCount":268,"reviewScore":3.5,"meta":{"revision":0,"created":1547531156717,"version":0},"$loki":186},{"_id":"5c3d65bd3525a329e0c07434","address":"1810 Riverside Dr","location":{"type":"Point","coordinates":[-122.3346743,48.4371216]},"isApproved":true,"items":[],"keys":["Mexican","Bars","Vegetarian"],"lastUpdated":1547527612400,"name":"El Gitano","phone":"(360) 424-5514","price":"$$","reviewCount":73,"reviewScore":3,"meta":{"revision":0,"created":1547531156717,"version":0},"$loki":187},{"_id":"5c3d65bd3525a329e0c10d82","address":"31531 Sr 20","location":{"type":"Point","coordinates":[-122.3347466,48.4365567]},"isApproved":true,"items":[],"keys":["Asian Fusion","Chinese","Sushi Bars"],"lastUpdated":1547527612633,"name":"Teriyaki Time","phone":"(360) 675-5063","price":"$$","reviewCount":56,"reviewScore":3.5,"meta":{"revision":0,"created":1547531156717,"version":0},"$loki":188},{"_id":"5c3d65bd3525a329e0c003d8","address":"2627 S Harbor Loop Dr","location":{"type":"Point","coordinates":[-122.334761,48.4363371]},"isApproved":true,"items":[],"keys":["Coffee & Tea","Specialty Food","Food Stands"],"lastUpdated":1547527612226,"name":"America’s Cup - Temp. CLOSED","phone":"(360) 594-4660","price":"","reviewCount":2,"reviewScore":3,"meta":{"revision":0,"created":1547531156717,"version":0},"$loki":189},{"_id":"5c3d65bd3525a329e0c16227","address":"400 W Holly St","location":{"type":"Point","coordinates":[-122.336758,48.436461]},"isApproved":true,"items":[],"keys":["Vietnamese","Pizza"],"lastUpdated":1547527612763,"name":"Soy House Vietnamese Cooking","phone":"(360) 393-4857","price":"$$","reviewCount":127,"reviewScore":3,"meta":{"revision":0,"created":1547531156717,"version":0},"$loki":190},{"_id":"5c3d65bd3525a329e0c0b27b","address":"20275 Wa-20","location":{"type":"Point","coordinates":[-122.3362146,48.4360968]},"isApproved":true,"items":[],"keys":["Mexican","Food Trucks"],"lastUpdated":1547527612498,"name":"Tacos El Valle","phone":"(360) 399-3614","price":"$","reviewCount":2,"reviewScore":4.5,"meta":{"revision":0,"created":1547531156717,"version":0},"$loki":191},{"_id":"5c3d65bd3525a329e0c15c22","address":"1102 Harris Ave","location":{"type":"Point","coordinates":[-122.3365115,48.4362181]},"isApproved":true,"items":[],"keys":["Sushi Bars","Hawaiian","Poke"],"lastUpdated":1547527612754,"name":"Fairhaven Poke","phone":"(360) 922-7494","price":"$$","reviewCount":111,"reviewScore":4,"meta":{"revision":0,"created":1547531156717,"version":0},"$loki":192},{"_id":"5c3d65bd3525a329e0c0a105","address":"1401 172nd St NE","location":{"type":"Point","coordinates":[-122.3370484,48.435576]},"isApproved":true,"items":[],"keys":["Seafood","Mexican"],"lastUpdated":1547527612473,"name":"La Carreta","phone":"(360) 652-0984","price":"$","reviewCount":15,"reviewScore":3.5,"meta":{"revision":0,"created":1547531156717,"version":0},"$loki":193},{"_id":"5c3d65bd3525a329e0c08f96","address":"9200 271st St NW","location":{"type":"Point","coordinates":[-122.3395791,48.43614]},"isApproved":true,"items":[],"keys":["Mexican"],"lastUpdated":1547527612438,"name":"Ixtapa","phone":"(360) 629-5227","price":"$$","reviewCount":38,"reviewScore":3.5,"meta":{"revision":0,"created":1547531156717,"version":0},"$loki":194},{"_id":"5c3d65bd3525a329e0c078a8","address":"160 Spring St W","location":{"type":"Point","coordinates":[-122.3395077986,48.436399920224]},"isApproved":true,"items":[],"keys":["Grocery","Beer, Wine & Spirits","Delis"],"lastUpdated":1547527612408,"name":"Kings Market","phone":"(360) 378-4505","price":"$$","reviewCount":34,"reviewScore":4,"meta":{"revision":0,"created":1547531156717,"version":0},"$loki":195},{"_id":"5c3d65bd3525a329e0c11ec9","address":"2426 James St","location":{"type":"Point","coordinates":[-122.33841,48.435755]},"isApproved":true,"items":[],"keys":["Sandwiches","Mediterranean","Fast Food"],"lastUpdated":1547527612662,"name":"Pita Pit","phone":"(360) 933-1115","price":"$","reviewCount":19,"reviewScore":3.5,"meta":{"revision":0,"created":1547531156717,"version":0},"$loki":196},{"_id":"5c3d65bd3525a329e0c0e3a2","address":"757 Haggen Dr","location":{"type":"Point","coordinates":[-122.339323014021,48.4354186789618]},"isApproved":true,"items":[],"keys":["Grocery","Delis","Butcher"],"lastUpdated":1547527612572,"name":"Haggen Food & Pharmacy","phone":"(360) 814-1500","price":"$$","reviewCount":26,"reviewScore":3.5,"meta":{"revision":0,"created":1547531156717,"version":0},"$loki":197},{"_id":"5c3d65bd3525a329e0c191a4","address":"14824 Smokey Point Blvd","location":{"type":"Point","coordinates":[-122.342634,48.43736]},"isApproved":true,"items":[],"keys":["Pubs","American (Traditional)"],"lastUpdated":1547527612833,"name":"Danny’s Midway Pub & Grill","phone":"(360) 659-2248","price":"$$","reviewCount":27,"reviewScore":2.5,"meta":{"revision":0,"created":1547531156717,"version":0},"$loki":198},{"_id":"5c3d65bd3525a329e0c02fc3","address":"16918 Twin Lakes Ave","location":{"type":"Point","coordinates":[-122.3425542,48.437603]},"isApproved":true,"items":[],"keys":["Pizza","Sports Bars"],"lastUpdated":1547527612295,"name":"Boston’s Restaurant & Sports Bar","phone":"(360) 652-9999","price":"$$","reviewCount":118,"reviewScore":3,"meta":{"revision":0,"created":1547531156717,"version":0},"$loki":199},{"_id":"5c3d65bd3525a329e0c17cbf","address":"1100 SW Bowmer Street","location":{"type":"Point","coordinates":[-122.343668976051,48.4397461762462]},"isApproved":true,"items":[],"keys":["Pizza"],"lastUpdated":1547527612800,"name":"Papa Murphy’s","phone":"(360) 675-5505","price":"$","reviewCount":22,"reviewScore":3,"meta":{"revision":0,"created":1547531156717,"version":0},"$loki":200},{"_id":"5c3d65bd3525a329e0c026ee","address":"205 A St","location":{"type":"Point","coordinates":[-122.3422078,48.4397106]},"isApproved":true,"items":[],"keys":["Seafood","American (Traditional)"],"lastUpdated":1547527612284,"name":"Hungry Clam","phone":"(360) 378-3474","price":"$$","reviewCount":148,"reviewScore":3,"meta":{"revision":0,"created":1547531156717,"version":0},"$loki":201},{"_id":"5c3d65bd3525a329e0c00275","address":"1640 NE Goldie St","location":{"type":"Point","coordinates":[-122.3420692,48.4408861]},"isApproved":true,"items":[],"keys":["Sports Bars","American (Traditional)"],"lastUpdated":1547527612225,"name":"All Sports Bar & Grill","phone":"(360) 679-3100","price":"$","reviewCount":16,"reviewScore":4,"meta":{"revision":0,"created":1547531156717,"version":0},"$loki":202},{"_id":"5c3d65bd3525a329e0c0464d","address":"110 Stewart Rd","location":{"type":"Point","coordinates":[-122.342297583818,48.4427719090513]},"isApproved":true,"items":[],"keys":["Greek","Food Stands"],"lastUpdated":1547527612328,"name":"A.B’s Hillbilly Gyros","phone":"(360) 610-5175","price":"$","reviewCount":2,"reviewScore":3.5,"meta":{"revision":0,"created":1547531156717,"version":0},"$loki":203},{"_id":"5c3d65bd3525a329e0c05250","address":"382 Prune Aly","location":{"type":"Point","coordinates":[-122.342201983935,48.4430086666642]},"isApproved":true,"items":[],"keys":["Bakeries","Cafes","Delis"],"lastUpdated":1547527612346,"name":"Roses Bakery Cafe","phone":"(360) 376-4292","price":"$$","reviewCount":133,"reviewScore":4,"meta":{"revision":0,"created":1547531156717,"version":0},"$loki":204},{"_id":"5c3d65bd3525a329e0c09773","address":"4876 Haxton Way","location":{"type":"Point","coordinates":[-122.3462487,48.4412703]},"isApproved":true,"items":[],"keys":["Pizza","Sandwiches","Breakfast & Brunch"],"lastUpdated":1547527612461,"name":"Pizzanini","phone":"(360) 483-5014","price":"$","reviewCount":9,"reviewScore":2.5,"meta":{"revision":0,"created":1547531156717,"version":0},"$loki":205},{"_id":"5c3d65bd3525a329e0c04272","address":"765 Wonn Rd","location":{"type":"Point","coordinates":[-122.336349785328,48.442093549804]},"isApproved":true,"items":[],"keys":["Cafes","Breakfast & Brunch"],"lastUpdated":1547527612321,"name":"Whidbey Pies Cafe","phone":"(360) 678-1288","price":"$$","reviewCount":113,"reviewScore":4,"meta":{"revision":0,"created":1547531156717,"version":0},"$loki":206},{"_id":"5c3d65bd3525a329e0c18185","address":"2034 Marketplace Dr","location":{"type":"Point","coordinates":[-122.33613,48.4484275]},"isApproved":true,"items":[],"keys":["Fast Food","Burgers","Coffee & Tea"],"lastUpdated":1547527612809,"name":"McDonald’s","phone":"(360) 757-2857","price":"$","reviewCount":9,"reviewScore":3,"meta":{"revision":0,"created":1547531156717,"version":0},"$loki":207},{"_id":"5c3d65bd3525a329e0c13c40","address":"2615 S Harbor Lp Dr","location":{"type":"Point","coordinates":[-122.3383699,48.4515343]},"isApproved":true,"items":[],"keys":["Fish & Chips","Burgers","American (Traditional)"],"lastUpdated":1547527612705,"name":"Nicki’s Bella Marina","phone":"(360) 332-2505","price":"$$","reviewCount":67,"reviewScore":3,"meta":{"revision":0,"created":1547531156717,"version":0},"$loki":208},{"_id":"5c3d65bd3525a329e0c17ab3","address":"1311 Railroad Ave","location":{"type":"Point","coordinates":[-122.337483,48.45118]},"isApproved":true,"items":[],"keys":["Creperies"],"lastUpdated":1547527612799,"name":"AB Crepes","phone":"(360) 325-1311","price":"$","reviewCount":177,"reviewScore":4.5,"meta":{"revision":0,"created":1547531156717,"version":0},"$loki":209},{"_id":"5c3d65bd3525a329e0c146b2","address":"2072 Capt Whidbey Inn Rd","location":{"type":"Point","coordinates":[-122.334792,48.450973]},"isApproved":true,"items":[],"keys":["American (New)","Seafood"],"lastUpdated":1547527612716,"name":"Captain Whidbey - Temp. CLOSED","phone":"(360) 678-4097","price":"$$","reviewCount":40,"reviewScore":3,"meta":{"revision":0,"created":1547531156717,"version":0},"$loki":210},{"_id":"5c3d65bd3525a329e0c17eb6","address":"1717 S 13th St","location":{"type":"Point","coordinates":[-122.3341582,48.4509727]},"isApproved":true,"items":[],"keys":["American (New)","Seafood","Barbeque"],"lastUpdated":1547527612802,"name":"Kiwanis Salmon Barbecue","phone":"(360) 428-7028","price":"$$","reviewCount":2,"reviewScore":5,"meta":{"revision":0,"created":1547531156717,"version":0},"$loki":211},{"_id":"5c3d65bd3525a329e0c13816","address":"1600 E College Way","location":{"type":"Point","coordinates":[-122.3209187,48.435356]},"isApproved":true,"items":[],"keys":["Pizza"],"lastUpdated":1547527612697,"name":"Domino’s Pizza","phone":"(360) 428-6800","price":"$","reviewCount":10,"reviewScore":4,"meta":{"revision":0,"created":1547531156717,"version":0},"$loki":212},{"_id":"5c3d65bd3525a329e0c01667","address":"3729 E College Way","location":{"type":"Point","coordinates":[-122.292287,48.435905]},"isApproved":true,"items":[],"keys":["Mexican"],"lastUpdated":1547527612250,"name":"Antojitos Nuevo Leon","phone":"(360) 588-4155","price":"","reviewCount":1,"reviewScore":5,"meta":{"revision":0,"created":1547531156717,"version":0},"$loki":213},{"_id":"5c3d65bd3525a329e0c058de","address":"3611 168th St NE","location":{"type":"Point","coordinates":[-122.292287,48.435905]},"isApproved":true,"items":[],"keys":["Mexican"],"lastUpdated":1547527612355,"name":"Paraiso Mexican Restaurant","phone":"(360) 653-6133","price":"$$","reviewCount":122,"reviewScore":3.5,"meta":{"revision":0,"created":1547531156717,"version":0},"$loki":214},{"_id":"5c3d65bd3525a329e0c08bab","address":"365 N Beach Rd","location":{"type":"Point","coordinates":[-122.2339268,48.461867]},"isApproved":true,"items":[],"keys":["Cafes","Gelato","Breakfast & Brunch"],"lastUpdated":1547527612436,"name":"Enzo’s Italian Cafe","phone":"(360) 376-3732","price":"$","reviewCount":45,"reviewScore":4,"meta":{"revision":0,"created":1547531156717,"version":0},"$loki":215},{"_id":"5c3d65bd3525a329e0c0add3","address":"414 W Bakerview Rd","location":{"type":"Point","coordinates":[-122.234949387039,48.4564921336376]},"isApproved":true,"items":[],"keys":["Burgers","Chicken Wings","Sandwiches"],"lastUpdated":1547527612490,"name":"Fat Shack","phone":"(360) 366-8752","price":"$$","reviewCount":40,"reviewScore":3.5,"meta":{"revision":0,"created":1547531156717,"version":0},"$loki":216},{"_id":"5c3d65bd3525a329e0c007f0","address":"135 2nd St N","location":{"type":"Point","coordinates":[-122.307763472199,48.4827964044719]},"isApproved":true,"items":[],"keys":["Wine Bars","Vegan","Beer Gardens"],"lastUpdated":1547527612228,"name":"Mike’s Cafe & Wine Bar","phone":"(360) 378-0265","price":"$$","reviewCount":158,"reviewScore":4,"meta":{"revision":0,"created":1547531156717,"version":0},"$loki":217},{"_id":"5c3d65bd3525a329e0c0525f","address":"2100 Ferry Terminal Rd","location":{"type":"Point","coordinates":[-122.3352059,48.477579]},"isApproved":true,"items":[],"keys":["Cafes"],"lastUpdated":1547527612346,"name":"Provisions Cafe","phone":"","price":"","reviewCount":1,"reviewScore":4,"meta":{"revision":0,"created":1547531156717,"version":0},"$loki":218},{"_id":"5c3d65bd3525a329e0c1670f","address":"702 N Burlington Blvd","location":{"type":"Point","coordinates":[-122.335002,48.480828]},"isApproved":true,"items":[],"keys":["Food Trucks","Mexican"],"lastUpdated":1547527612766,"name":"Tacos Tecalitlan","phone":"(360) 224-5849","price":"$","reviewCount":9,"reviewScore":5,"meta":{"revision":0,"created":1547531156717,"version":0},"$loki":219},{"_id":"5c3d65bd3525a329e0c0b27c","address":"1994 Elger Bay Rd","location":{"type":"Point","coordinates":[-122.3268539,48.4751928]},"isApproved":true,"items":[],"keys":["American (Traditional)"],"lastUpdated":1547527612498,"name":"Elger Bay Cafe","phone":"(360) 387-2904","price":"$$","reviewCount":14,"reviewScore":3,"meta":{"revision":0,"created":1547531156717,"version":0},"$loki":220},{"_id":"5c3d65bd3525a329e0c19592","address":"1300 Bay St","location":{"type":"Point","coordinates":[-122.3267756,48.4753972]},"isApproved":true,"items":[],"keys":["Cajun/Creole","Southern","Breakfast & Brunch"],"lastUpdated":1547527612840,"name":"Bayou on Bay","phone":"(360) 752-2968","price":"$$","reviewCount":332,"reviewScore":3.5,"meta":{"revision":0,"created":1547531156717,"version":0},"$loki":221},{"_id":"5c3d65bd3525a329e0c17e03","address":"1650 W Bakerview Rd","location":{"type":"Point","coordinates":[-122.326671034098,48.4756238949404]},"isApproved":true,"items":[],"keys":["Greek","Mediterranean","American (Traditional)"],"lastUpdated":1547527612801,"name":"Mykonos Greek Restaurant","phone":"(360) 715-3071","price":"$$","reviewCount":100,"reviewScore":4,"meta":{"revision":0,"created":1547531156717,"version":0},"$loki":222},{"_id":"5c3d65bd3525a329e0c02639","address":"12885 Casino Dr","location":{"type":"Point","coordinates":[-122.3294401,48.4757591]},"isApproved":true,"items":[],"keys":["American (New)","Sandwiches","Cafes"],"lastUpdated":1547527612284,"name":"Carver’s Cafe","phone":"(855) 794-6563","price":"$","reviewCount":3,"reviewScore":4,"meta":{"revision":0,"created":1547531156717,"version":0},"$loki":223},{"_id":"5c3d65bd3525a329e0c0c920","address":"331 E Fairhaven Ave","location":{"type":"Point","coordinates":[-122.331172,48.475765]},"isApproved":true,"items":[],"keys":["Cafes","Breakfast & Brunch","American (New)"],"lastUpdated":1547527612526,"name":"Cafe Burlington","phone":"(360) 755-0016","price":"$$","reviewCount":122,"reviewScore":4,"meta":{"revision":0,"created":1547531156717,"version":0},"$loki":224},{"_id":"5c3d65bd3525a329e0c10f13","address":"316 E Fairhaven Ave","location":{"type":"Point","coordinates":[-122.3315541,48.4753692]},"isApproved":true,"items":[],"keys":["American (Traditional)","Breakfast & Brunch","Cafes"],"lastUpdated":1547527612640,"name":"Billy’s Cafe","phone":"(360) 755-9988","price":"$$","reviewCount":162,"reviewScore":4.5,"meta":{"revision":0,"created":1547531156717,"version":0},"$loki":225},{"_id":"5c3d65bd3525a329e0c17cd6","address":"517 S 1st St","location":{"type":"Point","coordinates":[-122.3304277,48.4750271]},"isApproved":true,"items":[],"keys":["Mexican"],"lastUpdated":1547527612800,"name":"La Catrina Tacos & Tequila","phone":"(360) 336-5566","price":"$$","reviewCount":27,"reviewScore":4.5,"meta":{"revision":0,"created":1547531156717,"version":0},"$loki":226},{"_id":"5c3d65bd3525a329e0c0483f","address":"232 36th St","location":{"type":"Point","coordinates":[-122.3276258,48.4745603]},"isApproved":true,"items":[],"keys":["Diners","Breakfast & Brunch"],"lastUpdated":1547527612330,"name":"Sehome Diner","phone":"(360) 738-3311","price":"$","reviewCount":42,"reviewScore":4,"meta":{"revision":0,"created":1547531156717,"version":0},"$loki":227},{"_id":"5c3d65bd3525a329e0c150b3","address":"601 W Holly St","location":{"type":"Point","coordinates":[-122.334099,48.4605346]},"isApproved":true,"items":[],"keys":["American (New)","Pubs","Breweries"],"lastUpdated":1547527612737,"name":"Chuckanut Brewery & Kitchen","phone":"(360) 752-3377","price":"$$","reviewCount":257,"reviewScore":4,"meta":{"revision":0,"created":1547531156717,"version":0},"$loki":228},{"_id":"5c3d65bd3525a329e0c0f22f","address":"370 NE Camano Dr","location":{"type":"Point","coordinates":[-122.335225398364,48.4607482891892]},"isApproved":true,"items":[],"keys":["Sandwiches","Fast Food"],"lastUpdated":1547527612591,"name":"Subway","phone":"(360) 631-5055","price":"$","reviewCount":13,"reviewScore":2,"meta":{"revision":0,"created":1547531156717,"version":0},"$loki":229},{"_id":"5c3d65bd3525a329e0c1b240","address":"1138 Finnegan Way","location":{"type":"Point","coordinates":[-122.3349756,48.4627969]},"isApproved":true,"items":[],"keys":["American (Traditional)","Burgers","Bars"],"lastUpdated":1547527612877,"name":"The Filling Station","phone":"(360) 715-1839","price":"$$","reviewCount":205,"reviewScore":4,"meta":{"revision":0,"created":1547531156717,"version":0},"$loki":230},{"_id":"5c3d65bd3525a329e0c0d7e7","address":"270 SE Cabot Dr","location":{"type":"Point","coordinates":[-122.3363828,48.4617317]},"isApproved":true,"items":[],"keys":["Thai"],"lastUpdated":1547527612554,"name":"Naung Mai Thai Kitchen","phone":"(360) 679-8907","price":"","reviewCount":1,"reviewScore":4,"meta":{"revision":0,"created":1547531156717,"version":0},"$loki":231},{"_id":"5c3d65bd3525a329e0c0aa79","address":"1301 W Bakerview Rd","location":{"type":"Point","coordinates":[-122.3365259,48.4638626]},"isApproved":true,"items":[],"keys":["Burgers","Fast Food"],"lastUpdated":1547527612488,"name":"Five Guys","phone":"(360) 734-8300","price":"$","reviewCount":77,"reviewScore":3.5,"meta":{"revision":0,"created":1547531156717,"version":0},"$loki":232},{"_id":"5c3d65bd3525a329e0c137fd","address":"18444 Spruce St","location":{"type":"Point","coordinates":[-122.3351214,48.4639477]},"isApproved":true,"items":[],"keys":["Music Venues","American (New)","Venues & Event Spaces"],"lastUpdated":1547527612697,"name":"The Conway Muse","phone":"(360) 445-3000","price":"$$","reviewCount":17,"reviewScore":3.5,"meta":{"revision":0,"created":1547531156717,"version":0},"$loki":233},{"_id":"5c3d65bd3525a329e0c03837","address":"300 Eisenhower Ave","location":{"type":"Point","coordinates":[-122.336164,48.464968]},"isApproved":true,"items":[],"keys":["Pubs","American (New)"],"lastUpdated":1547527612304,"name":"Taps at The Guardhouse","phone":"(360) 344-4400","price":"$$","reviewCount":38,"reviewScore":4,"meta":{"revision":0,"created":1547531156717,"version":0},"$loki":234},{"_id":"5c3d65bd3525a329e0c09053","address":"478 Andis Rd","location":{"type":"Point","coordinates":[-122.3403741,48.466048]},"isApproved":true,"items":[],"keys":["Steakhouses"],"lastUpdated":1547527612439,"name":"Outback Steakhouse","phone":"(360) 707-9942","price":"$$","reviewCount":94,"reviewScore":2.5,"meta":{"revision":0,"created":1547531156717,"version":0},"$loki":235},{"_id":"5c3d65bd3525a329e0c131c3","address":"209 T Ave","location":{"type":"Point","coordinates":[-122.3368561,48.4674789]},"isApproved":true,"items":[],"keys":["Seafood","Bars","Fish & Chips"],"lastUpdated":1547527612689,"name":"Secret Cove","phone":"(360) 982-2008","price":"$$","reviewCount":97,"reviewScore":3.5,"meta":{"revision":0,"created":1547531156717,"version":0},"$loki":236},{"_id":"5c3d65bd3525a329e0c09947","address":"1034 South Burlington Blvd.","location":{"type":"Point","coordinates":[-122.3353825,48.4650657]},"isApproved":true,"items":[],"keys":["Pizza"],"lastUpdated":1547527612463,"name":"Papa Murphy’s","phone":"(360) 707-2902","price":"$","reviewCount":6,"reviewScore":3.5,"meta":{"revision":0,"created":1547531156717,"version":0},"$loki":237},{"_id":"5c3d65bd3525a329e0c0b401","address":"2200 N Nugent Rd","location":{"type":"Point","coordinates":[-122.3353678,48.4649391]},"isApproved":true,"items":[],"keys":["Seafood","Breakfast & Brunch","Pizza"],"lastUpdated":1547527612498,"name":"Beach Store Cafe","phone":"(360) 758-2233","price":"$$","reviewCount":50,"reviewScore":4.5,"meta":{"revision":0,"created":1547531156717,"version":0},"$loki":238},{"_id":"5c3d65bd3525a329e0c0af42","address":"1060 S Burlington Blvd","location":{"type":"Point","coordinates":[-122.3344928,48.4647626]},"isApproved":true,"items":[],"keys":["American (New)","Pizza","Sandwiches"],"lastUpdated":1547527612491,"name":"Coconut Kenny’s","phone":"(360) 899-4548","price":"$$","reviewCount":61,"reviewScore":4,"meta":{"revision":0,"created":1547531156717,"version":0},"$loki":239},{"_id":"5c3d65bd3525a329e0c1aea0","address":"2955 New Market St","location":{"type":"Point","coordinates":[-122.3349497,48.4683233]},"isApproved":true,"items":[],"keys":["Burgers"],"lastUpdated":1547527612876,"name":"Bob’s Burgers and Brew","phone":"(360) 647-3355","price":"$$","reviewCount":78,"reviewScore":3,"meta":{"revision":0,"created":1547531156717,"version":0},"$loki":240},{"_id":"5c3d65bd3525a329e0c12b45","address":"233 Prune Aly","location":{"type":"Point","coordinates":[-122.337315,48.4710134]},"isApproved":true,"items":[],"keys":["Asian Fusion","Vegetarian"],"lastUpdated":1547527612680,"name":"The Kitchen","phone":"(360) 376-6958","price":"$$","reviewCount":121,"reviewScore":3.5,"meta":{"revision":0,"created":1547531156717,"version":0},"$loki":241},{"_id":"5c3d65bd3525a329e0c02ca7","address":"326 Olga Rd","location":{"type":"Point","coordinates":[-122.3352202,48.4719545]},"isApproved":true,"items":[],"keys":["American (Traditional)","Bars"],"lastUpdated":1547527612293,"name":"Inn At Ship Bay Restaurant","phone":"(877) 276-7296","price":"$$$","reviewCount":8,"reviewScore":5,"meta":{"revision":0,"created":1547531156717,"version":0},"$loki":242},{"_id":"5c3d65bd3525a329e0c032a4","address":"1248 SW Barlow St","location":{"type":"Point","coordinates":[-122.3353106,48.4714909]},"isApproved":true,"items":[],"keys":["Fast Food","Ice Cream & Frozen Yogurt"],"lastUpdated":1547527612302,"name":"Dairy Queen","phone":"(360) 679-8989","price":"$","reviewCount":27,"reviewScore":2,"meta":{"revision":0,"created":1547531156717,"version":0},"$loki":243},{"_id":"5c3d65bd3525a329e0c09e57","address":"3175 N Goldie Rd","location":{"type":"Point","coordinates":[-122.334444411099,48.471893220149]},"isApproved":true,"items":[],"keys":["Caribbean","Food Stands"],"lastUpdated":1547527612471,"name":"Caribbean Lunchbox","phone":"(360) 632-3600","price":"$$","reviewCount":39,"reviewScore":5,"meta":{"revision":0,"created":1547531156717,"version":0},"$loki":244},{"_id":"5c3d65bd3525a329e0c05ce9","address":"31439 State Rt 20","location":{"type":"Point","coordinates":[-122.3352946,48.474151]},"isApproved":true,"items":[],"keys":["American (New)","Lounges"],"lastUpdated":1547527612357,"name":"Hwy. 20 Restaurant and Lounge","phone":"(360) 399-1753","price":"$","reviewCount":2,"reviewScore":4,"meta":{"revision":0,"created":1547531156717,"version":0},"$loki":245},{"_id":"5c3d65bd3525a329e0c04d65","address":"323 E College Way","location":{"type":"Point","coordinates":[-122.336124,48.472487]},"isApproved":true,"items":[],"keys":["Vietnamese","Japanese","Chinese"],"lastUpdated":1547527612338,"name":"Bite Teriyaki & Pho","phone":"(360) 336-0777","price":"$$","reviewCount":72,"reviewScore":3.5,"meta":{"revision":0,"created":1547531156717,"version":0},"$loki":246},{"_id":"5c3d65bd3525a329e0c00091","address":"1115 Iowa St","location":{"type":"Point","coordinates":[-122.3388153,48.4692798]},"isApproved":true,"items":[],"keys":["Food Trucks","Mexican"],"lastUpdated":1547527612223,"name":"Ah! Chihuahua Taco Truck","phone":"(360) 303-7822","price":"$","reviewCount":4,"reviewScore":4,"meta":{"revision":0,"created":1547531156717,"version":0},"$loki":247},{"_id":"5c3d65bd3525a329e0c12817","address":"31255 State Route 20","location":{"type":"Point","coordinates":[-122.343693,48.468466]},"isApproved":true,"items":[],"keys":["Burgers","Fast Food"],"lastUpdated":1547527612672,"name":"Wendy’s","phone":"(360) 675-1333","price":"$","reviewCount":12,"reviewScore":2.5,"meta":{"revision":0,"created":1547531156717,"version":0},"$loki":248},{"_id":"5c3d65bd3525a329e0c0325d","address":"370 NE Camano Dr","location":{"type":"Point","coordinates":[-122.344742752612,48.469478271061]},"isApproved":true,"items":[],"keys":["American (Traditional)","Pubs"],"lastUpdated":1547527612296,"name":"PUB 282","phone":"(360) 926-8960","price":"$$","reviewCount":54,"reviewScore":3,"meta":{"revision":0,"created":1547531156717,"version":0},"$loki":249},{"_id":"5c3d65bd3525a329e0c04e6e","address":"930 SE Pioneer Way","location":{"type":"Point","coordinates":[-122.338525056839,48.4616104394768]},"isApproved":true,"items":[],"keys":["Seafood","Indian"],"lastUpdated":1547527612339,"name":"Tasty India","phone":"(360) 682-6565","price":"","reviewCount":8,"reviewScore":2,"meta":{"revision":0,"created":1547531156717,"version":0},"$loki":250},{"_id":"5c3d65bd3525a329e0c13746","address":"","location":{"type":"Point","coordinates":[-122.3372655,48.4600303]},"isApproved":true,"items":[],"keys":["Pizza","Food Trucks","Caterers"],"lastUpdated":1547527612697,"name":"Cicchitti’s Pizza Truck","phone":"(360) 820-5333","price":"","reviewCount":6,"reviewScore":4,"meta":{"revision":0,"created":1547531156717,"version":0},"$loki":251},{"_id":"5c3d65bd3525a329e0c11f99","address":"188 Cascade Mall Dr","location":{"type":"Point","coordinates":[-122.336417,48.4602761]},"isApproved":true,"items":[],"keys":["American (Traditional)","Sports Bars","Burgers"],"lastUpdated":1547527612662,"name":"Applebee’s Grill + Bar","phone":"(360) 757-1414","price":"$$","reviewCount":53,"reviewScore":2.5,"meta":{"revision":0,"created":1547531156717,"version":0},"$loki":252},{"_id":"5c3d65bd3525a329e0c013f7","address":"200 Prospect St","location":{"type":"Point","coordinates":[-122.3351676,48.4569788]},