{"filename":"-123-48.25","collections":[{"name":"restaurants","data":[{"_id":"5c3d65bd3525a329e0c17e50","address":"33185 Sr 20","location":{"type":"Point","coordinates":[-122.6412655,48.3092157]},"isApproved":true,"items":[],"keys":["Chinese"],"lastUpdated":1547527612801,"name":"China City","phone":"(360) 279-8899","price":"$$","reviewCount":133,"reviewScore":3,"meta":{"revision":0,"created":1547531153401,"version":0},"$loki":1},{"_id":"5c3d65bd3525a329e0c15233","address":"1320 Memorial Hwy","location":{"type":"Point","coordinates":[-122.643741,48.3115786]},"isApproved":true,"items":[],"keys":["Mexican"],"lastUpdated":1547527612737,"name":"Mexico Cafe","phone":"(360) 424-1977","price":"$$","reviewCount":71,"reviewScore":3.5,"meta":{"revision":0,"created":1547531153401,"version":0},"$loki":2},{"_id":"5c3d65bd3525a329e0c120cf","address":"1304 12th St","location":{"type":"Point","coordinates":[-122.6664532,48.3255586]},"isApproved":true,"items":[],"keys":["Burgers","Sandwiches","Bars"],"lastUpdated":1547527612663,"name":"Whiskey’s Burger Bistro","phone":"(360) 526-2905","price":"$$","reviewCount":73,"reviewScore":3.5,"meta":{"revision":0,"created":1547531153401,"version":0},"$loki":3},{"_id":"5c3d65bd3525a329e0c04d1e","address":"107 Doe Bay Rd","location":{"type":"Point","coordinates":[-122.6488043,48.3250612]},"isApproved":true,"items":[],"keys":["Cafes"],"lastUpdated":1547527612338,"name":"Doe Bay Cafe","phone":"(360) 376-8059","price":"$$","reviewCount":131,"reviewScore":4.5,"meta":{"revision":0,"created":1547531153401,"version":0},"$loki":4},{"_id":"5c3d65bd3525a329e0c154e5","address":"215 Tyler St","location":{"type":"Point","coordinates":[-122.671030885338,48.3425767661909]},"isApproved":true,"items":[],"keys":["Cafes"],"lastUpdated":1547527612745,"name":"Tyler Street Cafe","phone":"(360) 379-2815","price":"","reviewCount":8,"reviewScore":4,"meta":{"revision":0,"created":1547531153401,"version":0},"$loki":5},{"_id":"5c3d65bd3525a329e0c0436d","address":"5305 Northwest Dr","location":{"type":"Point","coordinates":[-122.672958,48.343408]},"isApproved":true,"items":[],"keys":["Restaurants"],"lastUpdated":1547527612321,"name":"Fools Onion Restaurant","phone":"(360) 647-2800","price":"","reviewCount":1,"reviewScore":1,"meta":{"revision":0,"created":1547531153401,"version":0},"$loki":6},{"_id":"5c3d65bd3525a329e0c00b86","address":"190 East Bakerview Rd","location":{"type":"Point","coordinates":[-122.6526803,48.3762226]},"isApproved":true,"items":[],"keys":["Mexican"],"lastUpdated":1547527612230,"name":"Lilia’s Mexican Cuisine","phone":"(360) 527-3181","price":"$$","reviewCount":42,"reviewScore":3.5,"meta":{"revision":0,"created":1547531153401,"version":0},"$loki":7},{"_id":"5c3d65bd3525a329e0c0a79c","address":"14003 Gilmore Ave","location":{"type":"Point","coordinates":[-122.6076989,48.4289662]},"isApproved":true,"items":[],"keys":["Mexican"],"lastUpdated":1547527612481,"name":"Mariposa Taqueria","phone":"(360) 820-9912","price":"$","reviewCount":70,"reviewScore":4.5,"meta":{"revision":0,"created":1547531153401,"version":0},"$loki":8},{"_id":"5c3d65bd3525a329e0c120e3","address":"327 E College Way","location":{"type":"Point","coordinates":[-122.80507,48.50811]},"isApproved":true,"items":[],"keys":["Ice Cream & Frozen Yogurt","American (Traditional)"],"lastUpdated":1547527612663,"name":"Big Scoop Sundae Palace & Restaurant","phone":"(360) 424-3558","price":"$","reviewCount":75,"reviewScore":4,"meta":{"revision":0,"created":1547531153401,"version":0},"$loki":9},{"_id":"5c3d65bd3525a329e0c04994","address":"1317 N State St","location":{"type":"Point","coordinates":[-122.9125809,48.524288]},"isApproved":true,"items":[],"keys":["Italian","Bars"],"lastUpdated":1547527612330,"name":"D’anna’s Cafe Italiano","phone":"(360) 714-0188","price":"$$","reviewCount":352,"reviewScore":4,"meta":{"revision":0,"created":1547531153401,"version":0},"$loki":10},{"_id":"5c3d65bd3525a329e0c149ac","address":"45 Eads Ln","location":{"type":"Point","coordinates":[-122.9130324,48.524077]},"isApproved":true,"items":[],"keys":["Noodles","Ramen"],"lastUpdated":1547527612728,"name":"Setsunai","phone":"(360) 503-6341","price":"$$","reviewCount":26,"reviewScore":4,"meta":{"revision":0,"created":1547531153401,"version":0},"$loki":11},{"_id":"5c3d65bd3525a329e0c05c17","address":"214 Lopez Rd","location":{"type":"Point","coordinates":[-122.9138458,48.5238386]},"isApproved":true,"items":[],"keys":["Food Trucks","Poutineries"],"lastUpdated":1547527612356,"name":"Poutine Your Mouth","phone":"(801) 859-6400","price":"","reviewCount":8,"reviewScore":4,"meta":{"revision":0,"created":1547531153401,"version":0},"$loki":12},{"_id":"5c3d65bd3525a329e0c032e5","address":"277 G St","location":{"type":"Point","coordinates":[-122.9135171,48.5236238]},"isApproved":true,"items":[],"keys":["Sushi Bars","Wine Bars","Venues & Event Spaces"],"lastUpdated":1547527612302,"name":"The Vault Wine Bar","phone":"(360) 392-0955","price":"$$$","reviewCount":14,"reviewScore":4.5,"meta":{"revision":0,"created":1547531153401,"version":0},"$loki":13},{"_id":"5c3d65bd3525a329e0c19d32","address":"Bldg C","location":{"type":"Point","coordinates":[-122.912986012781,48.5226109792626]},"isApproved":true,"items":[],"keys":["Vegetarian","Juice Bars & Smoothies","Soup"],"lastUpdated":1547527612850,"name":"Vortex","phone":"(360) 468-4740","price":"$$","reviewCount":32,"reviewScore":4.5,"meta":{"revision":0,"created":1547531153401,"version":0},"$loki":14},{"_id":"5c3d65bd3525a329e0c12bd7","address":"4915 Lakewood Rd","location":{"type":"Point","coordinates":[-122.9144163,48.5232255]},"isApproved":true,"items":[],"keys":["Sports Bars","Burgers","American (Traditional)"],"lastUpdated":1547527612680,"name":"The Paddle Pub","phone":"(360) 652-4156","price":"$$","reviewCount":69,"reviewScore":3.5,"meta":{"revision":0,"created":1547531153401,"version":0},"$loki":15},{"_id":"5c3d65bd3525a329e0c1b636","address":"848 N Sunrise Blvd","location":{"type":"Point","coordinates":[-122.9153945,48.5238563]},"isApproved":true,"items":[],"keys":["Creperies","Fish & Chips","Tacos"],"lastUpdated":1547527612886,"name":"HodgePodge Easy Eats","phone":"(360) 572-3165","price":"$","reviewCount":49,"reviewScore":4.5,"meta":{"revision":0,"created":1547531153401,"version":0},"$loki":16},{"_id":"5c3d65bd3525a329e0c0924a","address":"835 Langford Parkway","location":{"type":"Point","coordinates":[-123.307935405091,48.464597054122]},"isApproved":true,"items":[],"keys":["Sushi Bars"],"lastUpdated":1547527612452,"name":"Bento Sushi","phone":"","price":"","reviewCount":0,"reviewScore":0,"meta":{"revision":0,"created":1547531153401,"version":0},"$loki":17},{"_id":"5c3d65bd3525a329e0c08e2d","address":"500 Fort Street","location":{"type":"Point","coordinates":[-123.2971801,48.4615854]},"isApproved":true,"items":[],"keys":["Steakhouses","American (Traditional)"],"lastUpdated":1547527612438,"name":"The Keg Steakhouse + Bar","phone":"(250) 386-7789","price":"$$$","reviewCount":117,"reviewScore":4,"meta":{"revision":0,"created":1547531153401,"version":0},"$loki":18},{"_id":"5c3d65bd3525a329e0c07866","address":"723 Yates Street","location":{"type":"Point","coordinates":[-123.297365,48.46157]},"isApproved":true,"items":[],"keys":["Tabletop Games","Cafes"],"lastUpdated":1547527612408,"name":"Interactivity Board Game Cafe","phone":"(250) 480-3979","price":"$","reviewCount":26,"reviewScore":4,"meta":{"revision":0,"created":1547531153401,"version":0},"$loki":19},{"_id":"5c3d65bd3525a329e0c13c6b","address":"1320 Blanshard Street","location":{"type":"Point","coordinates":[-123.31787458527,48.4641916925095]},"isApproved":true,"items":[],"keys":["Cafes"],"lastUpdated":1547527612705,"name":"Shine Cafe","phone":"(250) 595-2134","price":"$$","reviewCount":47,"reviewScore":4,"meta":{"revision":0,"created":1547531153401,"version":0},"$loki":20},{"_id":"5c3d65bd3525a329e0c18716","address":"1703 Island Highway","location":{"type":"Point","coordinates":[-123.3098918,48.4660541]},"isApproved":true,"items":[],"keys":["Coffee & Tea","Gluten-Free"],"lastUpdated":1547527612821,"name":"Serious Coffee View Royal","phone":"(778) 430-5282","price":"$","reviewCount":3,"reviewScore":3.5,"meta":{"revision":0,"created":1547531153401,"version":0},"$loki":21},{"_id":"5c3d65bd3525a329e0c18f1d","address":"2056-A Sinclair Road","location":{"type":"Point","coordinates":[-123.3073979,48.4667164]},"isApproved":true,"items":[],"keys":["Japanese"],"lastUpdated":1547527612831,"name":"Mutsuki-An","phone":"(250) 595-0378","price":"$$","reviewCount":4,"reviewScore":3.5,"meta":{"revision":0,"created":1547531153401,"version":0},"$loki":22},{"_id":"5c3d65bd3525a329e0c00c5d","address":"2730 Barry Road","location":{"type":"Point","coordinates":[-123.307525076691,48.466107095306]},"isApproved":true,"items":[],"keys":["Fast Food","Burgers"],"lastUpdated":1547527612231,"name":"McDonald’s","phone":"(250) 743-8780","price":"","reviewCount":3,"reviewScore":1,"meta":{"revision":0,"created":1547531153401,"version":0},"$loki":23},{"_id":"5c3d65bd3525a329e0c18232","address":"1420 Quadra Street","location":{"type":"Point","coordinates":[-123.332419577312,48.4767307266692]},"isApproved":true,"items":[],"keys":["Japanese"],"lastUpdated":1547527612809,"name":"Futaba Japanese Restaurant","phone":"(250) 381-6141","price":"$$","reviewCount":15,"reviewScore":3,"meta":{"revision":0,"created":1547531153401,"version":0},"$loki":24},{"_id":"5c3d65bd3525a329e0c02b62","address":"1450 Douglas Street","location":{"type":"Point","coordinates":[-123.3323985,48.4767919]},"isApproved":true,"items":[],"keys":["Tapas/Small Plates","Lounges"],"lastUpdated":1547527612286,"name":"Veneto","phone":"(250) 383-7310","price":"$$$","reviewCount":78,"reviewScore":4,"meta":{"revision":0,"created":1547531153401,"version":0},"$loki":25},{"_id":"5c3d65bd3525a329e0c0040e","address":"4081 Shelbourne Street","location":{"type":"Point","coordinates":[-123.3324351,48.4766679]},"isApproved":true,"items":[],"keys":["Seafood","Burgers"],"lastUpdated":1547527612226,"name":"Naughty Nellie’s Not Just Fish & Chips","phone":"(250) 721-5555","price":"$$","reviewCount":14,"reviewScore":3.5,"meta":{"revision":0,"created":1547531153401,"version":0},"$loki":26},{"_id":"5c3d65bd3525a329e0c030b3","address":"176 Wilson Street","location":{"type":"Point","coordinates":[-123.381134,48.4326455]},"isApproved":true,"items":[],"keys":["Mexican"],"lastUpdated":1547527612295,"name":"La Taquisa","phone":"(250) 590-6588","price":"$$","reviewCount":28,"reviewScore":4,"meta":{"revision":0,"created":1547531153401,"version":0},"$loki":27},{"_id":"5c3d65bd3525a329e0c0bcbf","address":"1018 Blanshard Street","location":{"type":"Point","coordinates":[-123.381134,48.4326383]},"isApproved":true,"items":[],"keys":["Ramen"],"lastUpdated":1547527612509,"name":"Menbow Ramen Bar","phone":"(250) 477-3883","price":"$$","reviewCount":36,"reviewScore":4,"meta":{"revision":0,"created":1547531153401,"version":0},"$loki":28},{"_id":"5c3d65bd3525a329e0c0dbaa","address":"2500 Beacon Avenue","location":{"type":"Point","coordinates":[-123.3782458,48.4317064]},"isApproved":true,"items":[],"keys":["Chinese"],"lastUpdated":1547527612556,"name":"Sidney Harbour Chinese Restaurant","phone":"(778) 426-3888","price":"$$","reviewCount":7,"reviewScore":3.5,"meta":{"revision":0,"created":1547531153401,"version":0},"$loki":29},{"_id":"5c3d65bd3525a329e0c06e59","address":"612 Head Street","location":{"type":"Point","coordinates":[-123.3816781,48.4330733]},"isApproved":true,"items":[],"keys":["Japanese","Sushi Bars"],"lastUpdated":1547527612387,"name":"Esquimalt Kyubey Sushi","phone":"(778) 433-9696","price":"$$","reviewCount":4,"reviewScore":3,"meta":{"revision":0,"created":1547531153401,"version":0},"$loki":30},{"_id":"5c3d65bd3525a329e0c13e0c","address":"201-804 Broughton Street","location":{"type":"Point","coordinates":[-123.3835453,48.4330543]},"isApproved":true,"items":[],"keys":["Wine Bars","Canadian (New)"],"lastUpdated":1547527612706,"name":"The Livet","phone":"(778) 265-3033","price":"$$$","reviewCount":18,"reviewScore":3.5,"meta":{"revision":0,"created":1547531153401,"version":0},"$loki":31},{"_id":"5c3d65bd3525a329e0c08a7c","address":"405 Craigflower Road","location":{"type":"Point","coordinates":[-123.387447,48.4363]},"isApproved":true,"items":[],"keys":["Chicken Wings"],"lastUpdated":1547527612430,"name":"Chicken On the Run","phone":"(250) 385-3468","price":"$$","reviewCount":15,"reviewScore":4,"meta":{"revision":0,"created":1547531153401,"version":0},"$loki":32},{"_id":"5c3d65bd3525a329e0c18412","address":"405 Craigflower Road","location":{"type":"Point","coordinates":[-123.387447,48.4363]},"isApproved":true,"items":[],"keys":["Chinese","Chicken Wings"],"lastUpdated":1547527612814,"name":"Crown Palace Chinese Restaurant","phone":"(250) 383-5322","price":"$$","reviewCount":8,"reviewScore":2.5,"meta":{"revision":0,"created":1547531153401,"version":0},"$loki":33},{"_id":"5c3d65bd3525a329e0c05872","address":"1017 Blanshard Street","location":{"type":"Point","coordinates":[-123.3861167,48.4427029]},"isApproved":true,"items":[],"keys":["Mexican"],"lastUpdated":1547527612354,"name":"La Taquisa","phone":"(250) 889-5803","price":"$","reviewCount":44,"reviewScore":4,"meta":{"revision":0,"created":1547531153401,"version":0},"$loki":34},{"_id":"5c3d65bd3525a329e0c04379","address":"617 Johnson Street","location":{"type":"Point","coordinates":[-123.385923989117,48.4427621229495]},"isApproved":true,"items":[],"keys":["Vegetarian","Chinese"],"lastUpdated":1547527612321,"name":"Lotus Pond Vegetarian Restaurant","phone":"(250) 380-9293","price":"$$","reviewCount":64,"reviewScore":4.5,"meta":{"revision":0,"created":1547531153401,"version":0},"$loki":35},{"_id":"5c3d65bd3525a329e0c16294","address":"805 Government Street","location":{"type":"Point","coordinates":[-123.378929,48.4428708]},"isApproved":true,"items":[],"keys":["Delis","Sandwiches"],"lastUpdated":1547527612763,"name":"Sam’s Deli","phone":"(250) 382-8424","price":"$$","reviewCount":60,"reviewScore":3,"meta":{"revision":0,"created":1547531153401,"version":0},"$loki":36},{"_id":"5c3d65bd3525a329e0c0db87","address":"2950 Douglas Street","location":{"type":"Point","coordinates":[-123.3702045,48.4431379]},"isApproved":true,"items":[],"keys":["Japanese","Sushi Bars"],"lastUpdated":1547527612556,"name":"Chikara Sushi Japanese Restaurant","phone":"(250) 385-6789","price":"$$","reviewCount":4,"reviewScore":4,"meta":{"revision":0,"created":1547531153401,"version":0},"$loki":37},{"_id":"5c3d65bd3525a329e0c14356","address":"2950 Douglas Street","location":{"type":"Point","coordinates":[-123.3702045,48.4431379]},"isApproved":true,"items":[],"keys":["Fish & Chips"],"lastUpdated":1547527612714,"name":"Salty’s Fish & Chips","phone":"(250) 380-7222","price":"$$","reviewCount":2,"reviewScore":4,"meta":{"revision":0,"created":1547531153401,"version":0},"$loki":38},{"_id":"5c3d65bd3525a329e0c00331","address":"2888 Belmont Ave","location":{"type":"Point","coordinates":[-123.37013260696,48.4431227619012]},"isApproved":true,"items":[],"keys":["Chinese"],"lastUpdated":1547527612225,"name":"East Garden Restaurant","phone":"(250) 598-1232","price":"$$","reviewCount":9,"reviewScore":2.5,"meta":{"revision":0,"created":1547531153401,"version":0},"$loki":39},{"_id":"5c3d65bd3525a329e0c18bce","address":"894 Langford Parkway","location":{"type":"Point","coordinates":[-123.3696152,48.442432]},"isApproved":true,"items":[],"keys":["Pizza"],"lastUpdated":1547527612824,"name":"Great 2 For 1 Pizza","phone":"(250) 478-2121","price":"$$","reviewCount":6,"reviewScore":3,"meta":{"revision":0,"created":1547531153401,"version":0},"$loki":40},{"_id":"5c3d65bd3525a329e0c1691f","address":"2915 Douglas Street","location":{"type":"Point","coordinates":[-123.3682455,48.4420688]},"isApproved":true,"items":[],"keys":["Breakfast & Brunch"],"lastUpdated":1547527612772,"name":"Spoons Diner","phone":"(250) 382-5111","price":"$$","reviewCount":66,"reviewScore":4,"meta":{"revision":0,"created":1547531153401,"version":0},"$loki":41},{"_id":"5c3d65bd3525a329e0c075e0","address":"456A Gorge Rd E","location":{"type":"Point","coordinates":[-123.3735885,48.4411271]},"isApproved":true,"items":[],"keys":["Cafes"],"lastUpdated":1547527612401,"name":"Tim Hortons","phone":"(250) 380-0137","price":"$","reviewCount":3,"reviewScore":2.5,"meta":{"revision":0,"created":1547531153401,"version":0},"$loki":42},{"_id":"5c3d65bd3525a329e0c0edd6","address":"2360 Beacon Avenue","location":{"type":"Point","coordinates":[-123.373370580375,48.440990807471]},"isApproved":true,"items":[],"keys":["Pizza"],"lastUpdated":1547527612582,"name":"Woodshed","phone":"(778) 426-3442","price":"$$","reviewCount":23,"reviewScore":3.5,"meta":{"revision":0,"created":1547531153401,"version":0},"$loki":43},{"_id":"5c3d65bd3525a329e0c09f93","address":"3947 Quadra St","location":{"type":"Point","coordinates":[-123.3789003,48.439778]},"isApproved":true,"items":[],"keys":["Chinese"],"lastUpdated":1547527612472,"name":"New Village Chinese Food & Fish & Chips","phone":"(250) 479-3034","price":"","reviewCount":2,"reviewScore":2.5,"meta":{"revision":0,"created":1547531153401,"version":0},"$loki":44},{"_id":"5c3d65bd3525a329e0bffdb6","address":"104 - 2940 Jutland Road","location":{"type":"Point","coordinates":[-123.3785637,48.4389779]},"isApproved":true,"items":[],"keys":["Gluten-Free","Burgers","American (Traditional)"],"lastUpdated":1547527612222,"name":"Glo Restaurant & Lounge","phone":"(250) 385-5643","price":"$$","reviewCount":48,"reviewScore":3,"meta":{"revision":0,"created":1547531153401,"version":0},"$loki":45},{"_id":"5c3d65bd3525a329e0c0d1a5","address":"2955 Jutland Road","location":{"type":"Point","coordinates":[-123.3785696,48.4393002]},"isApproved":true,"items":[],"keys":["Delis","Cafes"],"lastUpdated":1547527612545,"name":"Sol Food Cafe and Deli","phone":"(250) 381-6629","price":"$$","reviewCount":3,"reviewScore":4,"meta":{"revision":0,"created":1547531153401,"version":0},"$loki":46},{"_id":"5c3d65bd3525a329e0c10323","address":"1219 Wharf Street","location":{"type":"Point","coordinates":[-123.3734013,48.436834]},"isApproved":true,"items":[],"keys":["Pizza"],"lastUpdated":1547527612617,"name":"The Joint Pizzeria","phone":"(250) 389-2229","price":"","reviewCount":0,"reviewScore":0,"meta":{"revision":0,"created":1547531153401,"version":0},"$loki":47},{"_id":"5c3d65bd3525a329e0c0ef3b","address":"1644 Hillside Avenue","location":{"type":"Point","coordinates":[-123.3730983,48.4360786]},"isApproved":true,"items":[],"keys":["Greek","Fast Food"],"lastUpdated":1547527612584,"name":"OPA! of Greece Hillside Centre","phone":"(250) 370-7772","price":"$","reviewCount":4,"reviewScore":2.5,"meta":{"revision":0,"created":1547531153401,"version":0},"$loki":48},{"_id":"5c3d65bd3525a329e0c015fc","address":"105-2504 Government Street","location":{"type":"Point","coordinates":[-123.3677853,48.4360267]},"isApproved":true,"items":[],"keys":["Indian","Sandwiches","Delis"],"lastUpdated":1547527612250,"name":"Delhi","phone":"(250) 386-4204","price":"$","reviewCount":9,"reviewScore":4.5,"meta":{"revision":0,"created":1547531153401,"version":0},"$loki":49},{"_id":"5c3d65bd3525a329e0c04e43","address":"1950 Oak Bay Ave","location":{"type":"Point","coordinates":[-123.3658597,48.4359871]},"isApproved":true,"items":[],"keys":["Chinese"],"lastUpdated":1547527612338,"name":"Mee Wah Restaurant","phone":"(250) 595-3021","price":"","reviewCount":7,"reviewScore":3,"meta":{"revision":0,"created":1547531153401,"version":0},"$loki":50},{"_id":"5c3d65bd3525a329e0c00306","address":"2323 Millstream Rd","location":{"type":"Point","coordinates":[-123.3700931,48.4371474]},"isApproved":true,"items":[],"keys":["Gastropubs"],"lastUpdated":1547527612225,"name":"the log house pub","phone":"(250) 474-1989","price":"","reviewCount":2,"reviewScore":3.5,"meta":{"revision":0,"created":1547531153401,"version":0},"$loki":51},{"_id":"5c3d65bd3525a329e0c05a34","address":"RR 1  6661 Sooke Road","location":{"type":"Point","coordinates":[-123.3703014,48.4382675]},"isApproved":true,"items":[],"keys":["Fast Food","Burgers"],"lastUpdated":1547527612356,"name":"McDonald’s","phone":"(250) 642-1200","price":"","reviewCount":4,"reviewScore":1.5,"meta":{"revision":0,"created":1547531153401,"version":0},"$loki":52},{"_id":"5c3d65bd3525a329e0c0e9b8","address":"1208 Wharf Street","location":{"type":"Point","coordinates":[-123.3677877,48.4387558]},"isApproved":true,"items":[],"keys":["Bars","Burgers"],"lastUpdated":1547527612581,"name":"Lola’s Burger Bar","phone":"(250) 360-1808","price":"","reviewCount":1,"reviewScore":3,"meta":{"revision":0,"created":1547531153401,"version":0},"$loki":53},{"_id":"5c3d65bd3525a329e0c11f01","address":"2852 Douglas Street","location":{"type":"Point","coordinates":[-123.3684379,48.4395951]},"isApproved":true,"items":[],"keys":["Sports Bars","Lounges","Canadian (New)"],"lastUpdated":1547527612662,"name":"Shark Club Sports Bar & Grill","phone":"(778) 404-1838","price":"$$","reviewCount":12,"reviewScore":2,"meta":{"revision":0,"created":1547531153401,"version":0},"$loki":54},{"_id":"5c3d65bd3525a329e0c1a086","address":"195 Kenneth Street","location":{"type":"Point","coordinates":[-123.365291643827,48.4389062933661]},"isApproved":true,"items":[],"keys":["Cafes"],"lastUpdated":1547527612857,"name":"Arbutus Cafe","phone":"(250) 746-5443","price":"$$","reviewCount":2,"reviewScore":2.5,"meta":{"revision":0,"created":1547531153401,"version":0},"$loki":55},{"_id":"5c3d65bd3525a329e0c0dc55","address":"766 Yates St","location":{"type":"Point","coordinates":[-123.3637349,48.4386071]},"isApproved":true,"items":[],"keys":["Sushi Bars"],"lastUpdated":1547527612556,"name":"Sushi Plus Restaurant","phone":"(250) 386-3116","price":"$","reviewCount":8,"reviewScore":3.5,"meta":{"revision":0,"created":1547531153401,"version":0},"$loki":56},{"_id":"5c3d65bd3525a329e0c00b00","address":"3749 Shelbourne Street","location":{"type":"Point","coordinates":[-123.3642401,48.4381184]},"isApproved":true,"items":[],"keys":["Chinese"],"lastUpdated":1547527612230,"name":"Lin Heung Restaurant","phone":"(250) 721-1398","price":"$$","reviewCount":10,"reviewScore":3,"meta":{"revision":0,"created":1547531153401,"version":0},"$loki":57},{"_id":"5c3d65bd3525a329e0c0d003","address":"845 Goldstream Ave","location":{"type":"Point","coordinates":[-123.3631152,48.4365139]},"isApproved":true,"items":[],"keys":["Cafes"],"lastUpdated":1547527612539,"name":"Tim Hortons","phone":"(250) 478-2422","price":"$","reviewCount":2,"reviewScore":2,"meta":{"revision":0,"created":1547531153401,"version":0},"$loki":58},{"_id":"5c3d65bd3525a329e0c04b61","address":"1258 Esquimalt Rd","location":{"type":"Point","coordinates":[-123.360414,48.43953]},"isApproved":true,"items":[],"keys":["Cafes"],"lastUpdated":1547527612331,"name":"Tim Hortons","phone":"(250) 361-4629","price":"$","reviewCount":5,"reviewScore":1.5,"meta":{"revision":0,"created":1547531153401,"version":0},"$loki":59},{"_id":"5c3d65bd3525a329e0c0599b","address":"2646 Quadra Street","location":{"type":"Point","coordinates":[-123.3592418,48.4388499]},"isApproved":true,"items":[],"keys":["Caribbean","Salad","Soup"],"lastUpdated":1547527612355,"name":"Caribbean Village Cafe","phone":"(250) 381-3363","price":"$","reviewCount":5,"reviewScore":3,"meta":{"revision":0,"created":1547531153401,"version":0},"$loki":60},{"_id":"5c3d65bd3525a329e0c0c2d6","address":"2637 Quadra Street","location":{"type":"Point","coordinates":[-123.3591326,48.4388026]},"isApproved":true,"items":[],"keys":["Poutineries"],"lastUpdated":1547527612518,"name":"Poutine 66","phone":"(250) 385-5553","price":"$","reviewCount":19,"reviewScore":3.5,"meta":{"revision":0,"created":1547531153401,"version":0},"$loki":61},{"_id":"5c3d65bd3525a329e0c0f18b","address":"254 Belleville Street","location":{"type":"Point","coordinates":[-123.358963,48.438449]},"isApproved":true,"items":[],"keys":["Seafood","Food Trucks","Sandwiches"],"lastUpdated":1547527612591,"name":"Songhees Seafood & Steam","phone":"(250) 382-8100","price":"","reviewCount":0,"reviewScore":0,"meta":{"revision":0,"created":1547531153401,"version":0},"$loki":62},{"_id":"5c3d65bd3525a329e0c093bb","address":"2630 Quadra Street","location":{"type":"Point","coordinates":[-123.3591272,48.438274]},"isApproved":true,"items":[],"keys":["Vietnamese"],"lastUpdated":1547527612452,"name":"Alysa’s Pho & Banh Mi","phone":"(250) 590-2829","price":"","reviewCount":3,"reviewScore":5,"meta":{"revision":0,"created":1547531153401,"version":0},"$loki":63},{"_id":"5c3d65bd3525a329e0c132f3","address":"104 Manson Road","location":{"type":"Point","coordinates":[-123.3567196,48.4399359]},"isApproved":true,"items":[],"keys":["Burgers"],"lastUpdated":1547527612689,"name":"Burger Bar 537","phone":"(250) 537-5747","price":"$$","reviewCount":1,"reviewScore":3,"meta":{"revision":0,"created":1547531153401,"version":0},"$loki":64},{"_id":"5c3d65bd3525a329e0c093ba","address":"2955 Phipps Rd","location":{"type":"Point","coordinates":[-123.3583018,48.4397525]},"isApproved":true,"items":[],"keys":["Bars","American (Traditional)"],"lastUpdated":1547527612452,"name":"Original Joe’s","phone":"(250) 380-4910","price":"$$","reviewCount":17,"reviewScore":3,"meta":{"revision":0,"created":1547531153401,"version":0},"$loki":65},{"_id":"5c3d65bd3525a329e0c06464","address":"2709 Quadra Street","location":{"type":"Point","coordinates":[-123.3591038,48.439699]},"isApproved":true,"items":[],"keys":["Pizza"],"lastUpdated":1547527612371,"name":"San Remo Restaurant","phone":"(250) 384-5255","price":"$$","reviewCount":13,"reviewScore":2.5,"meta":{"revision":0,"created":1547531153401,"version":0},"$loki":66},{"_id":"5c3d65bd3525a329e0c0bb02","address":"1002 Hillside Ave","location":{"type":"Point","coordinates":[-123.3590385,48.4395738]},"isApproved":true,"items":[],"keys":["Delis","Sandwiches"],"lastUpdated":1547527612508,"name":"San Remo Cafe & Deli","phone":"(250) 388-9957","price":"","reviewCount":3,"reviewScore":3,"meta":{"revision":0,"created":1547531153401,"version":0},"$loki":67},{"_id":"5c3d65bd3525a329e0c14f37","address":"1019 Fort Street","location":{"type":"Point","coordinates":[-123.3590385,48.4395738]},"isApproved":true,"items":[],"keys":["Coffee & Tea","Sandwiches"],"lastUpdated":1547527612736,"name":"Picnic Too","phone":"(250) 590-1201","price":"$$","reviewCount":7,"reviewScore":4.5,"meta":{"revision":0,"created":1547531153401,"version":0},"$loki":68},{"_id":"5c3d65bd3525a329e0c0bb4c","address":"2972 Jacklin Rd","location":{"type":"Point","coordinates":[-123.370759622502,48.4440921711725]},"isApproved":true,"items":[],"keys":["Japanese"],"lastUpdated":1547527612509,"name":"Sushi Harbor Japanese Restaurant","phone":"","price":"$$","reviewCount":9,"reviewScore":2.5,"meta":{"revision":0,"created":1547531153401,"version":0},"$loki":69},{"_id":"5c3d65bd3525a329e0c094fb","address":"1800 Island Hwy","location":{"type":"Point","coordinates":[-123.3358263,48.4461325]},"isApproved":true,"items":[],"keys":["Fast Food","Burgers"],"lastUpdated":1547527612453,"name":"Wendy’s","phone":"(250) 478-7511","price":"","reviewCount":1,"reviewScore":4,"meta":{"revision":0,"created":1547531153401,"version":0},"$loki":70},{"_id":"5c3d65bd3525a329e0c15505","address":"1644 Hillside Avenue","location":{"type":"Point","coordinates":[-123.3358263,48.4461325]},"isApproved":true,"items":[],"keys":["Fast Food"],"lastUpdated":1547527612745,"name":"New York Fries","phone":"(778) 440-7771","price":"","reviewCount":0,"reviewScore":0,"meta":{"revision":0,"created":1547531153401,"version":0},"$loki":71},{"_id":"5c3d65bd3525a329e0c02a08","address":"1219 Wharf Street","location":{"type":"Point","coordinates":[-123.3358263,48.4461351]},"isApproved":true,"items":[],"keys":["Delis","Pizza"],"lastUpdated":1547527612286,"name":"The Joint Pizzaria & Deli","phone":"(250) 389-2226","price":"$$","reviewCount":79,"reviewScore":4,"meta":{"revision":0,"created":1547531153401,"version":0},"$loki":72},{"_id":"5c3d65bd3525a329e0c06f53","address":"2027 Oak Bay Avenue","location":{"type":"Point","coordinates":[-123.3358263,48.4461351]},"isApproved":true,"items":[],"keys":["Sushi Bars"],"lastUpdated":1547527612388,"name":"Kissako Sushi","phone":"(250) 370-5195","price":"$$","reviewCount":5,"reviewScore":5,"meta":{"revision":0,"created":1547531153401,"version":0},"$loki":73},{"_id":"5c3d65bd3525a329e0c0271e","address":"2244 Sooke Rd","location":{"type":"Point","coordinates":[-123.344576731324,48.4468249723715]},"isApproved":true,"items":[],"keys":["Pizza"],"lastUpdated":1547527612284,"name":"Little Caesar’s Pizza","phone":"(250) 391-0555","price":"","reviewCount":1,"reviewScore":3,"meta":{"revision":0,"created":1547531153401,"version":0},"$loki":74},{"_id":"5c3d65bd3525a329e0c14bb1","address":"740 Burdett Avenue","location":{"type":"Point","coordinates":[-123.3598175,48.4559146]},"isApproved":true,"items":[],"keys":["Wine Bars","Seafood","Breakfast & Brunch"],"lastUpdated":1547527612729,"name":"Vista 18","phone":"(250) 382-9258","price":"$$","reviewCount":75,"reviewScore":3.5,"meta":{"revision":0,"created":1547531153401,"version":0},"$loki":75},{"_id":"5c3d65bd3525a329e0c04479","address":"3960 Shelbourne Street","location":{"type":"Point","coordinates":[-123.365388,48.452717]},"isApproved":true,"items":[],"keys":["Ramen"],"lastUpdated":1547527612322,"name":"Stubborn Chef","phone":"(778) 432-3818","price":"$$","reviewCount":6,"reviewScore":3.5,"meta":{"revision":0,"created":1547531153401,"version":0},"$loki":76},{"_id":"5c3d65bd3525a329e0c09f45","address":"3189 Quadra Street","location":{"type":"Point","coordinates":[-123.361482,48.448685]},"isApproved":true,"items":[],"keys":["Vietnamese"],"lastUpdated":1547527612472,"name":"Vietnam House Restaurant","phone":"(778) 433-8181","price":"$$","reviewCount":5,"reviewScore":4,"meta":{"revision":0,"created":1547531153401,"version":0},"$loki":77},{"_id":"5c3d65bd3525a329e0c1a38a","address":"1692 Douglas Street","location":{"type":"Point","coordinates":[-123.3682287,48.4505799]},"isApproved":true,"items":[],"keys":["Chinese"],"lastUpdated":1547527612858,"name":"The Cozy Place Restaurant","phone":"(250) 382-3123","price":"$$","reviewCount":72,"reviewScore":4.5,"meta":{"revision":0,"created":1547531153401,"version":0},"$loki":78},{"_id":"5c3d65bd3525a329e0c0dfc3","address":"4676 Elk Lake Dr","location":{"type":"Point","coordinates":[-123.3686154,48.4503467]},"isApproved":true,"items":[],"keys":["Lounges","Restaurants"],"lastUpdated":1547527612564,"name":"Howard Johnson Restaurant & Lounge","phone":"(250) 658-8989","price":"$$","reviewCount":4,"reviewScore":3,"meta":{"revision":0,"created":1547531153401,"version":0},"$loki":79},{"_id":"5c3d65bd3525a329e0c02741","address":"204 - 815 Cloverdale Avenue","location":{"type":"Point","coordinates":[-123.3692772,48.449663]},"isApproved":true,"items":[],"keys":["Italian"],"lastUpdated":1547527612284,"name":"Lot 1 Pasta Bar","phone":"(778) 265-9311","price":"$$","reviewCount":40,"reviewScore":3.5,"meta":{"revision":0,"created":1547531153401,"version":0},"$loki":80},{"_id":"5c3d65bd3525a329e0c1139b","address":"199 Dallas Road","location":{"type":"Point","coordinates":[-123.3692773,48.449663]},"isApproved":true,"items":[],"keys":["Cafes","Beer, Wine & Spirits"],"lastUpdated":1547527612642,"name":"Breakwater Café","phone":"(250) 386-8080","price":"$$","reviewCount":39,"reviewScore":3.5,"meta":{"revision":0,"created":1547531153401,"version":0},"$loki":81},{"_id":"5c3d65bd3525a329e0c17dd5","address":"800 Tolmie Ave.","location":{"type":"Point","coordinates":[-123.36847340192,48.448392144027]},"isApproved":true,"items":[],"keys":["American (Traditional)","Burgers"],"lastUpdated":1547527612801,"name":"Red Robin Gourmet Burgers","phone":"(250) 386-4440","price":"$$","reviewCount":45,"reviewScore":2.5,"meta":{"revision":0,"created":1547531153401,"version":0},"$loki":82},{"_id":"5c3d65bd3525a329e0c160ff","address":"50 Burnside Road W","location":{"type":"Point","coordinates":[-123.369512557983,48.4475217268498]},"isApproved":true,"items":[],"keys":["Seafood","Fish & Chips"],"lastUpdated":1547527612762,"name":"Brady’s Fish & Chip","phone":"(250) 382-3695","price":"$$","reviewCount":8,"reviewScore":3.5,"meta":{"revision":0,"created":1547531153401,"version":0},"$loki":83},{"_id":"5c3d65bd3525a329e0c17d80","address":"2323 Bevan Ave","location":{"type":"Point","coordinates":[-123.3696272,48.4462254]},"isApproved":true,"items":[],"keys":["Ice Cream & Frozen Yogurt","Fast Food"],"lastUpdated":1547527612801,"name":"DQ Grill & Chill Restaurant","phone":"(250) 656-3339","price":"","reviewCount":2,"reviewScore":3,"meta":{"revision":0,"created":1547531153401,"version":0},"$loki":84},{"_id":"5c3d65bd3525a329e0c04889","address":"1210 Broad Street","location":{"type":"Point","coordinates":[-123.3716697,48.4460808]},"isApproved":true,"items":[],"keys":["Tapas/Small Plates","Spanish","Wine Bars"],"lastUpdated":1547527612330,"name":"Bodega","phone":"(778) 406-1210","price":"$$","reviewCount":89,"reviewScore":4.5,"meta":{"revision":0,"created":1547531153401,"version":0},"$loki":85},{"_id":"5c3d65bd3525a329e0c0cb2a","address":"3100 Douglas St","location":{"type":"Point","coordinates":[-123.371223,48.445154]},"isApproved":true,"items":[],"keys":["Breakfast & Brunch","Diners","American (Traditional)"],"lastUpdated":1547527612533,"name":"Denny’s","phone":"(250) 382-3844","price":"$$","reviewCount":19,"reviewScore":3,"meta":{"revision":0,"created":1547531153401,"version":0},"$loki":86},{"_id":"5c3d65bd3525a329e0c0e83b","address":"3749 Shelbourne Street","location":{"type":"Point","coordinates":[-123.3718397,48.447513]},"isApproved":true,"items":[],"keys":["Taiwanese","Bubble Tea"],"lastUpdated":1547527612575,"name":"Ding Tea","phone":"(778) 265-8622","price":"","reviewCount":6,"reviewScore":3,"meta":{"revision":0,"created":1547531153401,"version":0},"$loki":87},{"_id":"5c3d65bd3525a329e0c01bb2","address":"708 View Street","location":{"type":"Point","coordinates":[-123.3718397,48.4475097]},"isApproved":true,"items":[],"keys":["Japanese","Sushi Bars"],"lastUpdated":1547527612258,"name":"Itami Sushi","phone":"(250) 381-8868","price":"$$","reviewCount":33,"reviewScore":3.5,"meta":{"revision":0,"created":1547531153401,"version":0},"$loki":88},{"_id":"5c3d65bd3525a329e0c16e10","address":"3233 Douglas St","location":{"type":"Point","coordinates":[-123.3721671,48.4484582]},"isApproved":true,"items":[],"keys":["American (Traditional)","Comfort Food"],"lastUpdated":1547527612780,"name":"Swiss Chalet Rotisserie & Grill","phone":"(250) 475-0334","price":"$$","reviewCount":17,"reviewScore":2.5,"meta":{"revision":0,"created":1547531153401,"version":0},"$loki":89},{"_id":"5c3d65bd3525a329e0c1002f","address":"3 - 2353 Bevan Avenue","location":{"type":"Point","coordinates":[-123.3722283,48.4485987]},"isApproved":true,"items":[],"keys":["Pizza","Salad","Chicken Wings"],"lastUpdated":1547527612609,"name":"Panago Pizza","phone":"(866) 310-0001","price":"","reviewCount":0,"reviewScore":0,"meta":{"revision":0,"created":1547531153401,"version":0},"$loki":90},{"_id":"5c3d65bd3525a329e0c19e24","address":"3335 Douglas Street","location":{"type":"Point","coordinates":[-123.3736659,48.4506643]},"isApproved":true,"items":[],"keys":["Fast Food","Burgers"],"lastUpdated":1547527612851,"name":"A&W","phone":"(250) 475-2713","price":"$","reviewCount":4,"reviewScore":2.5,"meta":{"revision":0,"created":1547531153401,"version":0},"$loki":91},{"_id":"5c3d65bd3525a329e0c1023c","address":"425 Quebec St","location":{"type":"Point","coordinates":[-123.3754691,48.4514119]},"isApproved":true,"items":[],"keys":["American (Traditional)"],"lastUpdated":1547527612611,"name":"Jonathan’s Restaurant","phone":"(250) 383-5103","price":"$$","reviewCount":4,"reviewScore":3.5,"meta":{"revision":0,"created":1547531153401,"version":0},"$loki":92},{"_id":"5c3d65bd3525a329e0c1b2fa","address":"753 View Street","location":{"type":"Point","coordinates":[-123.3758098,48.4523089]},"isApproved":true,"items":[],"keys":["Bars","Canadian (New)"],"lastUpdated":1547527612878,"name":"Hermann’s Jazz Club","phone":"(250) 388-9166","price":"$$","reviewCount":10,"reviewScore":3.5,"meta":{"revision":0,"created":1547531153401,"version":0},"$loki":93},{"_id":"5c3d65bd3525a329e0c130c3","address":"1520 McKenzie Avenue","location":{"type":"Point","coordinates":[-123.334901193166,48.4688187356856]},"isApproved":true,"items":[],"keys":["Canadian (New)"],"lastUpdated":1547527612688,"name":"JJ Morgan Family Restaurant","phone":"(250) 721-2188","price":"","reviewCount":6,"reviewScore":3.5,"meta":{"revision":0,"created":1547531153401,"version":0},"$loki":94},{"_id":"5c3d65bd3525a329e0c0cbea","address":"1109 McKenzie Avenue","location":{"type":"Point","coordinates":[-123.333882428706,48.4691997353912]},"isApproved":true,"items":[],"keys":["Ethiopian"],"lastUpdated":1547527612533,"name":"Messob Ethiopian Cuisine","phone":"(250) 382-1501","price":"$","reviewCount":9,"reviewScore":5,"meta":{"revision":0,"created":1547531153401,"version":0},"$loki":95},{"_id":"5c3d65bd3525a329e0c0d746","address":"1467 Hampshire Road","location":{"type":"Point","coordinates":[-123.333842,48.469397]},"isApproved":true,"items":[],"keys":["Sushi Bars"],"lastUpdated":1547527612554,"name":"Bon Sushi","phone":"(250) 592-0008","price":"$$","reviewCount":8,"reviewScore":4.5,"meta":{"revision":0,"created":1547531153401,"version":0},"$loki":96},{"_id":"5c3d65bd3525a329e0c134c1","address":"3 3960 Shelbourne Street","location":{"type":"Point","coordinates":[-123.3340575,48.4699989]},"isApproved":true,"items":[],"keys":["Chinese","Seafood","Taiwanese"],"lastUpdated":1547527612690,"name":"Lee’s House Restaurant","phone":"(778) 432-2111","price":"$$","reviewCount":14,"reviewScore":3,"meta":{"revision":0,"created":1547531153401,"version":0},"$loki":97},{"_id":"5c3d65bd3525a329e0c08de6","address":"3945 Quadra Street","location":{"type":"Point","coordinates":[-123.3330092,48.4720267]},"isApproved":true,"items":[],"keys":["Pizza"],"lastUpdated":1547527612437,"name":"Athena’s Place","phone":"(250) 595-6000","price":"$$","reviewCount":11,"reviewScore":3.5,"meta":{"revision":0,"created":1547531153401,"version":0},"$loki":98},{"_id":"5c3d65bd3525a329e0c06116","address":"1638 Mckenzie Avenue, Suite 1","location":{"type":"Point","coordinates":[-123.330262542102,48.468592845118]},"isApproved":true,"items":[],"keys":["Mexican"],"lastUpdated":1547527612368,"name":"Mucho Burrito","phone":"","price":"$$","reviewCount":8,"reviewScore":3.5,"meta":{"revision":0,"created":1547531153401,"version":0},"$loki":99},{"_id":"5c3d65bd3525a329e0c1832c","address":"1654 McKenzie Ave","location":{"type":"Point","coordinates":[-123.330915479455,48.4686847778246]},"isApproved":true,"items":[],"keys":["Bars","American (Traditional)"],"lastUpdated":1547527612814,"name":"Original Joe’s","phone":"(778) 265-5225","price":"$$","reviewCount":21,"reviewScore":3,"meta":{"revision":0,"created":1547531153401,"version":0},"$loki":100},{"_id":"5c3d65bd3525a329e0c096ef","address":"1640 Cedar Hill Road","location":{"type":"Point","coordinates":[-123.33106,48.460626]},"isApproved":true,"items":[],"keys":["Chinese"],"lastUpdated":1547527612454,"name":"Heart of Asia","phone":"(778) 432-3700","price":"$$","reviewCount":2,"reviewScore":3,"meta":{"revision":0,"created":1547531153401,"version":0},"$loki":101},{"_id":"5c3d65bd3525a329e0c19a91","address":"1113 Blanshard St","location":{"type":"Point","coordinates":[-123.33335997626,48.461060018918]},"isApproved":true,"items":[],"keys":["Japanese","Sushi Bars"],"lastUpdated":1547527612849,"name":"Shiki Sushi","phone":"(250) 381-8622","price":"$$","reviewCount":35,"reviewScore":2.5,"meta":{"revision":0,"created":1547531153401,"version":0},"$loki":102},{"_id":"5c3d65bd3525a329e0c04364","address":"3749 Shelbourne Street","location":{"type":"Point","coordinates":[-123.3321648,48.461276]},"isApproved":true,"items":[],"keys":["Vietnamese"],"lastUpdated":1547527612321,"name":"Phonomenal Vietnamese Cafe","phone":"(778) 430-5688","price":"$$","reviewCount":11,"reviewScore":3.5,"meta":{"revision":0,"created":1547531153401,"version":0},"$loki":103},{"_id":"5c3d65bd3525a329e0c144d1","address":"1209 Douglas Street","location":{"type":"Point","coordinates":[-123.3321648,48.461276]},"isApproved":true,"items":[],"keys":["Burgers","Chicken Wings"],"lastUpdated":1547527612714,"name":"Fatburger","phone":"(250) 590-4142","price":"$$","reviewCount":19,"reviewScore":3,"meta":{"revision":0,"created":1547531153401,"version":0},"$loki":104},{"_id":"5c3d65bd3525a329e0c06ca8","address":"853 Caledonia Avenue","location":{"type":"Point","coordinates":[-123.331474,48.460908]},"isApproved":true,"items":[],"keys":["Chinese"],"lastUpdated":1547527612386,"name":"Szechuan Restaurant","phone":"(250) 384-0224","price":"","reviewCount":7,"reviewScore":3,"meta":{"revision":0,"created":1547531153401,"version":0},"$loki":105},{"_id":"5c3d65bd3525a329e0c16104","address":"2945 Jacklin Road","location":{"type":"Point","coordinates":[-123.3319583,48.4614877]},"isApproved":true,"items":[],"keys":["Fast Food","Burgers"],"lastUpdated":1547527612762,"name":"A&W","phone":"(250) 391-9516","price":"","reviewCount":1,"reviewScore":4,"meta":{"revision":0,"created":1547531153401,"version":0},"$loki":106},{"_id":"5c3d65bd3525a329e0c0b770","address":"Ingram Street","location":{"type":"Point","coordinates":[-123.3320443,48.4616978]},"isApproved":true,"items":[],"keys":["Food Trucks","Mexican"],"lastUpdated":1547527612505,"name":"Mexican Food Mafia","phone":"(250) 732-8993","price":"","reviewCount":0,"reviewScore":0,"meta":{"revision":0,"created":1547531153401,"version":0},"$loki":107},{"_id":"5c3d65bd3525a329e0c04cec","address":"138 - 1551 Cedar Hill Cross Road","location":{"type":"Point","coordinates":[-123.3340545,48.4614416]},"isApproved":true,"items":[],"keys":["Chinese","Buffets"],"lastUpdated":1547527612338,"name":"Purple Garden Chinese Restaurant","phone":"(250) 477-8866","price":"$$","reviewCount":19,"reviewScore":2.5,"meta":{"revision":0,"created":1547531153401,"version":0},"$loki":108},{"_id":"5c3d65bd3525a329e0c12693","address":"809 Craigflower Road","location":{"type":"Point","coordinates":[-123.334275618902,48.4613598027103]},"isApproved":true,"items":[],"keys":["Thai"],"lastUpdated":1547527612671,"name":"Thai Green Elephant Restaurant","phone":"(778) 433-7172","price":"$$","reviewCount":23,"reviewScore":4,"meta":{"revision":0,"created":1547531153401,"version":0},"$loki":109},{"_id":"5c3d65bd3525a329e0c179a9","address":"108-1595 Mckenzie Avenue","location":{"type":"Point","coordinates":[-123.3339788,48.4681684]},"isApproved":true,"items":[],"keys":["Sushi Bars","Asian Fusion"],"lastUpdated":1547527612792,"name":"Togo Sushi Langford","phone":"(250) 721-2063","price":"","reviewCount":3,"reviewScore":3.5,"meta":{"revision":0,"created":1547531153401,"version":0},"$loki":110},{"_id":"5c3d65bd3525a329e0c00312","address":"3749 Shelbourne Street","location":{"type":"Point","coordinates":[-123.3348886,48.4613391]},"isApproved":true,"items":[],"keys":["Asian Fusion","Noodles"],"lastUpdated":1547527612225,"name":"Noodlebox","phone":"(778) 265-6969","price":"$$","reviewCount":8,"reviewScore":3,"meta":{"revision":0,"created":1547531153401,"version":0},"$loki":111},{"_id":"5c3d65bd3525a329e0c195db","address":"2310 Beacon Avenue W","location":{"type":"Point","coordinates":[-123.3331712,48.4599908]},"isApproved":true,"items":[],"keys":["Organic Stores","Delis","Grocery"],"lastUpdated":1547527612841,"name":"Mother Nature’s Market & Deli","phone":"(778) 351-0506","price":"$$","reviewCount":2,"reviewScore":5,"meta":{"revision":0,"created":1547531153401,"version":0},"$loki":112},{"_id":"5c3d65bd3525a329e0c05cb7","address":"3690 Shelbourne St","location":{"type":"Point","coordinates":[-123.3333289,48.4599331]},"isApproved":true,"items":[],"keys":["Breakfast & Brunch","Cafes"],"lastUpdated":1547527612357,"name":"The Urban Cup Bakery Cafe","phone":"(250) 477-7741","price":"$","reviewCount":16,"reviewScore":4.5,"meta":{"revision":0,"created":1547531153401,"version":0},"$loki":113},{"_id":"5c3d65bd3525a329e0c005eb","address":"3613 Shelbourne Street","location":{"type":"Point","coordinates":[-123.3323554,48.4590379]},"isApproved":true,"items":[],"keys":["Thai","Imported Food"],"lastUpdated":1547527612227,"name":"Little Thai Place","phone":"(250) 477-8668","price":"$$","reviewCount":18,"reviewScore":3,"meta":{"revision":0,"created":1547531153401,"version":0},"$loki":114},{"_id":"5c3d65bd3525a329e0c0b82b","address":"123 Gorge Road E","location":{"type":"Point","coordinates":[-123.3332385,48.4593966]},"isApproved":true,"items":[],"keys":["Breakfast & Brunch","Sandwiches","Burgers"],"lastUpdated":1547527612506,"name":"Crows Restaurant","phone":"(778) 265-2762","price":"$$","reviewCount":9,"reviewScore":3.5,"meta":{"revision":0,"created":1547531153401,"version":0},"$loki":115},{"_id":"5c3d65bd3525a329e0c16737","address":"600 Courtney St","location":{"type":"Point","coordinates":[-123.333478796058,48.4596463126447]},"isApproved":true,"items":[],"keys":["Sandwiches"],"lastUpdated":1547527612766,"name":"The Bun Shop","phone":"(250) 385-3511","price":"$","reviewCount":1,"reviewScore":5,"meta":{"revision":0,"created":1547531153401,"version":0},"$loki":116},{"_id":"5c3d65bd3525a329e0c16cc6","address":"171 Canada Avene","location":{"type":"Point","coordinates":[-123.3323104,48.4582574]},"isApproved":true,"items":[],"keys":["Coffee & Tea","Vegetarian","Bakeries"],"lastUpdated":1547527612774,"name":"Cafe La Vie","phone":"(250) 597-8168","price":"","reviewCount":2,"reviewScore":4.5,"meta":{"revision":0,"created":1547531153401,"version":0},"$loki":117},{"_id":"5c3d65bd3525a329e0c0c014","address":"746 Goldstream Ave","location":{"type":"Point","coordinates":[-123.3330754,48.458546]},"isApproved":true,"items":[],"keys":["Chinese"],"lastUpdated":1547527612516,"name":"Fu Wah Express Chinese Foods","phone":"(250) 474-7693","price":"$$","reviewCount":3,"reviewScore":3.5,"meta":{"revision":0,"created":1547531153401,"version":0},"$loki":118},{"_id":"5c3d65bd3525a329e0c13158","address":"1652 Mcrae Avenue","location":{"type":"Point","coordinates":[-123.3328673,48.4507557]},"isApproved":true,"items":[],"keys":["American (Traditional)","Pubs","Breakfast & Brunch"],"lastUpdated":1547527612688,"name":"McRae’s","phone":"(250) 590-6944","price":"$$","reviewCount":22,"reviewScore":3.5,"meta":{"revision":0,"created":1547531153401,"version":0},"$loki":119},{"_id":"5c3d65bd3525a329e0c176c5","address":"1525 Pandora Avenue","location":{"type":"Point","coordinates":[-123.3217351,48.4414819]},"isApproved":true,"items":[],"keys":["Breakfast & Brunch"],"lastUpdated":1547527612791,"name":"Rocky Mountain Muffin Company","phone":"(250) 384-3839","price":"","reviewCount":1,"reviewScore":5,"meta":{"revision":0,"created":1547531153401,"version":0},"$loki":120},{"_id":"5c3d65bd3525a329e0c09143","address":"2524 Estevan Avenue","location":{"type":"Point","coordinates":[-123.307705,48.437638]},"isApproved":true,"items":[],"keys":["Italian","Mediterranean"],"lastUpdated":1547527612446,"name":"Padella Kitchen+Wine","phone":"(250) 592-7424","price":"$$$","reviewCount":19,"reviewScore":4.5,"meta":{"revision":0,"created":1547531153401,"version":0},"$loki":121},{"_id":"5c3d65bd3525a329e0c011b6","address":"114 - 800 Kelly Road","location":{"type":"Point","coordinates":[-123.307991366765,48.4377202079793]},"isApproved":true,"items":[],"keys":["Pizza","Salad","Chicken Wings"],"lastUpdated":1547527612239,"name":"Panago Pizza","phone":"(866) 310-0001","price":"","reviewCount":0,"reviewScore":0,"meta":{"revision":0,"created":1547531153401,"version":0},"$loki":122},{"_id":"5c3d65bd3525a329e0c187a8","address":"239 Menzies Street","location":{"type":"Point","coordinates":[-123.307837,48.437783]},"isApproved":true,"items":[],"keys":["Sushi Bars","Japanese","Seafood"],"lastUpdated":1547527612821,"name":"Sushi Matsuri","phone":"(250) 590-8110","price":"$$","reviewCount":15,"reviewScore":4.5,"meta":{"revision":0,"created":1547531153401,"version":0},"$loki":123},{"_id":"5c3d65bd3525a329e0c02624","address":"2510 Estevan Ave","location":{"type":"Point","coordinates":[-123.307936,48.437763]},"isApproved":true,"items":[],"keys":["Chinese"],"lastUpdated":1547527612284,"name":"Mr.hotpot","phone":"(778) 265-8882","price":"","reviewCount":1,"reviewScore":1,"meta":{"revision":0,"created":1547531153401,"version":0},"$loki":124},{"_id":"5c3d65bd3525a329e0c0385b","address":"1950 Foul Bay Road","location":{"type":"Point","coordinates":[-123.3127001,48.4376795]},"isApproved":true,"items":[],"keys":["Coffee & Tea","Breakfast & Brunch","Sandwiches"],"lastUpdated":1547527612304,"name":"Tim Hortons","phone":"(250) 370-1669","price":"","reviewCount":3,"reviewScore":4.5,"meta":{"revision":0,"created":1547531153401,"version":0},"$loki":125},{"_id":"5c3d65bd3525a329e0c132d4","address":"533 Yates Street","location":{"type":"Point","coordinates":[-123.3127617,48.4380452]},"isApproved":true,"items":[],"keys":["Burgers","Cocktail Bars","Sandwiches"],"lastUpdated":1547527612689,"name":"The Victoria Warehouse - El Furniture","phone":"(778) 265-9575","price":"$","reviewCount":31,"reviewScore":3.5,"meta":{"revision":0,"created":1547531153401,"version":0},"$loki":126},{"_id":"5c3d65bd3525a329e0c10978","address":"5-2540 Sturdies Bay Road","location":{"type":"Point","coordinates":[-123.3071212,48.4371324]},"isApproved":true,"items":[],"keys":["Bakeries","Cafes"],"lastUpdated":1547527612625,"name":"Sturdies Bay Bakery & Cafe","phone":"(250) 539-2004","price":"$","reviewCount":10,"reviewScore":3.5,"meta":{"revision":0,"created":1547531153401,"version":0},"$loki":127},{"_id":"5c3d65bd3525a329e0c0829e","address":"1640 Electra Boulevard","location":{"type":"Point","coordinates":[-123.3032816,48.4236323]},"isApproved":true,"items":[],"keys":["Cafes","Gastropubs"],"lastUpdated":1547527612420,"name":"Spinnaker’s On the Fly","phone":"(250) 386-2739","price":"$$","reviewCount":17,"reviewScore":2.5,"meta":{"revision":0,"created":1547531153401,"version":0},"$loki":128},{"_id":"5c3d65bd3525a329e0c0f95a","address":"101 Trans-Canada Highway","location":{"type":"Point","coordinates":[-123.3135541,48.4267382]},"isApproved":true,"items":[],"keys":["Desserts","Gluten-Free","Breakfast & Brunch"],"lastUpdated":1547527612600,"name":"White Spot","phone":"(250) 748-5151","price":"","reviewCount":4,"reviewScore":3,"meta":{"revision":0,"created":1547531153401,"version":0},"$loki":129},{"_id":"5c3d65bd3525a329e0c11ae6","address":"7816 East Saanich Road","location":{"type":"Point","coordinates":[-123.3149399,48.4265207]},"isApproved":true,"items":[],"keys":["Restaurants"],"lastUpdated":1547527612652,"name":"Rnr Diner","phone":"(250) 652-9966","price":"","reviewCount":5,"reviewScore":3.5,"meta":{"revision":0,"created":1547531153401,"version":0},"$loki":130},{"_id":"5c3d65bd3525a329e0c10437","address":"110-4480 West Saanich Road","location":{"type":"Point","coordinates":[-123.314286612206,48.4265823764093]},"isApproved":true,"items":[],"keys":["Thai"],"lastUpdated":1547527612618,"name":"Little Thai Place","phone":"(250) 477-3377","price":"$$","reviewCount":7,"reviewScore":4,"meta":{"revision":0,"created":1547531153401,"version":0},"$loki":131},{"_id":"5c3d65bd3525a329e0c0252e","address":"760 Pandora Avenue","location":{"type":"Point","coordinates":[-123.315695,48.426106]},"isApproved":true,"items":[],"keys":["Mexican","Japanese","Indonesian"],"lastUpdated":1547527612278,"name":"Dobosala Cantina & Ride Thru","phone":"(250) 590-6068","price":"","reviewCount":5,"reviewScore":4.5,"meta":{"revision":0,"created":1547531153401,"version":0},"$loki":132},{"_id":"5c3d65bd3525a329e0c06699","address":"17245 Parkinson","location":{"type":"Point","coordinates":[-123.3164564,48.4263388]},"isApproved":true,"items":[],"keys":["Seafood","Burgers"],"lastUpdated":1547527612378,"name":"Coastal Kitchen Cafe - Temp. CLOSED","phone":"(250) 647-5545","price":"$$","reviewCount":21,"reviewScore":4.5,"meta":{"revision":0,"created":1547531153401,"version":0},"$loki":133},{"_id":"5c3d65bd3525a329e0c11406","address":"852 Fort Street","location":{"type":"Point","coordinates":[-123.320080118682,48.4266286323202]},"isApproved":true,"items":[],"keys":["Indian"],"lastUpdated":1547527612643,"name":"The Spice Jammer","phone":"(250) 480-1055","price":"$$","reviewCount":30,"reviewScore":3.5,"meta":{"revision":0,"created":1547531153401,"version":0},"$loki":134},{"_id":"5c3d65bd3525a329e0c02981","address":"31 Erie Street","location":{"type":"Point","coordinates":[-123.321754485369,48.4264525219189]},"isApproved":true,"items":[],"keys":["Cafes"],"lastUpdated":1547527612285,"name":"Imagine Studio Café","phone":"(250) 812-7651","price":"$$$","reviewCount":12,"reviewScore":4,"meta":{"revision":0,"created":1547531153401,"version":0},"$loki":135},{"_id":"5c3d65bd3525a329e0c168e3","address":"1548 Fort Street","location":{"type":"Point","coordinates":[-123.3215927,48.426319]},"isApproved":true,"items":[],"keys":["Cafes"],"lastUpdated":1547527612772,"name":"Shine Cafe","phone":"(250) 595-2133","price":"$$","reviewCount":43,"reviewScore":4,"meta":{"revision":0,"created":1547531153401,"version":0},"$loki":136},{"_id":"5c3d65bd3525a329e0c10188","address":"2032 Oak Bay Avenue","location":{"type":"Point","coordinates":[-123.3213982,48.4266013]},"isApproved":true,"items":[],"keys":["Delis","Meat Shops","Butcher"],"lastUpdated":1547527612610,"name":"The Village Butcher","phone":"(250) 598-1115","price":"$$","reviewCount":9,"reviewScore":4,"meta":{"revision":0,"created":1547531153401,"version":0},"$loki":137},{"_id":"5c3d65bd3525a329e0c12ad3","address":"2024 Oak Bay Avenue","location":{"type":"Point","coordinates":[-123.3215838,48.4267462]},"isApproved":true,"items":[],"keys":["Seafood"],"lastUpdated":1547527612680,"name":"Oak Bay Seafood","phone":"(778) 432-0227","price":"","reviewCount":4,"reviewScore":3.5,"meta":{"revision":0,"created":1547531153401,"version":0},"$loki":138},{"_id":"5c3d65bd3525a329e0c0028d","address":"2006 Oak Bay Avenue","location":{"type":"Point","coordinates":[-123.3223188,48.4265957]},"isApproved":true,"items":[],"keys":["Diners"],"lastUpdated":1547527612225,"name":"Blighty’s Bistro","phone":"(250) 592-5111","price":"$$","reviewCount":30,"reviewScore":4.5,"meta":{"revision":0,"created":1547531153401,"version":0},"$loki":139},{"_id":"5c3d65bd3525a329e0c1b65e","address":"1525 Pandora Avenue","location":{"type":"Point","coordinates":[-123.3237108,48.4261394]},"isApproved":true,"items":[],"keys":["Bakeries","Gluten-Free"],"lastUpdated":1547527612886,"name":"Origin Gluten-free Bakery","phone":"(250) 590-4149","price":"$$","reviewCount":14,"reviewScore":4,"meta":{"revision":0,"created":1547531153401,"version":0},"$loki":140},{"_id":"5c3d65bd3525a329e0c05c4a","address":"777 Fort Street","location":{"type":"Point","coordinates":[-123.3070594,48.4234766]},"isApproved":true,"items":[],"keys":["Cafes"],"lastUpdated":1547527612356,"name":"Ground Control Cafe","phone":"(250) 483-2844","price":"","reviewCount":2,"reviewScore":4,"meta":{"revision":0,"created":1547531153401,"version":0},"$loki":141},{"_id":"5c3d65bd3525a329e0bff673","address":"1175 Beach Drive","location":{"type":"Point","coordinates":[-123.299687476674,48.4198392317864]},"isApproved":true,"items":[],"keys":["Cafes"],"lastUpdated":1547527612217,"name":"Kates Cafe","phone":"(250) 598-4556","price":"$","reviewCount":4,"reviewScore":4,"meta":{"revision":0,"created":1547531153401,"version":0},"$loki":142},{"_id":"5c3d65bd3525a329e0c0c237","address":"1200-1280 Trans-Canada Highway","location":{"type":"Point","coordinates":[-123.3020992,48.4117294]},"isApproved":true,"items":[],"keys":["Burgers"],"lastUpdated":1547527612517,"name":"Fat Burger","phone":"","price":"$$","reviewCount":7,"reviewScore":3.5,"meta":{"revision":0,"created":1547531153401,"version":0},"$loki":143},{"_id":"5c3d65bd3525a329e0c128ea","address":"1110 Beach Drive","location":{"type":"Point","coordinates":[-123.33853,48.4260711]},"isApproved":true,"items":[],"keys":["Canadian (New)","Pubs"],"lastUpdated":1547527612679,"name":"Macan’s Pub & Restaurant","phone":"(250) 598-4321","price":"","reviewCount":0,"reviewScore":0,"meta":{"revision":0,"created":1547531153401,"version":0},"$loki":144},{"_id":"5c3d65bd3525a329e0c199cd","address":"9801 Spalding Road","location":{"type":"Point","coordinates":[-123.3391619,48.4260254]},"isApproved":true,"items":[],"keys":["Cafes"],"lastUpdated":1547527612843,"name":"Moorings Cafe","phone":"","price":"","reviewCount":2,"reviewScore":1.5,"meta":{"revision":0,"created":1547531153401,"version":0},"$loki":145},{"_id":"5c3d65bd3525a329e0c18ee6","address":"1327 Beach Drive","location":{"type":"Point","coordinates":[-123.3389186,48.425991]},"isApproved":true,"items":[],"keys":["Sushi Bars","Seafood","Bars"],"lastUpdated":1547527612831,"name":"Marina Restaurant","phone":"(250) 598-8555","price":"$$$","reviewCount":33,"reviewScore":3.5,"meta":{"revision":0,"created":1547531153401,"version":0},"$loki":146},{"_id":"5c3d65bd3525a329e0c048be","address":"2476 Mt. Newton X Rd","location":{"type":"Point","coordinates":[-123.3393823,48.4263897]},"isApproved":true,"items":[],"keys":["American (Traditional)"],"lastUpdated":1547527612330,"name":"Waddling Dog Bar & Grill","phone":"(250) 652-1146","price":"$$","reviewCount":8,"reviewScore":3.5,"meta":{"revision":0,"created":1547531153401,"version":0},"$loki":147},{"_id":"5c3d65bd3525a329e0c063a3","address":"2720 Mill Bay Rd","location":{"type":"Point","coordinates":[-123.3449193,48.4303865]},"isApproved":true,"items":[],"keys":["French"],"lastUpdated":1547527612370,"name":"Catrina’s Grill","phone":"(250) 743-7277","price":"","reviewCount":1,"reviewScore":1,"meta":{"revision":0,"created":1547531153401,"version":0},"$loki":148},{"_id":"5c3d65bd3525a329e0c1787a","address":"1302 Gladstone Avenue","location":{"type":"Point","coordinates":[-123.344912,48.430616]},"isApproved":true,"items":[],"keys":["Bars","Breakfast & Brunch","Gastropubs"],"lastUpdated":1547527612792,"name":"The Fernwood Inn","phone":"(250) 412-2001","price":"$$","reviewCount":29,"reviewScore":3.5,"meta":{"revision":0,"created":1547531153401,"version":0},"$loki":149},{"_id":"5c3d65bd3525a329e0c048c5","address":"248 Trans Canada Highway","location":{"type":"Point","coordinates":[-123.3453841,48.4305589]},"isApproved":true,"items":[],"keys":["Sushi Bars"],"lastUpdated":1547527612330,"name":"One More Sushi","phone":"(250) 597-0077","price":"$$","reviewCount":10,"reviewScore":3,"meta":{"revision":0,"created":1547531153401,"version":0},"$loki":150},{"_id":"5c3d65bd3525a329e0c16304","address":"306 Burnside Rd W","location":{"type":"Point","coordinates":[-123.3453841,48.4305589]},"isApproved":true,"items":[],"keys":["Chinese"],"lastUpdated":1547527612763,"name":"Szechuan Palace Restaurant","phone":"(250) 382-2823","price":"$","reviewCount":3,"reviewScore":3,"meta":{"revision":0,"created":1547531153401,"version":0},"$loki":151},{"_id":"5c3d65bd3525a329e0c15524","address":"564 Fisgard Street","location":{"type":"Point","coordinates":[-123.3450504,48.4308575]},"isApproved":true,"items":[],"keys":["Chinese","Japanese"],"lastUpdated":1547527612745,"name":"I Kyu Noodles","phone":"(250) 388-7828","price":"$$","reviewCount":85,"reviewScore":3.5,"meta":{"revision":0,"created":1547531153401,"version":0},"$loki":152},{"_id":"5c3d65bd3525a329e0c082c3","address":"1739 Fort Street","location":{"type":"Point","coordinates":[-123.3315803,48.4286744]},"isApproved":true,"items":[],"keys":["Gastropubs","Pubs"],"lastUpdated":1547527612420,"name":"Christie’s Carriage House Pub","phone":"(250) 598-5333","price":"$$","reviewCount":24,"reviewScore":3.5,"meta":{"revision":0,"created":1547531153401,"version":0},"$loki":153},{"_id":"5c3d65bd3525a329e0c0917a","address":"1871 Oak Bay Ave","location":{"type":"Point","coordinates":[-123.3265609,48.4262826]},"isApproved":true,"items":[],"keys":["Restaurants"],"lastUpdated":1547527612446,"name":"Chez Michel Restaurant","phone":"(250) 598-2015","price":"$$$","reviewCount":5,"reviewScore":4,"meta":{"revision":0,"created":1547531153401,"version":0},"$loki":154},{"_id":"5c3d65bd3525a329e0c03e41","address":"556 Pandora Avenue","location":{"type":"Point","coordinates":[-123.3250581,48.426317]},"isApproved":true,"items":[],"keys":["Vegan","Vegetarian","Gluten-Free"],"lastUpdated":1547527612313,"name":"Cafe Bliss","phone":"(250) 590-5733","price":"$$","reviewCount":40,"reviewScore":4.5,"meta":{"revision":0,"created":1547531153401,"version":0},"$loki":155},{"_id":"5c3d65bd3525a329e0c04593","address":"2401G Millstream Road","location":{"type":"Point","coordinates":[-123.324112,48.426671]},"isApproved":true,"items":[],"keys":["Thai"],"lastUpdated":1547527612328,"name":"Mango Thai Restaurant","phone":"(250) 590-9038","price":"","reviewCount":0,"reviewScore":0,"meta":{"revision":0,"created":1547531153401,"version":0},"$loki":156},{"_id":"5c3d65bd3525a329e0c1a946","address":"1316 Broad Street","location":{"type":"Point","coordinates":[-123.324112,48.426671]},"isApproved":true,"items":[],"keys":["Seafood","Fish & Chips"],"lastUpdated":1547527612867,"name":"The Old Vic Fish & Chips","phone":"(250) 383-4536","price":"$$","reviewCount":36,"reviewScore":3,"meta":{"revision":0,"created":1547531153401,"version":0},"$loki":157},{"_id":"5c3d65bd3525a329e0c0fea7","address":"1706 Government Street","location":{"type":"Point","coordinates":[-123.329767040655,48.4295464000989]},"isApproved":true,"items":[],"keys":["Japanese","Sushi Bars"],"lastUpdated":1547527612609,"name":"Shizen Sushi Japanese Restaurant","phone":"(250) 381-8228","price":"$$","reviewCount":35,"reviewScore":3.5,"meta":{"revision":0,"created":1547531153401,"version":0},"$loki":158},{"_id":"5c3d65bd3525a329e0c182fe","address":"893 Fort Street","location":{"type":"Point","coordinates":[-123.326955,48.4308861]},"isApproved":true,"items":[],"keys":["Thai","Seafood","Vegetarian"],"lastUpdated":1547527612813,"name":"Sookjai Thai Restaurant","phone":"(250) 383-9945","price":"$$","reviewCount":31,"reviewScore":4,"meta":{"revision":0,"created":1547531153401,"version":0},"$loki":159},{"_id":"5c3d65bd3525a329e0c03530","address":"768 Goldstream Avenue","location":{"type":"Point","coordinates":[-123.3270645,48.4308913]},"isApproved":true,"items":[],"keys":["Mexican"],"lastUpdated":1547527612303,"name":"La Taquisa","phone":"(250) 590-0115","price":"$$$","reviewCount":8,"reviewScore":3,"meta":{"revision":0,"created":1547531153401,"version":0},"$loki":160},{"_id":"5c3d65bd3525a329e0bffb39","address":"4144 Wilkinson Road","location":{"type":"Point","coordinates":[-123.321338,48.43264]},"isApproved":true,"items":[],"keys":["Pizza","Salad","Chicken Wings"],"lastUpdated":1547527612220,"name":"Pizazz Pizza","phone":"(250) 479-2021","price":"","reviewCount":3,"reviewScore":3.5,"meta":{"revision":0,"created":1547531153401,"version":0},"$loki":161},{"_id":"5c3d65bd3525a329e0c15183","address":"1933 Oak Bay Avenue","location":{"type":"Point","coordinates":[-123.321551504698,48.4326070391175]},"isApproved":true,"items":[],"keys":["Butcher","Sandwiches","Delis"],"lastUpdated":1547527612737,"name":"Red Barn Market","phone":"(250) 592-0424","price":"$$","reviewCount":5,"reviewScore":4.5,"meta":{"revision":0,"created":1547531153401,"version":0},"$loki":162},{"_id":"5c3d65bd3525a329e0c00c79","address":"538 Yates St","location":{"type":"Point","coordinates":[-123.3227449,48.4324514]},"isApproved":true,"items":[],"keys":["American (Traditional)","Burgers"],"lastUpdated":1547527612231,"name":"Chuck’s Burger Bar","phone":"(250) 590-9866","price":"","reviewCount":2,"reviewScore":2,"meta":{"revision":0,"created":1547531153401,"version":0},"$loki":163},{"_id":"5c3d65bd3525a329e0c19a6f","address":"239 Menzies Street","location":{"type":"Point","coordinates":[-123.3227449,48.4324514]},"isApproved":true,"items":[],"keys":["Sandwiches","Fast Food"],"lastUpdated":1547527612849,"name":"Subway","phone":"(250) 480-7724","price":"","reviewCount":1,"reviewScore":5,"meta":{"revision":0,"created":1547531153401,"version":0},"$loki":164},{"_id":"5c3d65bd3525a329e0c11075","address":"2009 Cadboro Bay Rd","location":{"type":"Point","coordinates":[-123.3220144,48.431919]},"isApproved":true,"items":[],"keys":["Caterers","Delis","Personal Chefs"],"lastUpdated":1547527612640,"name":"Cheryl’s Gourmet Pantry","phone":"(250) 595-3212","price":"","reviewCount":3,"reviewScore":3,"meta":{"revision":0,"created":1547531153401,"version":0},"$loki":165},{"_id":"5c3d65bd3525a329e0c12e63","address":"2899 Sooke Lake Rd","location":{"type":"Point","coordinates":[-123.323520041944,48.4308719631524]},"isApproved":true,"items":[],"keys":["Pizza"],"lastUpdated":1547527612681,"name":"Cappelli’s Pizza","phone":"(250) 474-7870","price":"","reviewCount":1,"reviewScore":1,"meta":{"revision":0,"created":1547531153401,"version":0},"$loki":166},{"_id":"5c3d65bd3525a329e0c0e5a3","address":"336 Lower Ganges Road","location":{"type":"Point","coordinates":[-123.335971,48.4343379]},"isApproved":true,"items":[],"keys":["Chinese"],"lastUpdated":1547527612573,"name":"Golden Island","phone":"(250) 537-2535","price":"$$","reviewCount":10,"reviewScore":3,"meta":{"revision":0,"created":1547531153401,"version":0},"$loki":167},{"_id":"5c3d65bd3525a329e0c0c575","address":"823 Bay Street","location":{"type":"Point","coordinates":[-123.3345379,48.4451643]},"isApproved":true,"items":[],"keys":["Chinese","Noodles"],"lastUpdated":1547527612524,"name":"John’s Noodle Village","phone":"(250) 978-9328","price":"$$","reviewCount":23,"reviewScore":3.5,"meta":{"revision":0,"created":1547531153401,"version":0},"$loki":168},{"_id":"5c3d65bd3525a329e0c0a383","address":"1990 Fort Street","location":{"type":"Point","coordinates":[-123.3369174,48.4440068]},"isApproved":true,"items":[],"keys":["Pizza"],"lastUpdated":1547527612474,"name":"Pizzeria Prima Strada","phone":"(250) 590-8599","price":"$$","reviewCount":13,"reviewScore":3,"meta":{"revision":0,"created":1547531153401,"version":0},"$loki":169},{"_id":"5c3d65bd3525a329e0c0d7b7","address":"736 View Street","location":{"type":"Point","coordinates":[-123.3392615,48.4420079]},"isApproved":true,"items":[],"keys":["Soup","Coffee & Tea","Breakfast & Brunch"],"lastUpdated":1547527612554,"name":"Soupa cafe","phone":"(250) 380-0856","price":"$","reviewCount":3,"reviewScore":4.5,"meta":{"revision":0,"created":1547531153401,"version":0},"$loki":170},{"_id":"5c3d65bd3525a329e0c0325e","address":"1619 store street","location":{"type":"Point","coordinates":[-123.3503522,48.4362137]},"isApproved":true,"items":[],"keys":["Sushi Bars"],"lastUpdated":1547527612296,"name":"Grace Sushi","phone":"(778) 265-9759","price":"$$","reviewCount":38,"reviewScore":4,"meta":{"revision":0,"created":1547531153401,"version":0},"$loki":171},{"_id":"5c3d65bd3525a329e0c156ad","address":"343 Front St","location":{"type":"Point","coordinates":[-123.3589585,48.4371902]},"isApproved":true,"items":[],"keys":["American (Traditional)","Pizza"],"lastUpdated":1547527612746,"name":"By the Bay Cafe - Temp. CLOSED","phone":"(360) 963-2998","price":"$$","reviewCount":29,"reviewScore":4,"meta":{"revision":0,"created":1547531153401,"version":0},"$loki":172},{"_id":"5c3d65bd3525a329e0c071ca","address":"1420 Quadra Street","location":{"type":"Point","coordinates":[-123.3631937,48.4358746]},"isApproved":true,"items":[],"keys":["Pizza"],"lastUpdated":1547527612398,"name":"Domino’s Pizza","phone":"(250) 405-2848","price":"","reviewCount":8,"reviewScore":3.5,"meta":{"revision":0,"created":1547531153401,"version":0},"$loki":173},{"_id":"5c3d65bd3525a329e0c0133e","address":"134 McPhillips Avenue","location":{"type":"Point","coordinates":[-123.361368,48.4351437]},"isApproved":true,"items":[],"keys":["Cafes"],"lastUpdated":1547527612248,"name":"Harvest Kitchen Cafe","phone":"(250) 537-9971","price":"","reviewCount":0,"reviewScore":0,"meta":{"revision":0,"created":1547531153401,"version":0},"$loki":174},{"_id":"5c3d65bd3525a329e0c0d5ca","address":"176 Wilson Street","location":{"type":"Point","coordinates":[-123.3641529,48.4317632]},"isApproved":true,"items":[],"keys":["Sushi Bars","Japanese"],"lastUpdated":1547527612548,"name":"Victoria Sushi","phone":"(778) 265-0500","price":"$$$","reviewCount":30,"reviewScore":4,"meta":{"revision":0,"created":1547531153401,"version":0},"$loki":175},{"_id":"5c3d65bd3525a329e0c1aa74","address":"1249 Esquimalt Road","location":{"type":"Point","coordinates":[-123.3646024,48.4323369]},"isApproved":true,"items":[],"keys":["Pizza","Salad","Chicken Wings"],"lastUpdated":1547527612868,"name":"Panago Pizza","phone":"(866) 310-0001","price":"","reviewCount":2,"reviewScore":3,"meta":{"revision":0,"created":1547531153401,"version":0},"$loki":176},{"_id":"5c3d65bd3525a329e0c0a908","address":"1218 Wharf st","location":{"type":"Point","coordinates":[-123.3694342,48.4302942]},"isApproved":true,"items":[],"keys":["Korean"],"lastUpdated":1547527612482,"name":"The Chicken","phone":"(250) 590-5298","price":"","reviewCount":2,"reviewScore":4.5,"meta":{"revision":0,"created":1547531153401,"version":0},"$loki":177},{"_id":"5c3d65bd3525a329e0c1542b","address":"230 Cook Street","location":{"type":"Point","coordinates":[-123.3708464,48.4299764]},"isApproved":true,"items":[],"keys":["Pizza"],"lastUpdated":1547527612739,"name":"Pizzeria Prima Strada","phone":"(250) 590-8595","price":"$$","reviewCount":148,"reviewScore":4,"meta":{"revision":0,"created":1547531153401,"version":0},"$loki":178},{"_id":"5c3d65bd3525a329e0c0f17f","address":"1213 Quadra Street","location":{"type":"Point","coordinates":[-123.36932,48.4291089]},"isApproved":true,"items":[],"keys":["Japanese","Sushi Bars"],"lastUpdated":1547527612591,"name":"Sakura Sushi, Grocery and Japanese Restaurant","phone":"(250) 388-3636","price":"$","reviewCount":12,"reviewScore":3.5,"meta":{"revision":0,"created":1547531153401,"version":0},"$loki":179},{"_id":"5c3d65bd3525a329e0c04fb4","address":"650 Burnside Road W","location":{"type":"Point","coordinates":[-123.369151,48.429253]},"isApproved":true,"items":[],"keys":["Caribbean"],"lastUpdated":1547527612339,"name":"Trini To D Bone","phone":"(778) 440-6755","price":"$$","reviewCount":13,"reviewScore":4.5,"meta":{"revision":0,"created":1547531153401,"version":0},"$loki":180},{"_id":"5c3d65bd3525a329e0c018d4","address":"3468 Tillicum Rd","location":{"type":"Point","coordinates":[-123.367871,48.429243]},"isApproved":true,"items":[],"keys":["Seafood"],"lastUpdated":1547527612251,"name":"Marble Arch Fish & Chips","phone":"(250) 386-7141","price":"$","reviewCount":6,"reviewScore":4,"meta":{"revision":0,"created":1547531153401,"version":0},"$loki":181},{"_id":"5c3d65bd3525a329e0c148fb","address":"560 Fisgard Street","location":{"type":"Point","coordinates":[-123.3675693,48.4295034]},"isApproved":true,"items":[],"keys":["Chinese"],"lastUpdated":1547527612727,"name":"Wah Lai Yuen","phone":"(250) 381-5355","price":"$$","reviewCount":44,"reviewScore":3.5,"meta":{"revision":0,"created":1547531153401,"version":0},"$loki":182},{"_id":"5c3d65bd3525a329e0bff9bf","address":"3147 Douglas Street","location":{"type":"Point","coordinates":[-123.3680204,48.4294575]},"isApproved":true,"items":[],"keys":["Burgers","Fast Food"],"lastUpdated":1547527612219,"name":"A&W","phone":"(250) 388-9955","price":"","reviewCount":1,"reviewScore":4,"meta":{"revision":0,"created":1547531153401,"version":0},"$loki":183},{"_id":"5c3d65bd3525a329e0c147c3","address":"1002 Johnson Street","location":{"type":"Point","coordinates":[-123.3680204,48.4294575]},"isApproved":true,"items":[],"keys":["Mexican"],"lastUpdated":1547527612721,"name":"Orale","phone":"","price":"","reviewCount":2,"reviewScore":3,"meta":{"revision":0,"created":1547531153401,"version":0},"$loki":184},{"_id":"5c3d65bd3525a329e0c0ea61","address":"161 Kenneth Street","location":{"type":"Point","coordinates":[-123.3678964,48.4294829]},"isApproved":true,"items":[],"keys":["American (Traditional)","Gluten-Free"],"lastUpdated":1547527612581,"name":"Gourmet Gardens","phone":"(250) 597-3233","price":"","reviewCount":4,"reviewScore":2.5,"meta":{"revision":0,"created":1547531153401,"version":0},"$loki":185},{"_id":"5c3d65bd3525a329e0c143b5","address":"546 Fisgard St","location":{"type":"Point","coordinates":[-123.3678935,48.4294829]},"isApproved":true,"items":[],"keys":["Chinese"],"lastUpdated":1547527612714,"name":"Hunan Village Cuisine","phone":"","price":"","reviewCount":1,"reviewScore":4,"meta":{"revision":0,"created":1547531153401,"version":0},"$loki":186},{"_id":"5c3d65bd3525a329e0c0217a","address":"1623 Store St","location":{"type":"Point","coordinates":[-123.36812276113,48.4294689876957]},"isApproved":true,"items":[],"keys":["Cafes"],"lastUpdated":1547527612275,"name":"The Sour Pickle Cafe","phone":"(250) 384-9390","price":"$$","reviewCount":11,"reviewScore":4,"meta":{"revision":0,"created":1547531153401,"version":0},"$loki":187},{"_id":"5c3d65bd3525a329e0c0f979","address":"538 Fisgard Street","location":{"type":"Point","coordinates":[-123.3686315,48.4297362]},"isApproved":true,"items":[],"keys":["Seafood","Dim Sum"],"lastUpdated":1547527612600,"name":"Don Mee Seafood Restaurant","phone":"(250) 383-1032","price":"$$","reviewCount":143,"reviewScore":2.5,"meta":{"revision":0,"created":1547531153401,"version":0},"$loki":188},{"_id":"5c3d65bd3525a329e0c1acb6","address":"2829 Peatt Road","location":{"type":"Point","coordinates":[-123.3677163,48.4303785]},"isApproved":true,"items":[],"keys":["Bistros"],"lastUpdated":1547527612874,"name":"Evedar’s Bistro","phone":"(250) 391-8636","price":"$$","reviewCount":19,"reviewScore":3.5,"meta":{"revision":0,"created":1547531153401,"version":0},"$loki":189},{"_id":"5c3d65bd3525a329e0c0f91e","address":"1008 Langley St","location":{"type":"Point","coordinates":[-123.3673009,48.4297662]},"isApproved":true,"items":[],"keys":["Chinese","Hot Pot","Asian Fusion"],"lastUpdated":1547527612600,"name":"Fire Bowl Hot Pot 焰御火锅","phone":"(250) 590-9990","price":"","reviewCount":1,"reviewScore":4,"meta":{"revision":0,"created":1547531153401,"version":0},"$loki":190},{"_id":"5c3d65bd3525a329e0bffb1a","address":"2540 Windsor Rd","location":{"type":"Point","coordinates":[-123.3673745,48.4295996]},"isApproved":true,"items":[],"keys":["Italian","Breakfast & Brunch","French"],"lastUpdated":1547527612220,"name":"Windsor Cafe","phone":"(778) 440-2540","price":"","reviewCount":2,"reviewScore":4.5,"meta":{"revision":0,"created":1547531153401,"version":0},"$loki":191},{"_id":"5c3d65bd3525a329e0c17dd8","address":"713A Goldstream Avenue","location":{"type":"Point","coordinates":[-123.3674687,48.4294964]},"isApproved":true,"items":[],"keys":["Bakeries","Gluten-Free"],"lastUpdated":1547527612801,"name":"Origin Gluten-Free Bakery","phone":"(250) 590-8948","price":"$$","reviewCount":4,"reviewScore":4.5,"meta":{"revision":0,"created":1547531153401,"version":0},"$loki":192},{"_id":"5c3d65bd3525a329e0c01b16","address":"3009 Gosworth Road","location":{"type":"Point","coordinates":[-123.3673268,48.4295303]},"isApproved":true,"items":[],"keys":["Pizza","Donairs"],"lastUpdated":1547527612258,"name":"GP’s","phone":"(778) 432-0606","price":"","reviewCount":5,"reviewScore":2.5,"meta":{"revision":0,"created":1547531153401,"version":0},"$loki":193},{"_id":"5c3d65bd3525a329e0c08295","address":"104 - 6661 Sooke Road","location":{"type":"Point","coordinates":[-123.3666938,48.4295811]},"isApproved":true,"items":[],"keys":["Coffee & Tea","Gluten-Free","Breakfast & Brunch"],"lastUpdated":1547527612420,"name":"Serious Coffee Sooke","phone":"(250) 642-3264","price":"$$","reviewCount":5,"reviewScore":3.5,"meta":{"revision":0,"created":1547531153401,"version":0},"$loki":194},{"_id":"5c3d65bd3525a329e0c045a8","address":"910 Government Street","location":{"type":"Point","coordinates":[-123.3667406,48.4298399]},"isApproved":true,"items":[],"keys":["Diners","Breakfast & Brunch","Cocktail Bars"],"lastUpdated":1547527612328,"name":"Frankie’s Modern Diner","phone":"(778) 265-8575","price":"$$","reviewCount":124,"reviewScore":4,"meta":{"revision":0,"created":1547531153401,"version":0},"$loki":195},{"_id":"5c3d65bd3525a329e0c0c0e1","address":"658 Herald Street","location":{"type":"Point","coordinates":[-123.3654184,48.430466]},"isApproved":true,"items":[],"keys":["French","Cocktail Bars"],"lastUpdated":1547527612516,"name":"Saveur","phone":"(250) 590-9251","price":"$$$","reviewCount":27,"reviewScore":4.5,"meta":{"revision":0,"created":1547531153401,"version":0},"$loki":196},{"_id":"5c3d65bd3525a329e0c16ee4","address":"2955 Phipps Road","location":{"type":"Point","coordinates":[-123.3673002,48.4305956]},"isApproved":true,"items":[],"keys":["Asian Fusion","Noodles"],"lastUpdated":1547527612781,"name":"Noodlebox","phone":"(250) 383-3322","price":"$$","reviewCount":9,"reviewScore":3.5,"meta":{"revision":0,"created":1547531153401,"version":0},"$loki":197},{"_id":"5c3d65bd3525a329e0c04006","address":"1950 Government St","location":{"type":"Point","coordinates":[-123.3678317,48.4314946]},"isApproved":true,"items":[],"keys":["Caterers"],"lastUpdated":1547527612320,"name":"Mr Tube Steak","phone":"(250) 360-1002","price":"","reviewCount":1,"reviewScore":5,"meta":{"revision":0,"created":1547531153401,"version":0},"$loki":198},{"_id":"5c3d65bd3525a329e0c05904","address":"109 - 5462 Trans-Canada Highway","location":{"type":"Point","coordinates":[-123.3644266,48.4310887]},"isApproved":true,"items":[],"keys":["Coffee & Tea","Gluten-Free"],"lastUpdated":1547527612355,"name":"Serious Coffee South Duncan","phone":"(250) 748-5513","price":"","reviewCount":4,"reviewScore":3,"meta":{"revision":0,"created":1547531153401,"version":0},"$loki":199},{"_id":"5c3d65bd3525a329e0c00abe","address":"1701 Douglas Stree","location":{"type":"Point","coordinates":[-123.365209760863,48.431043118919]},"isApproved":true,"items":[],"keys":["Japanese"],"lastUpdated":1547527612230,"name":"Fish & Rice Maki Roll Shop","phone":"","price":"","reviewCount":3,"reviewScore":3.5,"meta":{"revision":0,"created":1547531153401,"version":0},"$loki":200},{"_id":"5c3d65bd3525a329e0c0267f","address":"2250 Oak Bay Avenue","location":{"type":"Point","coordinates":[-123.3641709,48.4307071]},"isApproved":true,"items":[],"keys":["Breakfast & Brunch","American (Traditional)","British"],"lastUpdated":1547527612284,"name":"The Oaks Restaurant","phone":"(250) 590-3155","price":"$$","reviewCount":15,"reviewScore":3.5,"meta":{"revision":0,"created":1547531153401,"version":0},"$loki":201},{"_id":"5c3d65bd3525a329e0c029ec","address":"911 Yates Street","location":{"type":"Point","coordinates":[-123.364222707935,48.4298827400016]},"isApproved":true,"items":[],"keys":["Burgers","Canadian (New)"],"lastUpdated":1547527612286,"name":"Bin 4 Burger Lounge","phone":"(250) 590-4154","price":"$$","reviewCount":131,"reviewScore":4,"meta":{"revision":0,"created":1547531153401,"version":0},"$loki":202},{"_id":"5c3d65bd3525a329e0c03e48","address":"1812 Government Street","location":{"type":"Point","coordinates":[-123.363753369344,48.4297894827714]},"isApproved":true,"items":[],"keys":["Breakfast & Brunch"],"lastUpdated":1547527612313,"name":"The Salt & Pepper Fox","phone":"(250) 590-1212","price":"","reviewCount":3,"reviewScore":4.5,"meta":{"revision":0,"created":1547531153401,"version":0},"$loki":203},{"_id":"5c3d65bd3525a329e0c09920","address":"1701 Douglas Street","location":{"type":"Point","coordinates":[-123.3637813,48.4298653]},"isApproved":true,"items":[],"keys":["Mexican"],"lastUpdated":1547527612463,"name":"Taco Stand Al Pastor","phone":"(778) 432-4775","price":"","reviewCount":2,"reviewScore":3,"meta":{"revision":0,"created":1547531153401,"version":0},"$loki":204},{"_id":"5c3d65bd3525a329e0c0bff0","address":"1175 Cook Street","location":{"type":"Point","coordinates":[-123.3637239,48.4300479]},"isApproved":true,"items":[],"keys":["Breakfast & Brunch","Cafes","Burgers"],"lastUpdated":1547527612516,"name":"Cook’s Cafe","phone":"(250) 388-4949","price":"$$","reviewCount":3,"reviewScore":3.5,"meta":{"revision":0,"created":1547531153401,"version":0},"$loki":205},{"_id":"5c3d65bd3525a329e0c17cb3","address":"140-780 Fisgard Street","location":{"type":"Point","coordinates":[-123.3631945,48.4297566]},"isApproved":true,"items":[],"keys":["Noodles"],"lastUpdated":1547527612800,"name":"Ox King Noodles","phone":"(778) 967-1022","price":"","reviewCount":16,"reviewScore":4.5,"meta":{"revision":0,"created":1547531153401,"version":0},"$loki":206},{"_id":"5c3d65bd3525a329e0c14949","address":"919 Douglas Street","location":{"type":"Point","coordinates":[-123.3632914,48.4293234]},"isApproved":true,"items":[],"keys":["British","Pubs","Canadian (New)"],"lastUpdated":1547527612727,"name":"The Sticky Wicket","phone":"(250) 383-7137","price":"$$","reviewCount":131,"reviewScore":3,"meta":{"revision":0,"created":1547531153401,"version":0},"$loki":207},{"_id":"5c3d65bd3525a329e0c0b44c","address":"829 Mccallum Road","location":{"type":"Point","coordinates":[-123.3618117,48.4294073]},"isApproved":true,"items":[],"keys":["Canadian (New)","Burgers","Tapas Bars"],"lastUpdated":1547527612499,"name":"Cedar Ultra Patio","phone":"(250) 474-4490","price":"","reviewCount":1,"reviewScore":2,"meta":{"revision":0,"created":1547531153401,"version":0},"$loki":208},{"_id":"5c3d65bd3525a329e0c0a12f","address":"2816 Henry Road","location":{"type":"Point","coordinates":[-123.360455,48.428797]},"isApproved":true,"items":[],"keys":["Restaurants"],"lastUpdated":1547527612473,"name":"Mt Brenton Lounge & Cafe","phone":"(250) 246-4948","price":"","reviewCount":1,"reviewScore":3,"meta":{"revision":0,"created":1547531153401,"version":0},"$loki":209},{"_id":"5c3d65bd3525a329e0c14f32","address":"1609 Blanshard St","location":{"type":"Point","coordinates":[-123.361667,48.428997]},"isApproved":true,"items":[],"keys":["Coffee & Tea","Gluten-Free","Cafes"],"lastUpdated":1547527612736,"name":"Serious Coffee Blanshard","phone":"(250) 385-1100","price":"$","reviewCount":6,"reviewScore":3.5,"meta":{"revision":0,"created":1547531153401,"version":0},"$loki":210},{"_id":"5c3d65bd3525a329e0c10956","address":"735 Yates Street","location":{"type":"Point","coordinates":[-123.362880125642,48.4288773044645]},"isApproved":true,"items":[],"keys":["Japanese","Sushi Bars"],"lastUpdated":1547527612625,"name":"Sushi Time Express","phone":"(778) 432-3663","price":"$","reviewCount":14,"reviewScore":4.5,"meta":{"revision":0,"created":1547531153401,"version":0},"$loki":211},{"_id":"5c3d65bd3525a329e0c111aa","address":"2346 Shawnigan Lake Road","location":{"type":"Point","coordinates":[-123.3635234,48.4278183]},"isApproved":true,"items":[],"keys":["Donairs","Pizza"],"lastUpdated":1547527612641,"name":"Raya’s Pizza","phone":"(250) 929-7090","price":"","reviewCount":0,"reviewScore":0,"meta":{"revision":0,"created":1547531153401,"version":0},"$loki":212},{"_id":"5c3d65bd3525a329e0c03962","address":"723 Pandora Avenue","location":{"type":"Point","coordinates":[-123.36379674621,48.427883987606]},"isApproved":true,"items":[],"keys":["Breakfast & Brunch","Comfort Food"],"lastUpdated":1547527612310,"name":"John’s Place","phone":"(250) 389-0711","price":"$$","reviewCount":327,"reviewScore":4.5,"meta":{"revision":0,"created":1547531153401,"version":0},"$loki":213},{"_id":"5c3d65bd3525a329e0c11878","address":"2009 Fernwood Road","location":{"type":"Point","coordinates":[-123.3648659,48.429105]},"isApproved":true,"items":[],"keys":["Pizza"],"lastUpdated":1547527612650,"name":"Fernwood Pizza Company","phone":"(778) 430-4446","price":"","reviewCount":7,"reviewScore":3.5,"meta":{"revision":0,"created":1547531153401,"version":0},"$loki":214},{"_id":"5c3d65bd3525a329e0c16e0a","address":"517 Pandora Street","location":{"type":"Point","coordinates":[-123.364691,48.4292254]},"isApproved":true,"items":[],"keys":["Tapas/Small Plates","Pubs","Canadian (New)"],"lastUpdated":1547527612780,"name":"The Drake Eatery","phone":"(250) 590-9075","price":"$$","reviewCount":50,"reviewScore":4.5,"meta":{"revision":0,"created":1547531153401,"version":0},"$loki":215},{"_id":"5c3d65bd3525a329e0c07f40","address":"614 Government Street","location":{"type":"Point","coordinates":[-123.3648556,48.4290469]},"isApproved":true,"items":[],"keys":["Breakfast & Brunch","Diners","Canadian (New)"],"lastUpdated":1547527612418,"name":"Legislative Dining Room","phone":"(250) 387-3959","price":"$$","reviewCount":12,"reviewScore":4.5,"meta":{"revision":0,"created":1547531153401,"version":0},"$loki":216},{"_id":"5c3d65bd3525a329e0c175a8","address":"5325 Trans Canada Highway","location":{"type":"Point","coordinates":[-123.3644802,48.4294556]},"isApproved":true,"items":[],"keys":["Breakfast & Brunch","Gluten-Free"],"lastUpdated":1547527612790,"name":"Smitty’s Restaurant","phone":"(250) 597-1818","price":"","reviewCount":4,"reviewScore":3.5,"meta":{"revision":0,"created":1547531153401,"version":0},"$loki":217},{"_id":"5c3d65bd3525a329e0c14d62","address":"1696 Douglas Street","location":{"type":"Point","coordinates":[-123.3647258,48.4292954]},"isApproved":true,"items":[],"keys":["Korean"],"lastUpdated":1547527612729,"name":"Sura Korean Cuisine","phone":"(250) 385-7872","price":"$$$","reviewCount":31,"reviewScore":3,"meta":{"revision":0,"created":1547531153401,"version":0},"$loki":218},{"_id":"5c3d65bd3525a329e0c095ee","address":"1724 Douglas Street","location":{"type":"Point","coordinates":[-123.3649204,48.429928]},"isApproved":true,"items":[],"keys":["Tapas/Small Plates","Breakfast & Brunch","Music Venues"],"lastUpdated":1547527612454,"name":"Northern Quarter","phone":"(250) 590-7702","price":"$$","reviewCount":7,"reviewScore":4,"meta":{"revision":0,"created":1547531153401,"version":0},"$loki":219},{"_id":"5c3d65bd3525a329e0c1a189","address":"1807 Fort Street","location":{"type":"Point","coordinates":[-123.3661066,48.4295259]},"isApproved":true,"items":[],"keys":["Chinese"],"lastUpdated":1547527612857,"name":"Hong Kong West","phone":"(250) 598-1352","price":"$$","reviewCount":15,"reviewScore":3.5,"meta":{"revision":0,"created":1547531153401,"version":0},"$loki":220},{"_id":"5c3d65bd3525a329e0c10ac1","address":"5303 W Saanich Road","location":{"type":"Point","coordinates":[-123.365947,48.4295004]},"isApproved":true,"items":[],"keys":["Bakeries","Breakfast & Brunch","Cafes"],"lastUpdated":1547527612631,"name":"MOSI Bakery-Café & Gelateria","phone":"(250) 590-7969","price":"$","reviewCount":13,"reviewScore":4.5,"meta":{"revision":0,"created":1547531153401,"version":0},"$loki":221},{"_id":"5c3d65bd3525a329e0c12799","address":"612 Fisgard Street","location":{"type":"Point","coordinates":[-123.3665011,48.4294805]},"isApproved":true,"items":[],"keys":["Chinese","Seafood"],"lastUpdated":1547527612672,"name":"Forum Chinese Seafood Restaurant","phone":"(250) 385-3288","price":"$$","reviewCount":20,"reviewScore":3.5,"meta":{"revision":0,"created":1547531153401,"version":0},"$loki":222},{"_id":"5c3d65bd3525a329e0c15b05","address":"2518 Estevan Avenue","location":{"type":"Point","coordinates":[-123.3676006,48.4287361]},"isApproved":true,"items":[],"keys":["Breakfast & Brunch"],"lastUpdated":1547527612753,"name":"The Village Restaurant","phone":"(250) 592-8311","price":"$$","reviewCount":44,"reviewScore":4,"meta":{"revision":0,"created":1547531153401,"version":0},"$loki":223},{"_id":"5c3d65bd3525a329e0c15581","address":"1600 Government Street","location":{"type":"Point","coordinates":[-123.367375923943,48.428746066119]},"isApproved":true,"items":[],"keys":["Gluten-Free","Asian Fusion","Indian"],"lastUpdated":1547527612745,"name":"Varsha Indian Kitchen","phone":"(250) 590-6252","price":"$$","reviewCount":76,"reviewScore":4,"meta":{"revision":0,"created":1547531153401,"version":0},"$loki":224},{"_id":"5c3d65bd3525a329e0c132c0","address":"810 Humboldt Street","location":{"type":"Point","coordinates":[-123.3676071,48.4286461]},"isApproved":true,"items":[],"keys":["Cafes"],"lastUpdated":1547527612689,"name":"Tre Fantastico","phone":"(250) 590-8014","price":"$$","reviewCount":37,"reviewScore":3.5,"meta":{"revision":0,"created":1547531153401,"version":0},"$loki":225},{"_id":"5c3d65bd3525a329e0c0ffda","address":"935 Cloverdale Avenue","location":{"type":"Point","coordinates":[-123.3683924,48.4284212]},"isApproved":true,"items":[],"keys":["Cafes"],"lastUpdated":1547527612609,"name":"Roundhouse Café","phone":"(250) 590-1464","price":"$","reviewCount":4,"reviewScore":4.5,"meta":{"revision":0,"created":1547531153401,"version":0},"$loki":226},{"_id":"5c3d65bd3525a329e0c08467","address":"2869 Oak Street","location":{"type":"Point","coordinates":[-123.3690607,48.4284105]},"isApproved":true,"items":[],"keys":["Japanese","Korean"],"lastUpdated":1547527612426,"name":"Sushi KUNI","phone":"(250) 246-2290","price":"$$","reviewCount":3,"reviewScore":5,"meta":{"revision":0,"created":1547531153401,"version":0},"$loki":227},{"_id":"5c3d65bd3525a329e0c0fd54","address":"230 Menzies Street","location":{"type":"Point","coordinates":[-123.368520972923,48.4281243544218]},"isApproved":true,"items":[],"keys":["Canadian (New)"],"lastUpdated":1547527612608,"name":"Cup of Joe Cafe","phone":"(250) 380-2563","price":"$$","reviewCount":20,"reviewScore":3.5,"meta":{"revision":0,"created":1547531153401,"version":0},"$loki":228},{"_id":"5c3d65bd3525a329e0c0eaa6","address":"777 Royal Oak Dr","location":{"type":"Point","coordinates":[-123.368663,48.427904]},"isApproved":true,"items":[],"keys":["Fish & Chips"],"lastUpdated":1547527612581,"name":"Broadmead Fish & Chips","phone":"(250) 479-3474","price":"","reviewCount":0,"reviewScore":0,"meta":{"revision":0,"created":1547531153401,"version":0},"$loki":229},{"_id":"5c3d65bd3525a329e0c18cc5","address":"515 Yates Street","location":{"type":"Point","coordinates":[-123.368305001022,48.427794284096]},"isApproved":true,"items":[],"keys":["Italian"],"lastUpdated":1547527612825,"name":"Fiamo","phone":"(250) 388-5824","price":"$$","reviewCount":98,"reviewScore":4,"meta":{"revision":0,"created":1547531153401,"version":0},"$loki":230},{"_id":"5c3d65bd3525a329e0c0d96c","address":"1701 Government Street","location":{"type":"Point","coordinates":[-123.368,48.4279]},"isApproved":true,"items":[],"keys":["Bakeries","Comfort Food","Cafes"],"lastUpdated":1547527612555,"name":"Q V Cafe & Bakery","phone":"(250) 384-8831","price":"$","reviewCount":48,"reviewScore":4,"meta":{"revision":0,"created":1547531153401,"version":0},"$loki":231},{"_id":"5c3d65bd3525a329e0c0d60f","address":"548 Fisgard Street","location":{"type":"Point","coordinates":[-123.366244,48.4270032]},"isApproved":true,"items":[],"keys":["Chinese"],"lastUpdated":1547527612548,"name":"Shanghai City Chinese Restaurant","phone":"(250) 381-1223","price":"$","reviewCount":32,"reviewScore":2,"meta":{"revision":0,"created":1547531153401,"version":0},"$loki":232},{"_id":"5c3d65bd3525a329e0c1236e","address":"1320 Broad Street","location":{"type":"Point","coordinates":[-123.3663258,48.4270245]},"isApproved":true,"items":[],"keys":["Hot Dogs"],"lastUpdated":1547527612669,"name":"Saint Franks","phone":"(778) 265-6013","price":"$$","reviewCount":8,"reviewScore":3.5,"meta":{"revision":0,"created":1547531153401,"version":0},"$loki":233},{"_id":"5c3d65bd3525a329e0c18372","address":"1839 Cook Street","location":{"type":"Point","coordinates":[-123.3663258,48.4270245]},"isApproved":true,"items":[],"keys":["Thai"],"lastUpdated":1547527612814,"name":"Little Thai Place","phone":"(250) 477-8900","price":"$$","reviewCount":19,"reviewScore":3,"meta":{"revision":0,"created":1547531153401,"version":0},"$loki":234},{"_id":"5c3d65bd3525a329e0c19052","address":"1320 Broad St","location":{"type":"Point","coordinates":[-123.3663257,48.4270245]},"isApproved":true,"items":[],"keys":["Delis","Sandwiches"],"lastUpdated":1547527612832,"name":"Rising Star Deli","phone":"(250) 386-6660","price":"$","reviewCount":1,"reviewScore":4,"meta":{"revision":0,"created":1547531153401,"version":0},"$loki":235},{"_id":"5c3d65bd3525a329e0c10232","address":"1885 Fort Street","location":{"type":"Point","coordinates":[-123.3667101,48.4273137]},"isApproved":true,"items":[],"keys":["Mediterranean","Pizza","Salad"],"lastUpdated":1547527612611,"name":"Wrap N Roll","phone":"(250) 383-7655","price":"$$","reviewCount":5,"reviewScore":4,"meta":{"revision":0,"created":1547531153401,"version":0},"$loki":236},{"_id":"5c3d65bd3525a329e0c0cd76","address":"615 Johnson Street","location":{"type":"Point","coordinates":[-123.366505,48.427263]},"isApproved":true,"items":[],"keys":["Korean"],"lastUpdated":1547527612534,"name":"Han Korean Restaurant","phone":"(778) 265-1760","price":"","reviewCount":11,"reviewScore":2.5,"meta":{"revision":0,"created":1547531153401,"version":0},"$loki":237},{"_id":"5c3d65bd3525a329e0c19401","address":"1412 Douglas Street","location":{"type":"Point","coordinates":[-123.3648753,48.4274882]},"isApproved":true,"items":[],"keys":["Asian Fusion"],"lastUpdated":1547527612840,"name":"The Mint For Lunch","phone":"(250) 590-4490","price":"$$","reviewCount":2,"reviewScore":4,"meta":{"revision":0,"created":1547531153401,"version":0},"$loki":238},{"_id":"5c3d65bd3525a329e0c14d87","address":"642 Johnson St","location":{"type":"Point","coordinates":[-123.3656953,48.4275192]},"isApproved":true,"items":[],"keys":["Breakfast & Brunch","Chicken Shop"],"lastUpdated":1547527612730,"name":"The Ruby","phone":"(778) 265-8750","price":"$$","reviewCount":19,"reviewScore":4,"meta":{"revision":0,"created":1547531153401,"version":0},"$loki":239},{"_id":"5c3d65bd3525a329e0c19529","address":"2945 Jacklin Road","location":{"type":"Point","coordinates":[-123.3656444,48.4284207]},"isApproved":true,"items":[],"keys":["Pizza"],"lastUpdated":1547527612840,"name":"Romeo’s Place","phone":"(250) 474-2121","price":"$$","reviewCount":14,"reviewScore":2.5,"meta":{"revision":0,"created":1547531153401,"version":0},"$loki":240},{"_id":"5c3d65bd3525a329e0c01f8b","address":"1 Dallas Rd","location":{"type":"Point","coordinates":[-123.3649611,48.4279141]},"isApproved":true,"items":[],"keys":["Seafood","Fish & Chips"],"lastUpdated":1547527612269,"name":"Barb’s Place","phone":"(250) 384-6515","price":"$$","reviewCount":126,"reviewScore":3.5,"meta":{"revision":0,"created":1547531153401,"version":0},"$loki":241},{"_id":"5c3d65bd3525a329e0c06f43","address":"751 Vanalman Avenue","location":{"type":"Point","coordinates":[-123.3648483,48.4275619]},"isApproved":true,"items":[],"keys":["Delis","Butcher","Sandwiches"],"lastUpdated":1547527612388,"name":"Red Barn Market","phone":"(250) 479-6817","price":"$$","reviewCount":8,"reviewScore":4.5,"meta":{"revision":0,"created":1547531153401,"version":0},"$loki":242},{"_id":"5c3d65bd3525a329e0c1b0d8","address":"2540 Sturdies Bay","location":{"type":"Point","coordinates":[-123.3642942,48.4276267]},"isApproved":true,"items":[],"keys":["Burgers"],"lastUpdated":1547527612877,"name":"Scoops Ice Cream and Burger Bar","phone":"(250) 539-2388","price":"$$","reviewCount":6,"reviewScore":3,"meta":{"revision":0,"created":1547531153401,"version":0},"$loki":243},{"_id":"5c3d65bd3525a329e0c01904","address":"953 Fort Street","location":{"type":"Point","coordinates":[-123.3634498,48.4271922]},"isApproved":true,"items":[],"keys":["Canadian (New)"],"lastUpdated":1547527612251,"name":"The London Chef","phone":"(250) 590-1865","price":"$$","reviewCount":8,"reviewScore":3.5,"meta":{"revision":0,"created":1547531153401,"version":0},"$loki":244},{"_id":"5c3d65bd3525a329e0c0eff1","address":"B114 -2951 Green Road","location":{"type":"Point","coordinates":[-123.3634498,48.4271922]},"isApproved":true,"items":[],"keys":["Coffee & Tea","Gluten-Free","Cafes"],"lastUpdated":1547527612589,"name":"Serious Coffee North Cowichan","phone":"(250) 597-3708","price":"$$","reviewCount":2,"reviewScore":2,"meta":{"revision":0,"created":1547531153401,"version":0},"$loki":245},{"_id":"5c3d65bd3525a329e0c05492","address":"748 Johnson Street","location":{"type":"Point","coordinates":[-123.3631238,48.427141]},"isApproved":true,"items":[],"keys":["Korean","Asian Fusion"],"lastUpdated":1547527612347,"name":"Hanshik Nara Korean Restaurant","phone":"(250) 385-0455","price":"$$","reviewCount":4,"reviewScore":5,"meta":{"revision":0,"created":1547531153401,"version":0},"$loki":246},{"_id":"5c3d65bd3525a329e0c16a6e","address":"107-230 Cook Street","location":{"type":"Point","coordinates":[-123.3645897,48.4267034]},"isApproved":true,"items":[],"keys":["Wine Bars","Canadian (New)"],"lastUpdated":1547527612773,"name":"The Collective - Wine Bar & Kitchen","phone":"(778) 432-2021","price":"","reviewCount":0,"reviewScore":0,"meta":{"revision":0,"created":1547531153401,"version":0},"$loki":247},{"_id":"5c3d65bd3525a329e0c06490","address":"1328 Douglas Street","location":{"type":"Point","coordinates":[-123.3647669,48.427166]},"isApproved":true,"items":[],"keys":["Burgers"],"lastUpdated":1547527612371,"name":"Burger King","phone":"(250) 384-5464","price":"$","reviewCount":11,"reviewScore":2.5,"meta":{"revision":0,"created":1547531153401,"version":0},"$loki":248},{"_id":"5c3d65bd3525a329e0c19484","address":"2126B Keating Cross Rd","location":{"type":"Point","coordinates":[-123.3656218,48.427039]},"isApproved":true,"items":[],"keys":["Cafes"],"lastUpdated":1547527612840,"name":"Keating Coffee","phone":"(250) 652-1888","price":"$$","reviewCount":2,"reviewScore":3.5,"meta":{"revision":0,"created":1547531153401,"version":0},"$loki":249},{"_id":"5c3d65bd3525a329e0c0ca33","address":"9 - 180 Central Road","location":{"type":"Point","coordinates":[-123.365676,48.426591]},"isApproved":true,"items":[],"keys":["Pizza","Salad","Chicken Wings"],"lastUpdated":1547527612532,"name":"Panago Pizza","phone":"(866) 310-0001","price":"","reviewCount":2,"reviewScore":2.5,"meta":{"revision":0,"created":1547531153401,"version":0},"$loki":250},{"_id":"5c3d65bd3525a329e0c0804d","address":"1002 Blanshard Street","location":{"type":"Point","coordinates":[-123.3671237,48.4265234]},"isApproved":true,"items":[],"keys":["Cocktail Bars","Comfort Food"],"lastUpdated":1547527612419,"name":"Clarke&Co","phone":"(778) 677-5909","price":"$$$","reviewCount":15,"reviewScore":5,"meta":{"revision":0,"created":1547531153401,"version":0},"$loki":251},{"_id":"5c3d65bd3525a329e0c15324","address":"615 Yates Street","location":{"type":"Point","coordinates":[-123.3667053,48.4263964]},"isApproved":true,"items":[],"keys":["Japanese","Sushi Bars"],"lastUpdated":1547527612738,"name":"Azuma Sushi","phone":"(250) 382-8768","price":"$$","reviewCount":80,"reviewScore":2.5,"meta":{"revision":0,"created":1547531153401,"version":0},"$loki":252},{"_id":"5c3d65bd3525a329e0c19207","address":"1294 Broad Street","location":{"type":"Point","coordinates":[-123.366511,48.426279]},"isApproved":true,"items":[],"keys":["Coffee & Tea","Breakfast & Brunch"],"lastUpdated":1547527612833,"name":"Rise & Grind","phone":"(778) 265-8101","price":"$$","reviewCount":10,"reviewScore":4,"meta":{"revision":0,"created":1547531153401,"version":0},"$loki":253},{"_id":"5c3d65bd3525a329e0c0505d","address":"560 Johnson Street","location":{"type":"Point","coordinates":[-123.366131,48.4261702]},"isApproved":true,"items":[],"keys":["Fast Food","Sandwiches","Salad"],"lastUpdated":1547527612340,"name":"Mom’s Kitchen","phone":"(778) 350-8389","price":"","reviewCount":2,"reviewScore":4.5,"meta":{"revision":0,"created":1547531153401,"version":0},"$loki":254},{"_id":"5c3d65bd3525a329e0c13bf0","address":"1280 Broad Street","location":{"type":"Point","coordinates":[-123.3665014,48.4260693]},"isApproved":true,"items":[],"keys":["Coffee & Tea","Gluten-Free","Cafes"],"lastUpdated":1547527612705,"name":"Serious Coffee Broad Street","phone":"(250) 380-0272","price":"$","reviewCount":17,"reviewScore":3,"meta":{"revision":0,"created":1547531153401,"version":0},"$loki":255},{"_id":"5c3d65bd3525a329e0c0f573","address":"5 - 370 Trans Canada Hwy","location":{"type":"Point","coordinates":[-123.364967346191,48.4260063171387]},