{"filename":"-123.25-48.75","collections":[{"name":"restaurants","data":[{"_id":"5c3d65bd3525a329e0c04994","address":"1317 N State St","location":{"type":"Point","coordinates":[-122.9125809,48.524288]},"isApproved":true,"items":[],"keys":["Italian","Bars"],"lastUpdated":1547527612330,"name":"D’anna’s Cafe Italiano","phone":"(360) 714-0188","price":"$$","reviewCount":352,"reviewScore":4,"meta":{"revision":0,"created":1547531155792,"version":0},"$loki":1},{"_id":"5c3d65bd3525a329e0c149ac","address":"45 Eads Ln","location":{"type":"Point","coordinates":[-122.9130324,48.524077]},"isApproved":true,"items":[],"keys":["Noodles","Ramen"],"lastUpdated":1547527612728,"name":"Setsunai","phone":"(360) 503-6341","price":"$$","reviewCount":26,"reviewScore":4,"meta":{"revision":0,"created":1547531155792,"version":0},"$loki":2},{"_id":"5c3d65bd3525a329e0c05c17","address":"214 Lopez Rd","location":{"type":"Point","coordinates":[-122.9138458,48.5238386]},"isApproved":true,"items":[],"keys":["Food Trucks","Poutineries"],"lastUpdated":1547527612356,"name":"Poutine Your Mouth","phone":"(801) 859-6400","price":"","reviewCount":8,"reviewScore":4,"meta":{"revision":0,"created":1547531155792,"version":0},"$loki":3},{"_id":"5c3d65bd3525a329e0c032e5","address":"277 G St","location":{"type":"Point","coordinates":[-122.9135171,48.5236238]},"isApproved":true,"items":[],"keys":["Sushi Bars","Wine Bars","Venues & Event Spaces"],"lastUpdated":1547527612302,"name":"The Vault Wine Bar","phone":"(360) 392-0955","price":"$$$","reviewCount":14,"reviewScore":4.5,"meta":{"revision":0,"created":1547531155792,"version":0},"$loki":4},{"_id":"5c3d65bd3525a329e0c19d32","address":"Bldg C","location":{"type":"Point","coordinates":[-122.912986012781,48.5226109792626]},"isApproved":true,"items":[],"keys":["Vegetarian","Juice Bars & Smoothies","Soup"],"lastUpdated":1547527612850,"name":"Vortex","phone":"(360) 468-4740","price":"$$","reviewCount":32,"reviewScore":4.5,"meta":{"revision":0,"created":1547531155792,"version":0},"$loki":5},{"_id":"5c3d65bd3525a329e0c12bd7","address":"4915 Lakewood Rd","location":{"type":"Point","coordinates":[-122.9144163,48.5232255]},"isApproved":true,"items":[],"keys":["Sports Bars","Burgers","American (Traditional)"],"lastUpdated":1547527612680,"name":"The Paddle Pub","phone":"(360) 652-4156","price":"$$","reviewCount":69,"reviewScore":3.5,"meta":{"revision":0,"created":1547531155792,"version":0},"$loki":6},{"_id":"5c3d65bd3525a329e0c1b636","address":"848 N Sunrise Blvd","location":{"type":"Point","coordinates":[-122.9153945,48.5238563]},"isApproved":true,"items":[],"keys":["Creperies","Fish & Chips","Tacos"],"lastUpdated":1547527612886,"name":"HodgePodge Easy Eats","phone":"(360) 572-3165","price":"$","reviewCount":49,"reviewScore":4.5,"meta":{"revision":0,"created":1547531155792,"version":0},"$loki":7},{"_id":"5c3d65bd3525a329e0c079be","address":"307 W Holly St","location":{"type":"Point","coordinates":[-122.835118991365,48.6230373188382]},"isApproved":true,"items":[],"keys":["Bars","American (Traditional)"],"lastUpdated":1547527612409,"name":"The Cabin","phone":"(360) 733-9685","price":"$","reviewCount":16,"reviewScore":3.5,"meta":{"revision":0,"created":1547531155792,"version":0},"$loki":8},{"_id":"5c3d65bd3525a329e0c009bb","address":"1319 Railroad Ave","location":{"type":"Point","coordinates":[-122.867857074406,48.6474499439758]},"isApproved":true,"items":[],"keys":["Bagels","Breakfast & Brunch","Coffee & Tea"],"lastUpdated":1547527612229,"name":"The Bagelry","phone":"(360) 676-5288","price":"$","reviewCount":192,"reviewScore":3.5,"meta":{"revision":0,"created":1547531155792,"version":0},"$loki":9},{"_id":"5c3d65bd3525a329e0c081cd","address":"1400 Rosario Rd","location":{"type":"Point","coordinates":[-122.8733011,48.6445974]},"isApproved":true,"items":[],"keys":["American (New)"],"lastUpdated":1547527612419,"name":"The Mansion Restaurant at Rosario Resort & Spa","phone":"(360) 376-2222","price":"$$$","reviewCount":108,"reviewScore":4,"meta":{"revision":0,"created":1547531155792,"version":0},"$loki":10},{"_id":"5c3d65bd3525a329e0c114b0","address":"","location":{"type":"Point","coordinates":[-122.8894913,48.5952726]},"isApproved":true,"items":[],"keys":["Beer, Wine & Spirits","Hotels","American (Traditional)"],"lastUpdated":1547527612643,"name":"The Boardwalk","phone":"(360) 376-2971","price":"$$$","reviewCount":6,"reviewScore":1.5,"meta":{"revision":0,"created":1547531155792,"version":0},"$loki":11},{"_id":"5c3d65bd3525a329e0c16e86","address":"1420 Pioneer Hwy","location":{"type":"Point","coordinates":[-122.944781,48.598075]},"isApproved":true,"items":[],"keys":["American (Traditional)","Breakfast & Brunch"],"lastUpdated":1547527612780,"name":"Willow & Jim’s Country Cafe","phone":"(360) 652-0372","price":"$","reviewCount":46,"reviewScore":4,"meta":{"revision":0,"created":1547531155792,"version":0},"$loki":12},{"_id":"5c3d65bd3525a329e0c01ceb","address":"521 Kentucky St","location":{"type":"Point","coordinates":[-122.944630505126,48.5980861657023]},"isApproved":true,"items":[],"keys":["Breakfast & Brunch","American (Traditional)"],"lastUpdated":1547527612259,"name":"HomeSkillet","phone":"(360) 676-6218","price":"$$","reviewCount":637,"reviewScore":4,"meta":{"revision":0,"created":1547531155792,"version":0},"$loki":13},{"_id":"5c3d65bd3525a329e0c15bdf","address":"205 W Smith Rd","location":{"type":"Point","coordinates":[-122.945063084175,48.5982111231278]},"isApproved":true,"items":[],"keys":["Cafes","American (New)","Sandwiches"],"lastUpdated":1547527612754,"name":"9 Restaurant","phone":"(360) 398-8300","price":"$$","reviewCount":3,"reviewScore":4.5,"meta":{"revision":0,"created":1547531155792,"version":0},"$loki":14},{"_id":"5c3d65bd3525a329e0c01324","address":"744 Airport Cir Dr","location":{"type":"Point","coordinates":[-123.000916840103,48.620020996099]},"isApproved":true,"items":[],"keys":["Cafes","Breakfast & Brunch","Korean"],"lastUpdated":1547527612241,"name":"Ernie’s Cafe","phone":"(360) 378-6605","price":"$$","reviewCount":21,"reviewScore":4.5,"meta":{"revision":0,"created":1547531155792,"version":0},"$loki":15},{"_id":"5c3d65bd3525a329e0c01275","address":"33 Inn Ln","location":{"type":"Point","coordinates":[-122.998129307743,48.6261615581214]},"isApproved":true,"items":[],"keys":["Seafood","Desserts","Salad"],"lastUpdated":1547527612240,"name":"Deer Harbor Inn Restaurant","phone":"(360) 376-1040","price":"$$$","reviewCount":51,"reviewScore":3.5,"meta":{"revision":0,"created":1547531155792,"version":0},"$loki":16},{"_id":"5c3d65bd3525a329e0c14b68","address":"500 Oswego Street","location":{"type":"Point","coordinates":[-123.2183028,48.748032]},"isApproved":true,"items":[],"keys":["Tapas/Small Plates","Wine Bars","Cafes"],"lastUpdated":1547527612729,"name":"O Cafe and Bistro","phone":"(250) 940-7500","price":"$$","reviewCount":12,"reviewScore":4,"meta":{"revision":0,"created":1547531155792,"version":0},"$loki":17},{"_id":"5c3d65bd3525a329e0c16dea","address":"1296 Gladstone Avenue","location":{"type":"Point","coordinates":[-123.218333,48.748172]},"isApproved":true,"items":[],"keys":["Asian Fusion"],"lastUpdated":1547527612780,"name":"Kulu","phone":"(778) 430-5398","price":"$$","reviewCount":1,"reviewScore":3,"meta":{"revision":0,"created":1547531155792,"version":0},"$loki":18},{"_id":"5c3d65bd3525a329e0c128f4","address":"205 Prospect St","location":{"type":"Point","coordinates":[-122.884554751217,48.6911677697181]},"isApproved":true,"items":[],"keys":["Cideries","American (Traditional)","Breakfast & Brunch"],"lastUpdated":1547527612679,"name":"Bellingham Cider Company","phone":"(360) 510-8494","price":"$$","reviewCount":93,"reviewScore":4.5,"meta":{"revision":0,"created":1547531155792,"version":0},"$loki":19},{"_id":"5c3d65bd3525a329e0c0f336","address":"264 Spring St","location":{"type":"Point","coordinates":[-122.885737,48.6958037]},"isApproved":true,"items":[],"keys":["Ice Cream & Frozen Yogurt","Cafes","Sandwiches"],"lastUpdated":1547527612591,"name":"Sweet Retreat & Espresso","phone":"(360) 378-1957","price":"$","reviewCount":27,"reviewScore":4.5,"meta":{"revision":0,"created":1547531155792,"version":0},"$loki":20},{"_id":"5c3d65bd3525a329e0c04458","address":"625 NE Midway Blvd","location":{"type":"Point","coordinates":[-122.904043971489,48.6926882331995]},"isApproved":true,"items":[],"keys":["Mexican"],"lastUpdated":1547527612322,"name":"Agave Taqueria","phone":"(360) 675-1052","price":"$$","reviewCount":92,"reviewScore":4,"meta":{"revision":0,"created":1547531155792,"version":0},"$loki":21},{"_id":"5c3d65bd3525a329e0c073dd","address":"207 E Holly St","location":{"type":"Point","coordinates":[-122.904427983344,48.6923225866455]},"isApproved":true,"items":[],"keys":["Mexican"],"lastUpdated":1547527612399,"name":"Tadeo’s Mexican Restaurant","phone":"(360) 647-1862","price":"$","reviewCount":149,"reviewScore":4,"meta":{"revision":0,"created":1547531155792,"version":0},"$loki":22},{"_id":"5c3d65bd3525a329e0c09fd3","address":"715 SE Fidalgo Ave","location":{"type":"Point","coordinates":[-122.90477541661,48.6944096940251]},"isApproved":true,"items":[],"keys":["Sandwiches","Bagels","Breakfast & Brunch"],"lastUpdated":1547527612472,"name":"Whidbey Island Bagel Factory","phone":"(360) 675-4111","price":"$","reviewCount":34,"reviewScore":4.5,"meta":{"revision":0,"created":1547531155792,"version":0},"$loki":23},{"_id":"5c3d65bd3525a329e0c141a4","address":"46 Prune Aly","location":{"type":"Point","coordinates":[-122.90543741692,48.6951890235715]},"isApproved":true,"items":[],"keys":["American (Traditional)","Pubs","Sports Bars"],"lastUpdated":1547527612713,"name":"The Lower Tavern","phone":"(360) 376-4848","price":"$$","reviewCount":166,"reviewScore":4,"meta":{"revision":0,"created":1547531155792,"version":0},"$loki":24},{"_id":"5c3d65bd3525a329e0c018bf","address":"223 N Olympic Ave","location":{"type":"Point","coordinates":[-122.904147820253,48.6944078200834]},"isApproved":true,"items":[],"keys":["American (Traditional)","Diners","Breakfast & Brunch"],"lastUpdated":1547527612251,"name":"The Stilly Diner","phone":"(360) 403-8486","price":"$$","reviewCount":212,"reviewScore":4.5,"meta":{"revision":0,"created":1547531155792,"version":0},"$loki":25},{"_id":"5c3d65bd3525a329e0c11535","address":"3024 Mud Bay Rd","location":{"type":"Point","coordinates":[-122.9059664,48.696577]},"isApproved":true,"items":[],"keys":["Burgers","Vegetarian","Salad"],"lastUpdated":1547527612649,"name":"Southend Café & Bar","phone":"(360) 468-2315","price":"","reviewCount":5,"reviewScore":4.5,"meta":{"revision":0,"created":1547531155792,"version":0},"$loki":26},{"_id":"5c3d65bd3525a329e0bff9e5","address":"249 Prune Aly","location":{"type":"Point","coordinates":[-122.90575,48.696352]},"isApproved":true,"items":[],"keys":["Cocktail Bars","Tapas Bars","American (Traditional)"],"lastUpdated":1547527612219,"name":"The Barnacle","phone":"(360) 622-2675","price":"$$","reviewCount":64,"reviewScore":5,"meta":{"revision":0,"created":1547531155792,"version":0},"$loki":27},{"_id":"5c3d65bd3525a329e0c13759","address":"246 Main St","location":{"type":"Point","coordinates":[-122.9059327,48.6962143]},"isApproved":true,"items":[],"keys":["Irish","Pubs"],"lastUpdated":1547527612697,"name":"White Horse Pub","phone":"(360) 376-7827","price":"$$","reviewCount":99,"reviewScore":3,"meta":{"revision":0,"created":1547531155792,"version":0},"$loki":28},{"_id":"5c3d65bd3525a329e0bff4f3","address":"138 N Beach Rd","location":{"type":"Point","coordinates":[-122.906273603439,48.6955616623163]},"isApproved":true,"items":[],"keys":["Grocery","Organic Stores","Delis"],"lastUpdated":1547527612216,"name":"Orcas Food Co-op","phone":"(360) 376-2009","price":"$$","reviewCount":14,"reviewScore":4.5,"meta":{"revision":0,"created":1547531155792,"version":0},"$loki":29},{"_id":"5c3d65bd3525a329e0c12411","address":"1870 Marketplace Dr","location":{"type":"Point","coordinates":[-122.906413164958,48.6953655570241]},"isApproved":true,"items":[],"keys":["Burgers","Fast Food"],"lastUpdated":1547527612670,"name":"Five Guys","phone":"(360) 757-8677","price":"$","reviewCount":69,"reviewScore":3.5,"meta":{"revision":0,"created":1547531155792,"version":0},"$loki":30},{"_id":"5c3d65bd3525a329e0c07be2","address":"12885 Casino Dr","location":{"type":"Point","coordinates":[-122.906841218455,48.6954754099009]},"isApproved":true,"items":[],"keys":["Bars","American (Traditional)"],"lastUpdated":1547527612410,"name":"10 Sports Bar","phone":"(360) 293-2691","price":"$$","reviewCount":8,"reviewScore":3,"meta":{"revision":0,"created":1547531155792,"version":0},"$loki":31},{"_id":"5c3d65bd3525a329e0c0c99e","address":"3236 Northwest Ave","location":{"type":"Point","coordinates":[-122.906793451912,48.6961752934497]},"isApproved":true,"items":[],"keys":["Bars","American (Traditional)"],"lastUpdated":1547527612526,"name":"Northside Restaurant & Lounge","phone":"(360) 671-1799","price":"$$","reviewCount":22,"reviewScore":4,"meta":{"revision":0,"created":1547531155792,"version":0},"$loki":32},{"_id":"5c3d65bd3525a329e0c085f0","address":"1107 Railroad Ave","location":{"type":"Point","coordinates":[-122.9065274,48.6951167759428]},"isApproved":true,"items":[],"keys":["Breakfast & Brunch","Breweries"],"lastUpdated":1547527612427,"name":"Brews Day Brunch","phone":"","price":"","reviewCount":2,"reviewScore":3,"meta":{"revision":0,"created":1547531155792,"version":0},"$loki":33},{"_id":"5c3d65bd3525a329e0c12279","address":"3438 Stoluckquamish Ln","location":{"type":"Point","coordinates":[-122.906784,48.694468]},"isApproved":true,"items":[],"keys":["American (New)","Breweries"],"lastUpdated":1547527612669,"name":"210 Brewing CO","phone":"(360) 474-9740","price":"$$","reviewCount":15,"reviewScore":3.5,"meta":{"revision":0,"created":1547531155792,"version":0},"$loki":34},{"_id":"5c3d65bd3525a329e0c0a4ad","address":"15 Coveland St","location":{"type":"Point","coordinates":[-122.906381,48.694611]},"isApproved":true,"items":[],"keys":["Farmers Market","Cafes","Flowers & Gifts"],"lastUpdated":1547527612480,"name":"Lavender Wind Farm","phone":"(877) 242-7716","price":"$$","reviewCount":18,"reviewScore":4.5,"meta":{"revision":0,"created":1547531155792,"version":0},"$loki":35},{"_id":"5c3d65bd3525a329e0c0bff1","address":"12667 State Rt 9","location":{"type":"Point","coordinates":[-122.90622,48.694336]},"isApproved":true,"items":[],"keys":["Bars","American (New)"],"lastUpdated":1547527612516,"name":"Evelyn’s Tavern","phone":"(360) 399-1321","price":"$$","reviewCount":15,"reviewScore":4.5,"meta":{"revision":0,"created":1547531155792,"version":0},"$loki":36},{"_id":"5c3d65bd3525a329e0c17f2e","address":"9730 State Rt 532","location":{"type":"Point","coordinates":[-122.906196,48.694336]},"isApproved":true,"items":[],"keys":["Mexican"],"lastUpdated":1547527612802,"name":"DOS Reales Taqueria","phone":"(360) 629-0822","price":"$$","reviewCount":57,"reviewScore":4,"meta":{"revision":0,"created":1547531155792,"version":0},"$loki":37},{"_id":"5c3d65bd3525a329e0c15353","address":"171 Main St","location":{"type":"Point","coordinates":[-122.908959,48.694808]},"isApproved":true,"items":[],"keys":["American (New)"],"lastUpdated":1547527612738,"name":"New Leaf Cafe","phone":"(360) 376-2200","price":"$$","reviewCount":284,"reviewScore":4.5,"meta":{"revision":0,"created":1547531155792,"version":0},"$loki":38},{"_id":"5c3d65bd3525a329e0c12ab8","address":"1216 S Burlington Blvd","location":{"type":"Point","coordinates":[-122.906832,48.697083]},"isApproved":true,"items":[],"keys":["Buffets","Chinese"],"lastUpdated":1547527612679,"name":"Four Season Buffet","phone":"(360) 757-8118","price":"$$","reviewCount":113,"reviewScore":4,"meta":{"revision":0,"created":1547531155792,"version":0},"$loki":39},{"_id":"5c3d65bd3525a329e0bffe70","address":"5687 3rd Ave","location":{"type":"Point","coordinates":[-122.9068939,48.6966768]},"isApproved":true,"items":[],"keys":["New Mexican Cuisine","Gluten-Free","Vegan"],"lastUpdated":1547527612222,"name":"New Mexico Tamale","phone":"(360) 389-8841","price":"$","reviewCount":45,"reviewScore":4.5,"meta":{"revision":0,"created":1547531155792,"version":0},"$loki":40},{"_id":"5c3d65bd3525a329e0c179ce","address":"325 Prune Aly","location":{"type":"Point","coordinates":[-122.9059563,48.6968485]},"isApproved":true,"items":[],"keys":["Breakfast & Brunch","American (Traditional)"],"lastUpdated":1547527612792,"name":"Island Skillet","phone":"(360) 376-3984","price":"$","reviewCount":161,"reviewScore":3.5,"meta":{"revision":0,"created":1547531155792,"version":0},"$loki":41},{"_id":"5c3d65bd3525a329e0c1448e","address":"3207 Northwest Ave","location":{"type":"Point","coordinates":[-122.9066071,48.697118]},"isApproved":true,"items":[],"keys":["Pubs","Beer Gardens","Sushi Bars"],"lastUpdated":1547527612714,"name":"Hops ‘n Headz","phone":"(360) 392-8506","price":"$$","reviewCount":63,"reviewScore":4,"meta":{"revision":0,"created":1547531155792,"version":0},"$loki":42},{"_id":"5c3d65bd3525a329e0c03b67","address":"505 32nd St","location":{"type":"Point","coordinates":[-122.9052241,48.697129]},"isApproved":true,"items":[],"keys":["Mediterranean","Specialty Food"],"lastUpdated":1547527612312,"name":"Mediterranean Specialties","phone":"(360) 738-6895","price":"$$","reviewCount":50,"reviewScore":4.5,"meta":{"revision":0,"created":1547531155792,"version":0},"$loki":43},{"_id":"5c3d65bd3525a329e0c18caf","address":"1002 Hillside Avenue","location":{"type":"Point","coordinates":[-123.0818245,48.9840332]},"isApproved":true,"items":[],"keys":["Sandwiches","Italian","Vegan"],"lastUpdated":1547527612825,"name":"The NOOK coffee & tea","phone":"(250) 590-2395","price":"","reviewCount":2,"reviewScore":5,"meta":{"revision":0,"created":1547531155792,"version":0},"$loki":44},{"_id":"5c3d65bd3525a329e0c0d2ea","address":"1334 Gulf Rd","location":{"type":"Point","coordinates":[-123.083052635193,48.9842868322796]},"isApproved":true,"items":[],"keys":["Pubs","American (Traditional)","Barbeque"],"lastUpdated":1547527612546,"name":"Kiniski’s Reef Tavern","phone":"(360) 945-4042","price":"$$","reviewCount":21,"reviewScore":3,"meta":{"revision":0,"created":1547531155792,"version":0},"$loki":45},{"_id":"5c3d65bd3525a329e0c0370d","address":"2576 Quadra St","location":{"type":"Point","coordinates":[-123.051630001258,48.9765278875791]},"isApproved":true,"items":[],"keys":["Delis","Sandwiches"],"lastUpdated":1547527612304,"name":"Wooden Shoe Delicatessen","phone":"(250) 382-9042","price":"$$","reviewCount":1,"reviewScore":5,"meta":{"revision":0,"created":1547531155792,"version":0},"$loki":46},{"_id":"5c3d65bd3525a329e0c11f11","address":"731 Goldstream Ave","location":{"type":"Point","coordinates":[-123.192568,48.7947729]},"isApproved":true,"items":[],"keys":["Chicken Wings","Fast Food","Chicken Shop"],"lastUpdated":1547527612662,"name":"KFC","phone":"(250) 478-1533","price":"","reviewCount":3,"reviewScore":2.5,"meta":{"revision":0,"created":1547531155792,"version":0},"$loki":47},{"_id":"5c3d65bd3525a329e0c188cc","address":"101 Narvaez Bay Road","location":{"type":"Point","coordinates":[-123.1811461,48.7930641]},"isApproved":true,"items":[],"keys":["Cafes"],"lastUpdated":1547527612822,"name":"Saturna Cafe","phone":"","price":"$$","reviewCount":1,"reviewScore":4,"meta":{"revision":0,"created":1547531155792,"version":0},"$loki":48},{"_id":"5c3d65bd3525a329e0c0469c","address":"1015 Fort Street","location":{"type":"Point","coordinates":[-123.298464529216,48.8505269159691]},"isApproved":true,"items":[],"keys":["Indian"],"lastUpdated":1547527612329,"name":"The Mantra Fine Indian Cuisine","phone":"(778) 265-3786","price":"","reviewCount":3,"reviewScore":3,"meta":{"revision":0,"created":1547531155792,"version":0},"$loki":49},{"_id":"5c3d65bd3525a329e0c13080","address":"11300 Patricia Bay Highway","location":{"type":"Point","coordinates":[-123.298770030237,48.848994982339]},"isApproved":true,"items":[],"keys":["Breakfast & Brunch"],"lastUpdated":1547527612688,"name":"Pacific Buffet","phone":"","price":"$$","reviewCount":10,"reviewScore":4,"meta":{"revision":0,"created":1547531155792,"version":0},"$loki":50},{"_id":"5c3d65bd3525a329e0c0d772","address":"2140 Keating Cross Road","location":{"type":"Point","coordinates":[-123.2513908,48.8451153]},"isApproved":true,"items":[],"keys":["Mexican"],"lastUpdated":1547527612554,"name":"Adriana’s - The Whole Enchilada","phone":"(250) 652-7767","price":"","reviewCount":2,"reviewScore":4.5,"meta":{"revision":0,"created":1547531155792,"version":0},"$loki":51},{"_id":"5c3d65bd3525a329e0c078dc","address":"10 Fan-Tan Alley","location":{"type":"Point","coordinates":[-123.347217,48.8906268]},"isApproved":true,"items":[],"keys":["Ice Cream & Frozen Yogurt","Desserts","Vegan"],"lastUpdated":1547527612408,"name":"Kid Sister","phone":"(250) 590-6888","price":"$","reviewCount":36,"reviewScore":4.5,"meta":{"revision":0,"created":1547531155792,"version":0},"$loki":52},{"_id":"5c3d65bd3525a329e0c081c3","address":"609 Yates Street","location":{"type":"Point","coordinates":[-123.34700820217,48.8898738472546]},"isApproved":true,"items":[],"keys":["Polish"],"lastUpdated":1547527612419,"name":"Sult Pierogi Bar","phone":"(778) 265-7858","price":"$$","reviewCount":58,"reviewScore":4,"meta":{"revision":0,"created":1547531155792,"version":0},"$loki":53},{"_id":"5c3d65bd3525a329e0c181ae","address":"1019 Blanshard Street","location":{"type":"Point","coordinates":[-123.351950459182,48.8879821662465]},"isApproved":true,"items":[],"keys":["Vegan","Vegetarian","Gluten-Free"],"lastUpdated":1547527612809,"name":"Be Love","phone":"(778) 433-7181","price":"$$","reviewCount":107,"reviewScore":4,"meta":{"revision":0,"created":1547531155792,"version":0},"$loki":54},{"_id":"5c3d65bd3525a329e0c02a32","address":"1150 Douglas St","location":{"type":"Point","coordinates":[-123.319889120446,48.8791836097374]},"isApproved":true,"items":[],"keys":["Korean","Barbeque"],"lastUpdated":1547527612286,"name":"Koryo Korean BBQ","phone":"(250) 952-5690","price":"$$","reviewCount":7,"reviewScore":3.5,"meta":{"revision":0,"created":1547531155792,"version":0},"$loki":55},{"_id":"5c3d65bd3525a329e0c014e5","address":"140-156 Johnson Street","location":{"type":"Point","coordinates":[-123.320460319519,48.879301209177]},"isApproved":true,"items":[],"keys":["Indonesian"],"lastUpdated":1547527612249,"name":"Ayo Eat","phone":"(250) 590-4231","price":"$","reviewCount":39,"reviewScore":4.5,"meta":{"revision":0,"created":1547531155792,"version":0},"$loki":56},{"_id":"5c3d65bd3525a329e0c0c0bb","address":"104-1175 Cook Street","location":{"type":"Point","coordinates":[-123.3186212,48.8790834]},"isApproved":true,"items":[],"keys":["Bakeries","Coffee & Tea","Sandwiches"],"lastUpdated":1547527612516,"name":"Tooks On Cook","phone":"(250) 386-5512","price":"","reviewCount":10,"reviewScore":4,"meta":{"revision":0,"created":1547531155792,"version":0},"$loki":57},{"_id":"5c3d65bd3525a329e0c015dc","address":"1 Dallas Road","location":{"type":"Point","coordinates":[-123.31944877993,48.878955018326]},"isApproved":true,"items":[],"keys":["Seafood Markets","Seafood"],"lastUpdated":1547527612250,"name":"The Fish Store","phone":"(250) 383-6462","price":"$$","reviewCount":137,"reviewScore":4,"meta":{"revision":0,"created":1547531155792,"version":0},"$loki":58},{"_id":"5c3d65bd3525a329e0c03090","address":"605 Yates Street","location":{"type":"Point","coordinates":[-123.3188505,48.8772191]},"isApproved":true,"items":[],"keys":["Chinese","Cafes","Breakfast & Brunch"],"lastUpdated":1547527612295,"name":"Frank’s Honeybun Cafe","phone":"(250) 383-3231","price":"$","reviewCount":44,"reviewScore":4,"meta":{"revision":0,"created":1547531155792,"version":0},"$loki":59},{"_id":"5c3d65bd3525a329e0c12290","address":"2187 Oak Bay Ave","location":{"type":"Point","coordinates":[-123.317877794968,48.8770785323406]},"isApproved":true,"items":[],"keys":["Seafood"],"lastUpdated":1547527612669,"name":"Palmer’s Restaurant","phone":"(250) 598-1100","price":"","reviewCount":1,"reviewScore":5,"meta":{"revision":0,"created":1547531155792,"version":0},"$loki":60},{"_id":"5c3d65bd3525a329e0c184af","address":"3147 Douglas Street","location":{"type":"Point","coordinates":[-123.31661939621,48.877741854942]},"isApproved":true,"items":[],"keys":["Greek","Fast Food"],"lastUpdated":1547527612814,"name":"OPA! of Greece Mayfair Centre","phone":"(250) 590-4344","price":"$$","reviewCount":7,"reviewScore":4.5,"meta":{"revision":0,"created":1547531155792,"version":0},"$loki":61},{"_id":"5c3d65bd3525a329e0c0f612","address":"506 Fort Street","location":{"type":"Point","coordinates":[-123.3897319,48.8924913]},"isApproved":true,"items":[],"keys":["Canadian (New)","Bars"],"lastUpdated":1547527612598,"name":"Little Jumbo","phone":"(778) 433-5535","price":"$$","reviewCount":172,"reviewScore":4.5,"meta":{"revision":0,"created":1547531155792,"version":0},"$loki":62},{"_id":"5c3d65bd3525a329e0c0835b","address":"3451 Montague Road","location":{"type":"Point","coordinates":[-123.441472,48.9236469]},"isApproved":true,"items":[],"keys":["Seafood"],"lastUpdated":1547527612420,"name":"The Crane and Robin","phone":"(250) 539-3334","price":"","reviewCount":21,"reviewScore":4.5,"meta":{"revision":0,"created":1547531155792,"version":0},"$loki":63},{"_id":"5c3d65bd3525a329e0c118c0","address":"3800 Finnerty Road","location":{"type":"Point","coordinates":[-123.6333845,48.6358543]},"isApproved":true,"items":[],"keys":["Pubs","Desserts","Burgers"],"lastUpdated":1547527612650,"name":"Felicita’s Campus Pub","phone":"(250) 721-8626","price":"$","reviewCount":10,"reviewScore":3.5,"meta":{"revision":0,"created":1547531155792,"version":0},"$loki":64},{"_id":"5c3d65bd3525a329e0c137c1","address":"1028 Hillside Avenue","location":{"type":"Point","coordinates":[-123.6333845,48.6358543]},"isApproved":true,"items":[],"keys":["American (Traditional)","Pubs"],"lastUpdated":1547527612697,"name":"5th Street Bar & Woodfire Grill","phone":"(250) 380-4600","price":"$$","reviewCount":61,"reviewScore":3.5,"meta":{"revision":0,"created":1547531155792,"version":0},"$loki":65},{"_id":"5c3d65bd3525a329e0c08975","address":"72 Cowichan Lake Road","location":{"type":"Point","coordinates":[-123.5869335,48.6644855]},"isApproved":true,"items":[],"keys":["Breakfast & Brunch","American (Traditional)"],"lastUpdated":1547527612429,"name":"Shaker Mill","phone":"(250) 749-6350","price":"$$","reviewCount":6,"reviewScore":4,"meta":{"revision":0,"created":1547531155792,"version":0},"$loki":66},{"_id":"5c3d65bd3525a329e0c12afd","address":"6686 Sooke Road","location":{"type":"Point","coordinates":[-123.587446,48.6601469]},"isApproved":true,"items":[],"keys":["Canadian (New)"],"lastUpdated":1547527612680,"name":"Route 14 Sooke","phone":"(778) 352-1414","price":"$$","reviewCount":18,"reviewScore":4,"meta":{"revision":0,"created":1547531155792,"version":0},"$loki":67},{"_id":"5c3d65bd3525a329e0c0b0e5","address":"2320 Harbour Rd","location":{"type":"Point","coordinates":[-123.6222304,48.6530681]},"isApproved":true,"items":[],"keys":["Canadian (New)","Breakfast & Brunch","Seafood"],"lastUpdated":1547527612497,"name":"Sea Glass Waterfront Grill","phone":"(778) 351-3663","price":"$$","reviewCount":49,"reviewScore":4,"meta":{"revision":0,"created":1547531155792,"version":0},"$loki":68},{"_id":"5c3d65bd3525a329e0c0f4d8","address":"17310 Parkinson Road","location":{"type":"Point","coordinates":[-123.6222304,48.6530681]},"isApproved":true,"items":[],"keys":["Fish & Chips","Pubs","Steakhouses"],"lastUpdated":1547527612592,"name":"The Renfrew Pub","phone":"(250) 647-5541","price":"$$","reviewCount":18,"reviewScore":4.5,"meta":{"revision":0,"created":1547531155792,"version":0},"$loki":69},{"_id":"5c3d65bd3525a329e0c1936f","address":"1852 Canso Rd","location":{"type":"Point","coordinates":[-123.6234604,48.6534986]},"isApproved":true,"items":[],"keys":["Caterers","Cafes"],"lastUpdated":1547527612834,"name":"Dakota Cafe","phone":"(250) 655-9395","price":"","reviewCount":3,"reviewScore":3.5,"meta":{"revision":0,"created":1547531155792,"version":0},"$loki":70},{"_id":"5c3d65bd3525a329e0c1a209","address":"2750 Shawnigan Lake road","location":{"type":"Point","coordinates":[-123.6231759,48.6536798]},"isApproved":true,"items":[],"keys":["Sushi Bars"],"lastUpdated":1547527612858,"name":"Shawnigan Jen’s Sushi","phone":"(250) 743-1669","price":"","reviewCount":4,"reviewScore":4.5,"meta":{"revision":0,"created":1547531155792,"version":0},"$loki":71},{"_id":"5c3d65bd3525a329e0c02899","address":"C- 845 Deloume Road - Mill Bay","location":{"type":"Point","coordinates":[-123.5616409,48.6518014]},"isApproved":true,"items":[],"keys":["Pizza","Chicken Wings","Salad"],"lastUpdated":1547527612285,"name":"Panago Pizza","phone":"(866) 310-0001","price":"","reviewCount":1,"reviewScore":1,"meta":{"revision":0,"created":1547531155792,"version":0},"$loki":72},{"_id":"5c3d65bd3525a329e0c1410b","address":"828 Deloume Road","location":{"type":"Point","coordinates":[-123.5604531,48.651869]},"isApproved":true,"items":[],"keys":["Fast Food","Burgers"],"lastUpdated":1547527612707,"name":"A&W","phone":"(250) 743-1607","price":"","reviewCount":2,"reviewScore":1,"meta":{"revision":0,"created":1547531155792,"version":0},"$loki":73},{"_id":"5c3d65bd3525a329e0c0d00f","address":"2750 Shawnigan Lake Road","location":{"type":"Point","coordinates":[-123.560785290596,48.6524745479725]},"isApproved":true,"items":[],"keys":["Pizza"],"lastUpdated":1547527612539,"name":"Sarpino’s Pizzeria","phone":"(250) 743-1110","price":"","reviewCount":0,"reviewScore":0,"meta":{"revision":0,"created":1547531155792,"version":0},"$loki":74},{"_id":"5c3d65bd3525a329e0c0d7a6","address":"626 Fisgard Street","location":{"type":"Point","coordinates":[-123.5589055,48.6506301]},"isApproved":true,"items":[],"keys":["Asian Fusion","Chinese","Japanese"],"lastUpdated":1547527612554,"name":"Bao","phone":"(250) 590-8688","price":"$$","reviewCount":67,"reviewScore":4.5,"meta":{"revision":0,"created":1547531155792,"version":0},"$loki":75},{"_id":"5c3d65bd3525a329e0bff62e","address":"803 Deloume Road","location":{"type":"Point","coordinates":[-123.5571899,48.6505297]},"isApproved":true,"items":[],"keys":["Cafes","Breakfast & Brunch"],"lastUpdated":1547527612217,"name":"Rusticana Coffee","phone":"(250) 743-6940","price":"$","reviewCount":8,"reviewScore":4,"meta":{"revision":0,"created":1547531155792,"version":0},"$loki":76},{"_id":"5c3d65bd3525a329e0c00655","address":"5447 Rocky Point Road","location":{"type":"Point","coordinates":[-123.5528108,48.6498588]},"isApproved":true,"items":[],"keys":["Sandwiches","Tea Rooms","Breakfast & Brunch"],"lastUpdated":1547527612227,"name":"Glenrosa Farm Restaurant","phone":"(250) 478-6186","price":"$$","reviewCount":16,"reviewScore":4.5,"meta":{"revision":0,"created":1547531155792,"version":0},"$loki":77},{"_id":"5c3d65bd3525a329e0c162c3","address":"1669 Pear Street","location":{"type":"Point","coordinates":[-123.557745494517,48.6515463345617]},"isApproved":true,"items":[],"keys":["Vietnamese"],"lastUpdated":1547527612763,"name":"Pho Ever","phone":"(250) 388-0028","price":"$$","reviewCount":43,"reviewScore":3.5,"meta":{"revision":0,"created":1547531155792,"version":0},"$loki":78},{"_id":"5c3d65bd3525a329e0c0c38a","address":"325 Fernwood Road","location":{"type":"Point","coordinates":[-123.55773902928,48.6521609067957]},"isApproved":true,"items":[],"keys":["Cafes","Desserts"],"lastUpdated":1547527612523,"name":"Fernwood Road Cafe","phone":"(250) 931-2233","price":"$","reviewCount":9,"reviewScore":4.5,"meta":{"revision":0,"created":1547531155792,"version":0},"$loki":79},{"_id":"5c3d65bd3525a329e0c101e1","address":"3345 Trans Canada Highway","location":{"type":"Point","coordinates":[-123.5681675,48.6796302]},"isApproved":true,"items":[],"keys":["Pizza"],"lastUpdated":1547527612610,"name":"Moo’s Pizza","phone":"(250) 929-2811","price":"","reviewCount":3,"reviewScore":5,"meta":{"revision":0,"created":1547531155792,"version":0},"$loki":80},{"_id":"5c3d65bd3525a329e0bfff02","address":"1245 Wharf Street","location":{"type":"Point","coordinates":[-123.5514524,48.6885665]},"isApproved":true,"items":[],"keys":["Canadian (New)"],"lastUpdated":1547527612223,"name":"The Flying Pig","phone":"(250) 483-3814","price":"","reviewCount":19,"reviewScore":4.5,"meta":{"revision":0,"created":1547531155792,"version":0},"$loki":81},{"_id":"5c3d65bd3525a329e0c09ebb","address":"11190 Chalet Rd","location":{"type":"Point","coordinates":[-123.472786,48.68689]},"isApproved":true,"items":[],"keys":["French"],"lastUpdated":1547527612471,"name":"The Chalet Deep Cove","phone":"(250) 656-3541","price":"$$$","reviewCount":19,"reviewScore":4.5,"meta":{"revision":0,"created":1547531155792,"version":0},"$loki":82},{"_id":"5c3d65bd3525a329e0c12765","address":"450 Swift Street","location":{"type":"Point","coordinates":[-123.565207,48.712316]},"isApproved":true,"items":[],"keys":["Canadian (New)","Venues & Event Spaces","Brewpubs"],"lastUpdated":1547527612672,"name":"Canoe Brewpub Marina & Restaurant","phone":"(250) 361-1940","price":"$$","reviewCount":171,"reviewScore":3.5,"meta":{"revision":0,"created":1547531155792,"version":0},"$loki":83},{"_id":"5c3d65bd3525a329e0c0db39","address":"2800 Jacklin Road","location":{"type":"Point","coordinates":[-123.607988263043,48.7115905499045]},"isApproved":true,"items":[],"keys":["Thai"],"lastUpdated":1547527612556,"name":"Sabhai Thai","phone":"(250) 590-5039","price":"$$","reviewCount":42,"reviewScore":4,"meta":{"revision":0,"created":1547531155792,"version":0},"$loki":84},{"_id":"5c3d65bd3525a329e0c085a2","address":"9875 Maple Street","location":{"type":"Point","coordinates":[-123.603238239884,48.6865124967277]},"isApproved":true,"items":[],"keys":["Thai"],"lastUpdated":1547527612427,"name":"Thai Pinto","phone":"(250) 324-8424","price":"","reviewCount":1,"reviewScore":5,"meta":{"revision":0,"created":1547531155792,"version":0},"$loki":85},{"_id":"5c3d65bd3525a329e0c05d32","address":"9100 E Saanich Road","location":{"type":"Point","coordinates":[-123.6030889,48.6883499]},"isApproved":true,"items":[],"keys":["Bakeries","Bistros"],"lastUpdated":1547527612361,"name":"The Roost Vineyard Bistro & Farm Bakery","phone":"(250) 655-0075","price":"$$","reviewCount":78,"reviewScore":4,"meta":{"revision":0,"created":1547531155792,"version":0},"$loki":86},{"_id":"5c3d65bd3525a329e0c05f5f","address":"4801 Trans Canada Highway","location":{"type":"Point","coordinates":[-123.660195,48.743675]},"isApproved":true,"items":[],"keys":["Auto Repair"],"lastUpdated":1547527612367,"name":"Master Mechanic Auto Repair","phone":"(250) 746-6646","price":"","reviewCount":0,"reviewScore":0,"meta":{"revision":0,"created":1547531155792,"version":0},"$loki":87},{"_id":"5c3d65bd3525a329e0c0b307","address":"102-716 Goldstream Avenue","location":{"type":"Point","coordinates":[-123.6517311538,48.7387569597558]},"isApproved":true,"items":[],"keys":["Burgers"],"lastUpdated":1547527612498,"name":"Bin 4 Burger Lounge","phone":"(778) 265-5464","price":"$$","reviewCount":45,"reviewScore":4,"meta":{"revision":0,"created":1547531155792,"version":0},"$loki":88},{"_id":"5c3d65bd3525a329e0c0896d","address":"2976 Mill Street","location":{"type":"Point","coordinates":[-123.6506222,48.7373872]},"isApproved":true,"items":[],"keys":["Gluten-Free","Cafes"],"lastUpdated":1547527612429,"name":"Odika Restaurant","phone":"(250) 324-3303","price":"$$","reviewCount":21,"reviewScore":4,"meta":{"revision":0,"created":1547531155792,"version":0},"$loki":89},{"_id":"5c3d65bd3525a329e0c146f5","address":"2740 Dundas Road","location":{"type":"Point","coordinates":[-123.6214695,48.740618]},"isApproved":true,"items":[],"keys":["Seafood","British","Burgers"],"lastUpdated":1547527612716,"name":"Village Chippery","phone":"(250) 929-8886","price":"$","reviewCount":8,"reviewScore":4,"meta":{"revision":0,"created":1547531155792,"version":0},"$loki":90},{"_id":"5c3d65bd3525a329e0bffb48","address":"1751 Cowichan Bay Road","location":{"type":"Point","coordinates":[-123.6210772,48.7405703]},"isApproved":true,"items":[],"keys":["Burgers","Latin American","Seafood"],"lastUpdated":1547527612220,"name":"Rob’s Lighthouse Eatery","phone":"(250) 597-2006","price":"","reviewCount":3,"reviewScore":4.5,"meta":{"revision":0,"created":1547531155792,"version":0},"$loki":91},{"_id":"5c3d65bd3525a329e0c17216","address":"1705 Cowichan Bay Rd","location":{"type":"Point","coordinates":[-123.6185331,48.740453]},"isApproved":true,"items":[],"keys":["American (Traditional)"],"lastUpdated":1547527612783,"name":"Masthead Restaurant","phone":"(250) 748-3714","price":"$$$","reviewCount":11,"reviewScore":4,"meta":{"revision":0,"created":1547531155792,"version":0},"$loki":92},{"_id":"5c3d65bd3525a329e0c1afdb","address":"1681 Cowichan Bay Road","location":{"type":"Point","coordinates":[-123.6173331,48.7402223]},"isApproved":true,"items":[],"keys":["Seafood","Canadian (New)"],"lastUpdated":1547527612876,"name":"Cow Cafe West Coast Grill","phone":"(250) 597-4353","price":"$$","reviewCount":17,"reviewScore":3,"meta":{"revision":0,"created":1547531155792,"version":0},"$loki":93},{"_id":"5c3d65bd3525a329e0c070a8","address":"2423 Beacon Avenue","location":{"type":"Point","coordinates":[-123.619608380673,48.7404085047007]},"isApproved":true,"items":[],"keys":["Restaurants"],"lastUpdated":1547527612389,"name":"Red Brick Cafe","phone":"(250) 655-1822","price":"$","reviewCount":6,"reviewScore":2.5,"meta":{"revision":0,"created":1547531155792,"version":0},"$loki":94},{"_id":"5c3d65bd3525a329e0c070a5","address":"6145 Genoa Bay Road","location":{"type":"Point","coordinates":[-123.598559,48.7590365]},"isApproved":true,"items":[],"keys":["Seafood","Pubs"],"lastUpdated":1547527612389,"name":"Shipyard Restaurant","phone":"(250) 746-1026","price":"$$","reviewCount":7,"reviewScore":4,"meta":{"revision":0,"created":1547531155792,"version":0},"$loki":95},{"_id":"5c3d65bd3525a329e0c100b1","address":"2215 Canoe Cove Road","location":{"type":"Point","coordinates":[-123.598509,48.758869]},"isApproved":true,"items":[],"keys":["Canadian (New)","Pubs","Pizza"],"lastUpdated":1547527612610,"name":"Stonehouse Restaurant","phone":"(778) 351-1133","price":"$$","reviewCount":35,"reviewScore":4.5,"meta":{"revision":0,"created":1547531155792,"version":0},"$loki":96},{"_id":"5c3d65bd3525a329e0c09b2b","address":"5965 Genoa Bay Road","location":{"type":"Point","coordinates":[-123.59993,48.789266]},"isApproved":true,"items":[],"keys":["Waffles"],"lastUpdated":1547527612464,"name":"Vancouver Island Waffle & Cone Company","phone":"(250) 748-8599","price":"","reviewCount":0,"reviewScore":0,"meta":{"revision":0,"created":1547531155792,"version":0},"$loki":97},{"_id":"5c3d65bd3525a329e0c0cbce","address":"6777 Beaumont Avenue","location":{"type":"Point","coordinates":[-123.6026926,48.7949718]},"isApproved":true,"items":[],"keys":["Scottish","Pubs","British"],"lastUpdated":1547527612533,"name":"The Lion Rampant Scottish Pub","phone":"(250) 746-5422","price":"$$","reviewCount":8,"reviewScore":3.5,"meta":{"revision":0,"created":1547531155792,"version":0},"$loki":98},{"_id":"5c3d65bd3525a329e0c0f2f0","address":"108-2000 Cadboro Bay Road","location":{"type":"Point","coordinates":[-123.6884976,48.7612475]},"isApproved":true,"items":[],"keys":["Coffee & Tea","Bakeries","Gluten-Free"],"lastUpdated":1547527612591,"name":"Taste - A Place for Coffee","phone":"(778) 265-6205","price":"$","reviewCount":6,"reviewScore":4.5,"meta":{"revision":0,"created":1547531155792,"version":0},"$loki":99},{"_id":"5c3d65bd3525a329e0c0424b","address":"31 Frontier Street","location":{"type":"Point","coordinates":[-123.6958955,48.7657421]},"isApproved":true,"items":[],"keys":["Bars","American (Traditional)"],"lastUpdated":1547527612321,"name":"Clallam Bay Inn","phone":"(360) 963-2759","price":"","reviewCount":1,"reviewScore":4,"meta":{"revision":0,"created":1547531155792,"version":0},"$loki":100},{"_id":"5c3d65bd3525a329e0c0df7a","address":"140 Trans Canada Highway","location":{"type":"Point","coordinates":[-123.6982705,48.7740709]},"isApproved":true,"items":[],"keys":["Breakfast & Brunch","Burgers"],"lastUpdated":1547527612564,"name":"The Old Fork","phone":"(250) 597-3027","price":"$$","reviewCount":27,"reviewScore":4,"meta":{"revision":0,"created":1547531155792,"version":0},"$loki":101},{"_id":"5c3d65bd3525a329e0c01ab9","address":"180 Trans-Canada Highway","location":{"type":"Point","coordinates":[-123.6981024,48.775415]},"isApproved":true,"items":[],"keys":["Pizza","Italian"],"lastUpdated":1547527612257,"name":"Romeo’s Restaurant","phone":"(250) 746-9944","price":"$$","reviewCount":6,"reviewScore":2.5,"meta":{"revision":0,"created":1547531155792,"version":0},"$loki":102},{"_id":"5c3d65bd3525a329e0c11153","address":"Island Highway","location":{"type":"Point","coordinates":[-123.698392064636,48.7762531645972]},"isApproved":true,"items":[],"keys":["Asian Fusion"],"lastUpdated":1547527612641,"name":"Asiana Pho","phone":"","price":"$$","reviewCount":0,"reviewScore":0,"meta":{"revision":0,"created":1547531155792,"version":0},"$loki":103},{"_id":"5c3d65bd3525a329e0c02272","address":"2400 Bevan Avenue","location":{"type":"Point","coordinates":[-123.698479113678,48.7762877875048]},"isApproved":true,"items":[],"keys":["Soup","Cafes","Italian"],"lastUpdated":1547527612276,"name":"La Pignatta","phone":"(250) 665-6234","price":"","reviewCount":2,"reviewScore":5,"meta":{"revision":0,"created":1547531155792,"version":0},"$loki":104},{"_id":"5c3d65bd3525a329e0c0cc1d","address":"1567 Cedar Hill Cross Road","location":{"type":"Point","coordinates":[-123.6984188,48.7762781]},"isApproved":true,"items":[],"keys":["Fast Food","Burgers"],"lastUpdated":1547527612533,"name":"McDonald’s","phone":"(250) 952-3610","price":"$","reviewCount":3,"reviewScore":3,"meta":{"revision":0,"created":1547531155792,"version":0},"$loki":105},{"_id":"5c3d65bd3525a329e0c1a58e","address":"2800 Bryn Maur Rd","location":{"type":"Point","coordinates":[-123.698407171309,48.7758204812705]},"isApproved":true,"items":[],"keys":["American (Traditional)","Breakfast & Brunch","Diners"],"lastUpdated":1547527612860,"name":"Fountain Diner","phone":"(250) 590-6130","price":"$$","reviewCount":9,"reviewScore":3,"meta":{"revision":0,"created":1547531155792,"version":0},"$loki":106},{"_id":"5c3d65bd3525a329e0c08d36","address":"250 Trans Canada Highway","location":{"type":"Point","coordinates":[-123.698471675808,48.7757442092025]},"isApproved":true,"items":[],"keys":["Fish & Chips"],"lastUpdated":1547527612437,"name":"Salty’s Fish & Chips","phone":"(250) 715-1118","price":"$$","reviewCount":3,"reviewScore":4,"meta":{"revision":0,"created":1547531155792,"version":0},"$loki":107},{"_id":"5c3d65bd3525a329e0c0f059","address":"919 Fort Street","location":{"type":"Point","coordinates":[-123.699878784973,48.7763806336097]},"isApproved":true,"items":[],"keys":["Breakfast & Brunch"],"lastUpdated":1547527612590,"name":"Blue Fox Cafe","phone":"(250) 380-1683","price":"$$","reviewCount":634,"reviewScore":4.5,"meta":{"revision":0,"created":1547531155792,"version":0},"$loki":108},{"_id":"5c3d65bd3525a329e0c00b4c","address":"1215 Esquimalt Road","location":{"type":"Point","coordinates":[-123.700679521666,48.7756290436704]},"isApproved":true,"items":[],"keys":["Fast Food","Burgers","Hot Dogs"],"lastUpdated":1547527612230,"name":"La Belle Patate","phone":"(250) 220-8427","price":"$","reviewCount":49,"reviewScore":3.5,"meta":{"revision":0,"created":1547531155792,"version":0},"$loki":109},{"_id":"5c3d65bd3525a329e0c15b4b","address":"9320 Trans Canada Hwy","location":{"type":"Point","coordinates":[-123.699300549924,48.7738402227172]},"isApproved":true,"items":[],"keys":["Modern European"],"lastUpdated":1547527612753,"name":"Haida Way","phone":"(250) 246-3841","price":"","reviewCount":5,"reviewScore":3,"meta":{"revision":0,"created":1547531155792,"version":0},"$loki":110},{"_id":"5c3d65bd3525a329e0c11787","address":"832 Cormorant Street","location":{"type":"Point","coordinates":[-123.7014111,48.7749673]},"isApproved":true,"items":[],"keys":["Canadian (New)"],"lastUpdated":1547527612650,"name":"The Gathering Place Cafe","phone":"(250) 384-6774","price":"","reviewCount":2,"reviewScore":4,"meta":{"revision":0,"created":1547531155792,"version":0},"$loki":111},{"_id":"5c3d65bd3525a329e0c1876f","address":"4596 West Sannich Rd","location":{"type":"Point","coordinates":[-123.7040449,48.7743988]},"isApproved":true,"items":[],"keys":["Sushi Bars"],"lastUpdated":1547527612821,"name":"Dragon Roll&sushi Market","phone":"(778) 265-7773","price":"","reviewCount":6,"reviewScore":3,"meta":{"revision":0,"created":1547531155792,"version":0},"$loki":112},{"_id":"5c3d65bd3525a329e0c18e3c","address":"1883 Fort Street","location":{"type":"Point","coordinates":[-123.7060017,48.7646376]},"isApproved":true,"items":[],"keys":["Caterers","Cafes"],"lastUpdated":1547527612831,"name":"Cooks Day Off","phone":"(250) 598-3228","price":"","reviewCount":6,"reviewScore":4.5,"meta":{"revision":0,"created":1547531155792,"version":0},"$loki":113},{"_id":"5c3d65bd3525a329e0c19810","address":"9762 Willow Street","location":{"type":"Point","coordinates":[-123.7309138,48.7579197]},"isApproved":true,"items":[],"keys":["Diners","Breakfast & Brunch","Fish & Chips"],"lastUpdated":1547527612842,"name":"Bonnie Martins","phone":"","price":"$$","reviewCount":5,"reviewScore":3.5,"meta":{"revision":0,"created":1547531155792,"version":0},"$loki":114},{"_id":"5c3d65bd3525a329e0c06870","address":"2466 Beacon Avenue","location":{"type":"Point","coordinates":[-123.7061968,48.8368444]},"isApproved":true,"items":[],"keys":["Breakfast & Brunch"],"lastUpdated":1547527612378,"name":"3rd St Cafe","phone":"(250) 656-3035","price":"$$","reviewCount":52,"reviewScore":4,"meta":{"revision":0,"created":1547531155792,"version":0},"$loki":115},{"_id":"5c3d65bd3525a329e0c0963c","address":"726 Johnson St","location":{"type":"Point","coordinates":[-123.71669601649,48.8045855062532]},"isApproved":true,"items":[],"keys":["Korean"],"lastUpdated":1547527612454,"name":"You-Know Korean Restaurant","phone":"(250) 388-4338","price":"","reviewCount":0,"reviewScore":0,"meta":{"revision":0,"created":1547531155792,"version":0},"$loki":116},{"_id":"5c3d65bd3525a329e0c10787","address":"2900 Drinkwater Road","location":{"type":"Point","coordinates":[-123.7172039889,48.8019240039875]},"isApproved":true,"items":[],"keys":["Burgers"],"lastUpdated":1547527612619,"name":"Triple-O’s","phone":"(250) 715-1146","price":"","reviewCount":1,"reviewScore":1,"meta":{"revision":0,"created":1547531155792,"version":0},"$loki":117},{"_id":"5c3d65bd3525a329e0c1878d","address":"1150 Douglas Street","location":{"type":"Point","coordinates":[-123.7212841,48.8005951]},"isApproved":true,"items":[],"keys":["Fast Food","Burgers"],"lastUpdated":1547527612821,"name":"A&W","phone":"(250) 383-3811","price":"","reviewCount":3,"reviewScore":4,"meta":{"revision":0,"created":1547531155792,"version":0},"$loki":118},{"_id":"5c3d65bd3525a329e0c041be","address":"3501 Ravine Way","location":{"type":"Point","coordinates":[-123.7221465,48.8023735]},"isApproved":true,"items":[],"keys":["Cafes"],"lastUpdated":1547527612320,"name":"Tim Hortons","phone":"(250) 475-1211","price":"","reviewCount":3,"reviewScore":1.5,"meta":{"revision":0,"created":1547531155792,"version":0},"$loki":119},{"_id":"5c3d65bd3525a329e0c05c28","address":"97 Georgeson Bay Road","location":{"type":"Point","coordinates":[-123.707985219574,48.7853537202505]},"isApproved":true,"items":[],"keys":["Street Vendors","Asian Fusion"],"lastUpdated":1547527612356,"name":"Flying Black Dog","phone":"","price":"$$","reviewCount":4,"reviewScore":4.5,"meta":{"revision":0,"created":1547531155792,"version":0},"$loki":120},{"_id":"5c3d65bd3525a329e0c03de2","address":"2921 Fulford-Ganges Rd","location":{"type":"Point","coordinates":[-123.7178492,48.7853171]},"isApproved":true,"items":[],"keys":["Canadian (New)"],"lastUpdated":1547527612313,"name":"Rock Salt Restaurant","phone":"(250) 653-4833","price":"$$","reviewCount":31,"reviewScore":4,"meta":{"revision":0,"created":1547531155792,"version":0},"$loki":121},{"_id":"5c3d65bd3525a329e0c0daf4","address":"5838 Trans Canada Highway","location":{"type":"Point","coordinates":[-123.706883939926,48.7775395314667]},"isApproved":true,"items":[],"keys":["Fast Food","Burgers"],"lastUpdated":1547527612556,"name":"A&W","phone":"(250) 748-7889","price":"","reviewCount":2,"reviewScore":2,"meta":{"revision":0,"created":1547531155792,"version":0},"$loki":122},{"_id":"5c3d65bd3525a329e0c03be5","address":"Suite 102-80 Station Street","location":{"type":"Point","coordinates":[-123.707649,48.777656]},"isApproved":true,"items":[],"keys":["Coffee & Tea","Bakeries","Sandwiches"],"lastUpdated":1547527612312,"name":"The Twisted Mug Cafe","phone":"(250) 737-1200","price":"","reviewCount":2,"reviewScore":3,"meta":{"revision":0,"created":1547531155792,"version":0},"$loki":123},{"_id":"5c3d65bd3525a329e0c10fb3","address":"102 Craig Street","location":{"type":"Point","coordinates":[-123.7080594,48.7772477]},"isApproved":true,"items":[],"keys":["Desserts","Ice Cream & Frozen Yogurt","Hot Dogs"],"lastUpdated":1547527612640,"name":"The Big Scoop","phone":"(250) 896-7964","price":"","reviewCount":0,"reviewScore":0,"meta":{"revision":0,"created":1547531155792,"version":0},"$loki":124},{"_id":"5c3d65bd3525a329e0c0aa81","address":"505 Quayle Road","location":{"type":"Point","coordinates":[-123.7084749,48.7774016]},"isApproved":true,"items":[],"keys":["Cafes","Gluten-Free"],"lastUpdated":1547527612489,"name":"Charlotte & The Quail","phone":"(250) 590-6346","price":"$$","reviewCount":16,"reviewScore":4,"meta":{"revision":0,"created":1547531155792,"version":0},"$loki":125},{"_id":"5c3d65bd3525a329e0c085dd","address":"735 Goldstream Avenue","location":{"type":"Point","coordinates":[-123.7094487,48.7777533]},"isApproved":true,"items":[],"keys":["Mexican"],"lastUpdated":1547527612427,"name":"Three Gringos Mexican Grill","phone":"(250) 391-4047","price":"$$","reviewCount":12,"reviewScore":4,"meta":{"revision":0,"created":1547531155792,"version":0},"$loki":126},{"_id":"5c3d65bd3525a329e0c01357","address":"101 1150 Douglas Street","location":{"type":"Point","coordinates":[-123.7088,48.777881]},"isApproved":true,"items":[],"keys":["Juice Bars & Smoothies","Salad","Acai Bowls"],"lastUpdated":1547527612248,"name":"Jugo Juice","phone":"(250) 590-8846","price":"","reviewCount":1,"reviewScore":3,"meta":{"revision":0,"created":1547531155792,"version":0},"$loki":127},{"_id":"5c3d65bd3525a329e0c0bf29","address":"854 Langford Parkway","location":{"type":"Point","coordinates":[-123.708171,48.778104]},"isApproved":true,"items":[],"keys":["Fast Food","Burgers"],"lastUpdated":1547527612516,"name":"McDonald’s","phone":"(250) 915-0468","price":"","reviewCount":1,"reviewScore":5,"meta":{"revision":0,"created":1547531155792,"version":0},"$loki":128},{"_id":"5c3d65bd3525a329e0c041d2","address":"4675 Trans Canada Hwy","location":{"type":"Point","coordinates":[-123.709504,48.778716]},"isApproved":true,"items":[],"keys":["Breakfast & Brunch"],"lastUpdated":1547527612320,"name":"Pioneer House","phone":"(250) 746-5848","price":"$$","reviewCount":12,"reviewScore":3.5,"meta":{"revision":0,"created":1547531155792,"version":0},"$loki":129},{"_id":"5c3d65bd3525a329e0c048dd","address":"1701 Douglas Street","location":{"type":"Point","coordinates":[-123.709504,48.778716]},"isApproved":true,"items":[],"keys":["Sandwiches","Meat Shops"],"lastUpdated":1547527612330,"name":"Roast","phone":"(778) 433-6639","price":"$$","reviewCount":34,"reviewScore":4,"meta":{"revision":0,"created":1547531155792,"version":0},"$loki":130},{"_id":"5c3d65bd3525a329e0c100d5","address":"1127 Haultain Street","location":{"type":"Point","coordinates":[-123.710338,48.7785769]},"isApproved":true,"items":[],"keys":["Fish & Chips"],"lastUpdated":1547527612610,"name":"Haultain Fish & Chips","phone":"(250) 383-8332","price":"$$","reviewCount":20,"reviewScore":4,"meta":{"revision":0,"created":1547531155792,"version":0},"$loki":131},{"_id":"5c3d65bd3525a329e0c13a74","address":"2630 Bridge St","location":{"type":"Point","coordinates":[-123.7107983,48.7784586]},"isApproved":true,"items":[],"keys":["Chinese","Canadian (New)"],"lastUpdated":1547527612698,"name":"The Red Kettle Restaurant","phone":"(250) 388-3966","price":"$","reviewCount":2,"reviewScore":3,"meta":{"revision":0,"created":1547531155792,"version":0},"$loki":132},{"_id":"5c3d65bd3525a329e0c1263b","address":"187 Kenneth Street","location":{"type":"Point","coordinates":[-123.7100537,48.7787151]},"isApproved":true,"items":[],"keys":["Chinese"],"lastUpdated":1547527612671,"name":"Woodland Chinese Restaurant","phone":"(250) 746-9328","price":"$$","reviewCount":6,"reviewScore":3,"meta":{"revision":0,"created":1547531155792,"version":0},"$loki":133},{"_id":"5c3d65bd3525a329e0c1a316","address":"2640 Sturdies Bay Road","location":{"type":"Point","coordinates":[-123.710527,48.7792661]},"isApproved":true,"items":[],"keys":["Food Stands","Indonesian","German"],"lastUpdated":1547527612858,"name":"Max & Moritz","phone":"(250) 539-5888","price":"$","reviewCount":4,"reviewScore":3.5,"meta":{"revision":0,"created":1547531155792,"version":0},"$loki":134},{"_id":"5c3d65bd3525a329e0c1804d","address":"328 Trans Canada Highway","location":{"type":"Point","coordinates":[-123.707321417354,48.7813080319788]},"isApproved":true,"items":[],"keys":["Fast Food","Ice Cream & Frozen Yogurt"],"lastUpdated":1547527612802,"name":"DQ Grill & Chill Restaurant","phone":"(250) 746-6841","price":"","reviewCount":2,"reviewScore":1,"meta":{"revision":0,"created":1547531155792,"version":0},"$loki":135},{"_id":"5c3d65bd3525a329e0bff5c7","address":"1010 Langley Street","location":{"type":"Point","coordinates":[-123.7095555,48.7810045]},"isApproved":true,"items":[],"keys":["Vietnamese"],"lastUpdated":1547527612217,"name":"Le Petit Saigon Vietnamese Restaurant","phone":"(250) 386-1412","price":"$$","reviewCount":61,"reviewScore":4,"meta":{"revision":0,"created":1547531155792,"version":0},"$loki":136},{"_id":"5c3d65bd3525a329e0c0034d","address":"4458 W Saanich Road","location":{"type":"Point","coordinates":[-123.7095555,48.7810045]},"isApproved":true,"items":[],"keys":["Chinese"],"lastUpdated":1547527612225,"name":"Fonbo Chinese Restaurant","phone":"(250) 479-7313","price":"$$","reviewCount":4,"reviewScore":2.5,"meta":{"revision":0,"created":1547531155792,"version":0},"$loki":137},{"_id":"5c3d65bd3525a329e0c0050b","address":"9812 Second Street","location":{"type":"Point","coordinates":[-123.7095555,48.7810045]},"isApproved":true,"items":[],"keys":["Greek"],"lastUpdated":1547527612226,"name":"Maria’s Souvlaki Greek Restaurant","phone":"(250) 656-9944","price":"$","reviewCount":27,"reviewScore":4,"meta":{"revision":0,"created":1547531155792,"version":0},"$loki":138},{"_id":"5c3d65bd3525a329e0c00639","address":"2506 Douglas St","location":{"type":"Point","coordinates":[-123.7095555,48.7810045]},"isApproved":true,"items":[],"keys":["Delis","Grocery"],"lastUpdated":1547527612227,"name":"Seven Valley Fine Food & Deli","phone":"(250) 382-9998","price":"","reviewCount":3,"reviewScore":4,"meta":{"revision":0,"created":1547531155792,"version":0},"$loki":139},{"_id":"5c3d65bd3525a329e0c007d2","address":"536A Yates Street","location":{"type":"Point","coordinates":[-123.7095555,48.7810045]},"isApproved":true,"items":[],"keys":["Bars","Seafood"],"lastUpdated":1547527612228,"name":"Ferris’ Upstairs Seafood & Oyster Bar","phone":"(250) 382-2344","price":"$$","reviewCount":226,"reviewScore":4,"meta":{"revision":0,"created":1547531155792,"version":0},"$loki":140},{"_id":"5c3d65bd3525a329e0c02f39","address":"642 Yates Street","location":{"type":"Point","coordinates":[-123.7095555,48.7810045]},"isApproved":true,"items":[],"keys":["Breakfast & Brunch"],"lastUpdated":1547527612295,"name":"Fresko Fine Foods","phone":"(250) 385-3131","price":"","reviewCount":1,"reviewScore":5,"meta":{"revision":0,"created":1547531155792,"version":0},"$loki":141},{"_id":"5c3d65bd3525a329e0c0442b","address":"102-560 Johnson Street","location":{"type":"Point","coordinates":[-123.7095555,48.7810045]},"isApproved":true,"items":[],"keys":["Desserts","Waffles"],"lastUpdated":1547527612322,"name":"Wannawafel","phone":"(250) 590-5300","price":"$","reviewCount":53,"reviewScore":4.5,"meta":{"revision":0,"created":1547531155792,"version":0},"$loki":142},{"_id":"5c3d65bd3525a329e0c065cb","address":"768 Fort St","location":{"type":"Point","coordinates":[-123.7095555,48.7810045]},"isApproved":true,"items":[],"keys":["Korean"],"lastUpdated":1547527612377,"name":"Seoul","phone":"(250) 592-4244","price":"$$","reviewCount":1,"reviewScore":5,"meta":{"revision":0,"created":1547531155792,"version":0},"$loki":143},{"_id":"5c3d65bd3525a329e0c07562","address":"1000 Douglas Street","location":{"type":"Point","coordinates":[-123.7095555,48.7810045]},"isApproved":true,"items":[],"keys":["Juice Bars & Smoothies","Salad","Soup"],"lastUpdated":1547527612400,"name":"Freshii","phone":"(778) 247-1000","price":"","reviewCount":5,"reviewScore":3.5,"meta":{"revision":0,"created":1547531155792,"version":0},"$loki":144},{"_id":"5c3d65bd3525a329e0c08e12","address":"105-6661 Sooke Road","location":{"type":"Point","coordinates":[-123.7095555,48.7810045]},"isApproved":true,"items":[],"keys":["Japanese"],"lastUpdated":1547527612438,"name":"Hara Sushi","phone":"(778) 352-4272","price":"$$","reviewCount":11,"reviewScore":4.5,"meta":{"revision":0,"created":1547531155792,"version":0},"$loki":145},{"_id":"5c3d65bd3525a329e0c091a1","address":"2224 Quadra Street","location":{"type":"Point","coordinates":[-123.7095555,48.7810045]},"isApproved":true,"items":[],"keys":["Korean"],"lastUpdated":1547527612451,"name":"Chicken 649","phone":"(250) 590-6491","price":"","reviewCount":18,"reviewScore":4,"meta":{"revision":0,"created":1547531155792,"version":0},"$loki":146},{"_id":"5c3d65bd3525a329e0c094f4","address":"180 Wilson St","location":{"type":"Point","coordinates":[-123.7095555,48.7810045]},"isApproved":true,"items":[],"keys":["Pizza"],"lastUpdated":1547527612453,"name":"Hothouse Pizza","phone":"(250) 383-6700","price":"$$","reviewCount":6,"reviewScore":4,"meta":{"revision":0,"created":1547531155792,"version":0},"$loki":147},{"_id":"5c3d65bd3525a329e0c0eb2e","address":"611 Brookside Road","location":{"type":"Point","coordinates":[-123.7095555,48.7810045]},"isApproved":true,"items":[],"keys":["Butcher","Sandwiches","Delis"],"lastUpdated":1547527612581,"name":"Red Barn Market","phone":"(250) 590-8133","price":"","reviewCount":1,"reviewScore":5,"meta":{"revision":0,"created":1547531155792,"version":0},"$loki":148},{"_id":"5c3d65bd3525a329e0c0f5f7","address":"4509 W Saanich Road","location":{"type":"Point","coordinates":[-123.7095555,48.7810045]},"isApproved":true,"items":[],"keys":["Mediterranean","Seafood","Steakhouses"],"lastUpdated":1547527612598,"name":"Fireside Grill","phone":"(250) 479-1222","price":"$$","reviewCount":30,"reviewScore":4,"meta":{"revision":0,"created":1547531155792,"version":0},"$loki":149},{"_id":"5c3d65bd3525a329e0c10430","address":"3515 Cobble Hill Road","location":{"type":"Point","coordinates":[-123.7095555,48.7810045]},"isApproved":true,"items":[],"keys":["Coffee & Tea","Sandwiches","Bakeries"],"lastUpdated":1547527612618,"name":"Olde School Coffee","phone":"(250) 743-6908","price":"","reviewCount":1,"reviewScore":4,"meta":{"revision":0,"created":1547531155792,"version":0},"$loki":150},{"_id":"5c3d65bd3525a329e0c1199d","address":"1012 Blanshard Street","location":{"type":"Point","coordinates":[-123.7095555,48.7810045]},"isApproved":true,"items":[],"keys":["Vietnamese"],"lastUpdated":1547527612651,"name":"Saigon Harbour","phone":"(250) 386-3354","price":"$$","reviewCount":11,"reviewScore":3,"meta":{"revision":0,"created":1547531155792,"version":0},"$loki":151},{"_id":"5c3d65bd3525a329e0c11b7b","address":"Tch","location":{"type":"Point","coordinates":[-123.7095555,48.7810045]},"isApproved":true,"items":[],"keys":["Italian","Pizza"],"lastUpdated":1547527612659,"name":"Boston Pizza","phone":"","price":"","reviewCount":3,"reviewScore":4.5,"meta":{"revision":0,"created":1547531155792,"version":0},"$loki":152},{"_id":"5c3d65bd3525a329e0c1200a","address":"899 Marchant Rd","location":{"type":"Point","coordinates":[-123.7095555,48.7810045]},"isApproved":true,"items":[],"keys":["Cajun/Creole"],"lastUpdated":1547527612663,"name":"Blue’s Bayou","phone":"(250) 544-1194","price":"$$","reviewCount":17,"reviewScore":3.5,"meta":{"revision":0,"created":1547531155792,"version":0},"$loki":153},{"_id":"5c3d65bd3525a329e0c13988","address":"1110 Government Street","location":{"type":"Point","coordinates":[-123.7095555,48.7810045]},"isApproved":true,"items":[],"keys":["Desserts","Coffee & Tea","Cafes"],"lastUpdated":1547527612698,"name":"Murchie’s Tea & Coffee","phone":"(250) 383-3112","price":"$","reviewCount":257,"reviewScore":4.5,"meta":{"revision":0,"created":1547531155792,"version":0},"$loki":154},{"_id":"5c3d65bd3525a329e0c16080","address":"1234 S Wharf Street","location":{"type":"Point","coordinates":[-123.7095555,48.7810045]},"isApproved":true,"items":[],"keys":["Seafood","Pizza","Tapas/Small Plates"],"lastUpdated":1547527612756,"name":"Lido Waterfront Bar & Bistro","phone":"(250) 385-5436","price":"$$","reviewCount":22,"reviewScore":4,"meta":{"revision":0,"created":1547531155792,"version":0},"$loki":155},{"_id":"5c3d65bd3525a329e0c18096","address":"132 Lower Ganges Road","location":{"type":"Point","coordinates":[-123.7095555,48.7810045]},"isApproved":true,"items":[],"keys":["Breakfast & Brunch","Diners","Gluten-Free"],"lastUpdated":1547527612803,"name":"Salt Spring Restaurant","phone":"(250) 537-9339","price":"$$","reviewCount":5,"reviewScore":3,"meta":{"revision":0,"created":1547531155792,"version":0},"$loki":156},{"_id":"5c3d65bd3525a329e0c1aa61","address":"300 Gorge Road W","location":{"type":"Point","coordinates":[-123.7095555,48.7810045]},"isApproved":true,"items":[],"keys":["Cafes","Breakfast & Brunch"],"lastUpdated":1547527612868,"name":"Gorgeous Coffee","phone":"(778) 433-4674","price":"$","reviewCount":10,"reviewScore":3,"meta":{"revision":0,"created":1547531155792,"version":0},"$loki":157},{"_id":"5c3d65bd3525a329e0c11fe8","address":"148 3rd Street","location":{"type":"Point","coordinates":[-123.70932161808,48.782359640489]},"isApproved":true,"items":[],"keys":["Indian"],"lastUpdated":1547527612662,"name":"Royal Dar","phone":"(250) 597-1483","price":"$$","reviewCount":10,"reviewScore":4.5,"meta":{"revision":0,"created":1547531155792,"version":0},"$loki":158},{"_id":"5c3d65bd3525a329e0c1a1cb","address":"1950 Oak Bay Ave","location":{"type":"Point","coordinates":[-123.70722563788,48.7821751221036]},"isApproved":true,"items":[],"keys":["Bakeries","Salad","Sandwiches"],"lastUpdated":1547527612858,"name":"Cafe Select","phone":"(250) 592-0627","price":"$","reviewCount":1,"reviewScore":5,"meta":{"revision":0,"created":1547531155792,"version":0},"$loki":159},{"_id":"5c3d65bd3525a329e0c05710","address":"14 1400 Cowichan Bay Road","location":{"type":"Point","coordinates":[-123.7034687,48.7819868]},"isApproved":true,"items":[],"keys":["Pizza"],"lastUpdated":1547527612348,"name":"Prima Strada","phone":"(250) 929-4655","price":"","reviewCount":6,"reviewScore":4,"meta":{"revision":0,"created":1547531155792,"version":0},"$loki":160},{"_id":"5c3d65bd3525a329e0c04e9f","address":"560 Johnson Street","location":{"type":"Point","coordinates":[-123.7051505,48.7792356]},"isApproved":true,"items":[],"keys":["Vegetarian","Vegan","Buffets"],"lastUpdated":1547527612339,"name":"Green Cuisine Vegetarian Restaurant","phone":"(250) 385-1809","price":"$$","reviewCount":68,"reviewScore":4,"meta":{"revision":0,"created":1547531155792,"version":0},"$loki":161},{"_id":"5c3d65bd3525a329e0c095ad","address":"4144 Wilkinson Road","location":{"type":"Point","coordinates":[-123.7051505,48.7792356]},"isApproved":true,"items":[],"keys":["Sandwiches","Fast Food"],"lastUpdated":1547527612453,"name":"Subway","phone":"(250) 744-4222","price":"$","reviewCount":2,"reviewScore":3.5,"meta":{"revision":0,"created":1547531155792,"version":0},"$loki":162},{"_id":"5c3d65bd3525a329e0c08367","address":"1-3690 Shelbourne Street","location":{"type":"Point","coordinates":[-123.707593,48.779141]},"isApproved":true,"items":[],"keys":["Asian Fusion","Malaysian","Singaporean"],"lastUpdated":1547527612420,"name":"The Tropical Island Restaurant","phone":"(250) 477-2538","price":"$$","reviewCount":18,"reviewScore":3.5,"meta":{"revision":0,"created":1547531155792,"version":0},"$loki":163},{"_id":"5c3d65bd3525a329e0c0d158","address":"281 Canada  Avenue","location":{"type":"Point","coordinates":[-123.70759293437,48.7791411673279]},"isApproved":true,"items":[],"keys":["Sushi Bars","Korean"],"lastUpdated":1547527612545,"name":"Danji Japanese Restaurant","phone":"(778) 422-2553","price":"","reviewCount":0,"reviewScore":0,"meta":{"revision":0,"created":1547531155792,"version":0},"$loki":164},{"_id":"5c3d65bd3525a329e0c11c0c","address":"3390 Glenora Rd","location":{"type":"Point","coordinates":[-123.707553777615,48.7792384552202]},"isApproved":true,"items":[],"keys":["Cafes","Farms"],"lastUpdated":1547527612660,"name":"Alderlea Farm and Cafe","phone":"(250) 597-3438","price":"","reviewCount":1,"reviewScore":4,"meta":{"revision":0,"created":1547531155792,"version":0},"$loki":165},{"_id":"5c3d65bd3525a329e0c03371","address":"740 Handy Road","location":{"type":"Point","coordinates":[-123.707818994299,48.7791717942457]},"isApproved":true,"items":[],"keys":["Wine Bars","Bistros","Breakfast & Brunch"],"lastUpdated":1547527612302,"name":"Bridgemans Bistro","phone":"(778) 356-3568","price":"$$","reviewCount":34,"reviewScore":3.5,"meta":{"revision":0,"created":1547531155792,"version":0},"$loki":166},{"_id":"5c3d65bd3525a329e0c00836","address":"4525 W Saanich Road","location":{"type":"Point","coordinates":[-123.7079369,48.7784452]},"isApproved":true,"items":[],"keys":["Gluten-Free","Cafes"],"lastUpdated":1547527612228,"name":"Crumsby’s","phone":"(250) 590-1137","price":"$$","reviewCount":3,"reviewScore":4.5,"meta":{"revision":0,"created":1547531155792,"version":0},"$loki":167},{"_id":"5c3d65bd3525a329e0c021cd","address":"9801 Spalding Road","location":{"type":"Point","coordinates":[-123.707239363522,48.7783999264594]},"isApproved":true,"items":[],"keys":["Burgers","Pubs","Canadian (New)"],"lastUpdated":1547527612276,"name":"Syrens Bistro","phone":"(250) 629-2114","price":"","reviewCount":9,"reviewScore":3.5,"meta":{"revision":0,"created":1547531155792,"version":0},"$loki":168},{"_id":"5c3d65bd3525a329e0c0828d","address":"330 Duncan Street","location":{"type":"Point","coordinates":[-123.705947,48.777506]},"isApproved":true,"items":[],"keys":["Bakeries","Cafes"],"lastUpdated":1547527612420,"name":"Duncan Garage Cafe & Bakery","phone":"(250) 748-6223","price":"$$","reviewCount":22,"reviewScore":4.5,"meta":{"revision":0,"created":1547531155792,"version":0},"$loki":169},{"_id":"5c3d65bd3525a329e0c0c6de","address":"41 Trunk Road","location":{"type":"Point","coordinates":[-123.7056621,48.7771434]},"isApproved":true,"items":[],"keys":["Pizza"],"lastUpdated":1547527612525,"name":"Authentic Pizza N V M","phone":"(250) 701-0717","price":"$$","reviewCount":10,"reviewScore":4,"meta":{"revision":0,"created":1547531155792,"version":0},"$loki":170},{"_id":"5c3d65bd3525a329e0c0fb40","address":"2144 Keating Cross Road","location":{"type":"Point","coordinates":[-123.7042357,48.7767621]},"isApproved":true,"items":[],"keys":["Pizza"],"lastUpdated":1547527612601,"name":"Keating Pizza","phone":"(250) 652-0772","price":"$$","reviewCount":11,"reviewScore":4,"meta":{"revision":0,"created":1547531155792,"version":0},"$loki":171},{"_id":"5c3d65bd3525a329e0c07b24","address":"509 Fisgard Street","location":{"type":"Point","coordinates":[-123.7015557,48.7765864]},"isApproved":true,"items":[],"keys":["Canadian (New)","Bars"],"lastUpdated":1547527612410,"name":"OLO Restaurant","phone":"(250) 590-8795","price":"$$","reviewCount":145,"reviewScore":4.5,"meta":{"revision":0,"created":1547531155792,"version":0},"$loki":172},{"_id":"5c3d65bd3525a329e0c07810","address":"361 Transcanada Highway","location":{"type":"Point","coordinates":[-123.700710323414,48.7784733966421]},"isApproved":true,"items":[],"keys":["Bars","American (Traditional)","Canadian (New)"],"lastUpdated":1547527612408,"name":"Original Joes","phone":"(250) 597-8935","price":"$$","reviewCount":6,"reviewScore":2.5,"meta":{"revision":0,"created":1547531155792,"version":0},"$loki":173},{"_id":"5c3d65bd3525a329e0c0bbe1","address":"1752 Island Highway","location":{"type":"Point","coordinates":[-123.6997061,48.778172]},"isApproved":true,"items":[],"keys":["Canadian (New)","Breakfast & Brunch"],"lastUpdated":1547527612509,"name":"Jasmine’s Family Restaurant","phone":"(250) 391-8648","price":"$$","reviewCount":10,"reviewScore":4.5,"meta":{"revision":0,"created":1547531155792,"version":0},"$loki":174},{"_id":"5c3d65bd3525a329e0c0532b","address":"2869 Oak Street","location":{"type":"Point","coordinates":[-123.698241,48.779409]},"isApproved":true,"items":[],"keys":["Seafood","Fish & Chips"],"lastUpdated":1547527612346,"name":"Barnacle Barney’s Fish & Chips","phone":"(250) 246-2710","price":"","reviewCount":4,"reviewScore":3.5,"meta":{"revision":0,"created":1547531155792,"version":0},"$loki":175},{"_id":"5c3d65bd3525a329e0c04b24","address":"3147 Douglas Street","location":{"type":"Point","coordinates":[-123.6985749,48.7807448]},"isApproved":true,"items":[],"keys":["Fast Food"],"lastUpdated":1547527612331,"name":"NYF","phone":"(778) 440-7772","price":"","reviewCount":3,"reviewScore":3.5,"meta":{"revision":0,"created":1547531155792,"version":0},"$loki":176},{"_id":"5c3d65bd3525a329e0c1b294","address":"2510 Estevan Avenue","location":{"type":"Point","coordinates":[-123.698372840881,48.7808962417035]},"isApproved":true,"items":[],"keys":["Thai","Chinese"],"lastUpdated":1547527612878,"name":"King & Thai Restaurant","phone":"(778) 430-5966","price":"$$","reviewCount":10,"reviewScore":3,"meta":{"revision":0,"created":1547531155792,"version":0},"$loki":177},{"_id":"5c3d65bd3525a329e0c0cd31","address":"5849 York Road","location":{"type":"Point","coordinates":[-123.698348,48.7830194]},"isApproved":true,"items":[],"keys":["Diners"],"lastUpdated":1547527612534,"name":"York St Diner","phone":"(250) 597-0400","price":"$$","reviewCount":23,"reviewScore":4,"meta":{"revision":0,"created":1547531155792,"version":0},"$loki":178},{"_id":"5c3d65bd3525a329e0c0141e","address":"181 Jubilee Street","location":{"type":"Point","coordinates":[-123.699956505707,48.7838019854931]},"isApproved":true,"items":[],"keys":["Chinese","Breakfast & Brunch","Cafes"],"lastUpdated":1547527612249,"name":"Corner House Cafe","phone":"(250) 748-9211","price":"","reviewCount":0,"reviewScore":0,"meta":{"revision":0,"created":1547531155792,"version":0},"$loki":179},{"_id":"5c3d65bd3525a329e0c1054a","address":"5871 York Road","location":{"type":"Point","coordinates":[-123.6987947,48.7840681]},"isApproved":true,"items":[],"keys":["Cantonese"],"lastUpdated":1547527612618,"name":"Kim Wah Restaurant","phone":"(250) 748-2914","price":"$$$","reviewCount":3,"reviewScore":3.5,"meta":{"revision":0,"created":1547531155792,"version":0},"$loki":180},{"_id":"5c3d65bd3525a329e0c13706","address":"1701 Douglas Street","location":{"type":"Point","coordinates":[-123.700013,48.782631]},"isApproved":true,"items":[],"keys":["Waffles","Breakfast & Brunch"],"lastUpdated":1547527612697,"name":"WaffleBeast","phone":"(250) 888-6836","price":"","reviewCount":2,"reviewScore":3.5,"meta":{"revision":0,"created":1547531155792,"version":0},"$loki":181},{"_id":"5c3d65bd3525a329e0c14be3","address":"193-2401 Millstream Road","location":{"type":"Point","coordinates":[-123.7001344,48.7826061]},"isApproved":true,"items":[],"keys":["Korean"],"lastUpdated":1547527612729,"name":"Persimmon Tree","phone":"(778) 430-0355","price":"","reviewCount":5,"reviewScore":3.5,"meta":{"revision":0,"created":1547531155792,"version":0},"$loki":182},{"_id":"5c3d65bd3525a329e0c1348e","address":"4709 Canal Road","location":{"type":"Point","coordinates":[-123.700591815973,48.7823543749271]},"isApproved":true,"items":[],"keys":["Coffee & Tea","Wine Bars","Comfort Food"],"lastUpdated":1547527612690,"name":"Coffee + Kitchen","phone":"(250) 629-3353","price":"$$","reviewCount":6,"reviewScore":5,"meta":{"revision":0,"created":1547531155792,"version":0},"$loki":183},{"_id":"5c3d65bd3525a329e0c1b4b2","address":"2687 James Street","location":{"type":"Point","coordinates":[-123.7024396,48.7821649]},"isApproved":true,"items":[],"keys":["Burgers","Comfort Food","Fish & Chips"],"lastUpdated":1547527612885,"name":"Flynn’s Fish n Chips Get Hooked Cafe","phone":"(778) 422-3000","price":"","reviewCount":1,"reviewScore":5,"meta":{"revision":0,"created":1547531155792,"version":0},"$loki":184},{"_id":"5c3d65bd3525a329e0c07de1","address":"2740 Dundas Road","location":{"type":"Point","coordinates":[-123.6813429,48.794305]},"isApproved":true,"items":[],"keys":["Japanese"],"lastUpdated":1547527612416,"name":"Hosuka","phone":"(778) 356-0100","price":"$$$","reviewCount":3,"reviewScore":2.5,"meta":{"revision":0,"created":1547531155792,"version":0},"$loki":185},{"_id":"5c3d65bd3525a329e0c1672e","address":"1478 Maple Bay Road","location":{"type":"Point","coordinates":[-123.6420149,48.800959]},"isApproved":true,"items":[],"keys":["Bed & Breakfast","Diners","Lounges"],"lastUpdated":1547527612766,"name":"The Quamichan Inn","phone":"(250) 746-7028","price":"","reviewCount":0,"reviewScore":0,"meta":{"revision":0,"created":1547531155792,"version":0},"$loki":186},{"_id":"5c3d65bd3525a329e0c0085e","address":"350-777 Royal Oak Drive","location":{"type":"Point","coordinates":[-123.6097405,48.8177013]},"isApproved":true,"items":[],"keys":["Wine Bars","Bistros"],"lastUpdated":1547527612228,"name":"Artisan Bistro","phone":"(250) 590-9333","price":"$$","reviewCount":17,"reviewScore":4.5,"meta":{"revision":0,"created":1547531155792,"version":0},"$loki":187},{"_id":"5c3d65bd3525a329e0c03b03","address":"611 Courtney Street","location":{"type":"Point","coordinates":[-123.5718034,48.8812881]},"isApproved":true,"items":[],"keys":["Brasseries","Gastropubs"],"lastUpdated":1547527612312,"name":"10 Acres Bistro + Bar","phone":"(250) 220-8008","price":"$$","reviewCount":349,"reviewScore":4,"meta":{"revision":0,"created":1547531155792,"version":0},"$loki":188},{"_id":"5c3d65bd3525a329e0c0b0b4","address":"17152 Parkinson Road","location":{"type":"Point","coordinates":[-123.533064,48.9148574]},"isApproved":true,"items":[],"keys":["American (Traditional)","Breakfast & Brunch","Burgers"],"lastUpdated":1547527612497,"name":"Tomis Home Cooking","phone":"(250) 412-6099","price":"","reviewCount":3,"reviewScore":4.5,"meta":{"revision":0,"created":1547531155792,"version":0},"$loki":189},{"_id":"5c3d65bd3525a329e0c12ca2","address":"321 Fernwood Road","location":{"type":"Point","coordinates":[-123.5331701,48.9144831]},"isApproved":true,"items":[],"keys":["Salad","Tapas/Small Plates","Pizza"],"lastUpdated":1547527612680,"name":"Twig And Buoy","phone":"(250) 931-8944","price":"$$$","reviewCount":10,"reviewScore":4,"meta":{"revision":0,"created":1547531155792,"version":0},"$loki":190},{"_id":"5c3d65bd3525a329e0c11cd9","address":"849 Verdier Avenue","location":{"type":"Point","coordinates":[-123.5292133,48.872303]},"isApproved":true,"items":[],"keys":["Canadian (New)","Gastropubs"],"lastUpdated":1547527612660,"name":"Brentwood Bay Pub","phone":"(250) 544-5102","price":"$$","reviewCount":5,"reviewScore":3,"meta":{"revision":0,"created":1547531155792,"version":0},"$loki":191},{"_id":"5c3d65bd3525a329e0c10f30","address":"660 Oswego Street","location":{"type":"Point","coordinates":[-123.5014127,48.8590903]},"isApproved":true,"items":[],"keys":["Mexican"],"lastUpdated":1547527612640,"name":"Santiago’s Cafe","phone":"(250) 388-7376","price":"$$","reviewCount":66,"reviewScore":3,"meta":{"revision":0,"created":1547531155792,"version":0},"$loki":192},{"_id":"5c3d65bd3525a329e0c15703","address":"1164 Stelly&#39;s Cross Road","location":{"type":"Point","coordinates":[-123.5012444,48.8593436]},"isApproved":true,"items":[],"keys":["Diners","Breakfast & Brunch"],"lastUpdated":1547527612746,"name":"Zanzibar","phone":"(250) 652-1228","price":"$$","reviewCount":37,"reviewScore":4,"meta":{"revision":0,"created":1547531155792,"version":0},"$loki":193},{"_id":"5c3d65bd3525a329e0c15613","address":"4136 Wilkinson Road","location":{"type":"Point","coordinates":[-123.5002667,48.8599013]},"isApproved":true,"items":[],"keys":["Canadian (New)","Bistros"],"lastUpdated":1547527612746,"name":"Crooked Goose Bistro","phone":"(250) 590-4556","price":"$$","reviewCount":29,"reviewScore":4,"meta":{"revision":0,"created":1547531155792,"version":0},"$loki":194},{"_id":"5c3d65bd3525a329e0c1a925","address":"350 Lower Ganges Road","location":{"type":"Point","coordinates":[-123.510947051681,48.8603597442397]},"isApproved":true,"items":[],"keys":["Salad","Breakfast & Brunch","Burgers"],"lastUpdated":1547527612867,"name":"Dagwood’s Restaurant","phone":"(250) 537-9323","price":"","reviewCount":4,"reviewScore":2,"meta":{"revision":0,"created":1547531155792,"version":0},"$loki":195},{"_id":"5c3d65bd3525a329e0c111ef","address":"4130 Borden St","location":{"type":"Point","coordinates":[-123.5089899,48.8595381]},"isApproved":true,"items":[],"keys":["Burgers","Hot Dogs","American (Traditional)"],"lastUpdated":1547527612642,"name":"Chef Dave’s Dugout","phone":"","price":"","reviewCount":1,"reviewScore":4,"meta":{"revision":0,"created":1547531155792,"version":0},"$loki":196},{"_id":"5c3d65bd3525a329e0bff503","address":"151 Rainbow Road","location":{"type":"Point","coordinates":[-123.5036655,48.8543559]},"isApproved":true,"items":[],"keys":["Food Trucks","Vegetarian","Poutineries"],"lastUpdated":1547527612216,"name":"Al’s Gourmet Falafel and Fries","phone":"","price":"$$","reviewCount":2,"reviewScore":5,"meta":{"revision":0,"created":1547531155792,"version":0},"$loki":197},{"_id":"5c3d65bd3525a329e0c1b164","address":"407 Swift Street","location":{"type":"Point","coordinates":[-123.5017743,48.8535307]},"isApproved":true,"items":[],"keys":["Seafood","Indian","French"],"lastUpdated":1547527612877,"name":"Fishhook at Mermaid Wharf","phone":"(250) 590-6988","price":"","reviewCount":31,"reviewScore":4.5,"meta":{"revision":0,"created":1547531155792,"version":0},"$loki":198},{"_id":"5c3d65bd3525a329e0c00f33","address":"3838 Cadboro Bay Road","location":{"type":"Point","coordinates":[-123.500328,48.853681]},"isApproved":true,"items":[],"keys":["Thai"],"lastUpdated":1547527612237,"name":"Thai Lemongrass","phone":"(250) 385-3838","price":"$$","reviewCount":21,"reviewScore":3.5,"meta":{"revision":0,"created":1547531155792,"version":0},"$loki":199},{"_id":"5c3d65bd3525a329e0c085f4","address":"108 Hereford Avenue","location":{"type":"Point","coordinates":[-123.5007513,48.8536504]},"isApproved":true,"items":[],"keys":["Canadian (New)"],"lastUpdated":1547527612427,"name":"House Piccolo","phone":"(250) 537-1844","price":"$$$","reviewCount":14,"reviewScore":4.5,"meta":{"revision":0,"created":1547531155792,"version":0},"$loki":200},{"_id":"5c3d65bd3525a329e0c04df9","address":"1725 Cook Street","location":{"type":"Point","coordinates":[-123.498854,48.853988]},"isApproved":true,"items":[],"keys":["Barbeque"],"lastUpdated":1547527612338,"name":"Jones Bar B Que","phone":"(778) 265-4227","price":"$$","reviewCount":30,"reviewScore":4,"meta":{"revision":0,"created":1547531155792,"version":0},"$loki":201},{"_id":"5c3d65bd3525a329e0c02ca3","address":"6726 W Coast Road","location":{"type":"Point","coordinates":[-123.4985265,48.8537588]},"isApproved":true,"items":[],"keys":["Bakeries","Breakfast & Brunch","Cafes"],"lastUpdated":1547527612293,"name":"Little Vienna Bakery","phone":"(250) 642-6833","price":"$$","reviewCount":19,"reviewScore":4.5,"meta":{"revision":0,"created":1547531155792,"version":0},"$loki":202},{"_id":"5c3d65bd3525a329e0c1aba6","address":"96 Wellington Road W","location":{"type":"Point","coordinates":[-123.4985264,48.8537588]},"isApproved":true,"items":[],"keys":["Burgers","Fast Food"],"lastUpdated":1547527612869,"name":"A&W","phone":"(250) 749-0111","price":"","reviewCount":0,"reviewScore":0,"meta":{"revision":0,"created":1547531155792,"version":0},"$loki":203},{"_id":"5c3d65bd3525a329e0bff49e","address":"1703 Blanshard Street","location":{"type":"Point","coordinates":[-123.498919087967,48.8537240897306]},"isApproved":true,"items":[],"keys":["Italian","American (Traditional)","Pizza"],"lastUpdated":1547527612216,"name":"Romeo’s","phone":"(250) 383-2121","price":"$$","reviewCount":20,"reviewScore":3,"meta":{"revision":0,"created":1547531155792,"version":0},"$loki":204},{"_id":"5c3d65bd3525a329e0c0f9be","address":"1001 Douglas Street","location":{"type":"Point","coordinates":[-123.4981554,48.8528678]},"isApproved":true,"items":[],"keys":["Canadian (New)","Bars"],"lastUpdated":1547527612600,"name":"Hanks A Restaurant","phone":"","price":"$$","reviewCount":85,"reviewScore":4.5,"meta":{"revision":0,"created":1547531155792,"version":0},"$loki":205},{"_id":"5c3d65bd3525a329e0c097dd","address":"122  Fulford Ganges Road","location":{"type":"Point","coordinates":[-123.4986751,48.853102]},"isApproved":true,"items":[],"keys":["Sandwiches"],"lastUpdated":1547527612461,"name":"Buzzy’s luncheonette","phone":"(250) 222-8650","price":"","reviewCount":1,"reviewScore":5,"meta":{"revision":0,"created":1547531155792,"version":0},"$loki":206},{"_id":"5c3d65bd3525a329e0c1974f","address":"2740 Rock Bay Avenue","location":{"type":"Point","coordinates":[-123.5019869,48.8527926]},"isApproved":true,"items":[],"keys":["Gluten-Free"],"lastUpdated":1547527612841,"name":"Benjamin’s Bites","phone":"(250) 884-3093","price":"","reviewCount":1,"reviewScore":5,"meta":{"revision":0,"created":1547531155792,"version":0},"$loki":207},{"_id":"5c3d65bd3525a329e0c07fb1","address":"149 Fulford Ganges Road","location":{"type":"Point","coordinates":[-123.4993272,48.851887]},"isApproved":true,"items":[],"keys":["Asian Fusion"],"lastUpdated":1547527612418,"name":"Salt Spring Wok Bar","phone":"(250) 537-1234","price":"","reviewCount":1,"reviewScore":5,"meta":{"revision":0,"created":1547531155792,"version":0},"$loki":208},{"_id":"5c3d65bd3525a329e0c0b819","address":"1109 McKenzie Street","location":{"type":"Point","coordinates":[-123.4993272,48.851887]},"isApproved":true,"items":[],"keys":["Mexican"],"lastUpdated":1547527612506,"name":"Ricasalsa","phone":"(250) 360-1615","price":"$$","reviewCount":17,"reviewScore":4,"meta":{"revision":0,"created":1547531155792,"version":0},"$loki":209},{"_id":"5c3d65bd3525a329e0c1172c","address":"149 Fulford Ganges Road","location":{"type":"Point","coordinates":[-123.4993272,48.851887]},"isApproved":true,"items":[],"keys":["Pizza","Italian"],"lastUpdated":1547527612650,"name":"Delvecchio Pasta Fresca","phone":"(250) 537-8588","price":"","reviewCount":1,"reviewScore":3,"meta":{"revision":0,"created":1547531155792,"version":0},"$loki":210},{"_id":"5c3d65bd3525a329e0c05d45","address":"100 Fulford-Ganges Rd","location":{"type":"Point","coordinates":[-123.49928653731,48.8519067834552]},"isApproved":true,"items":[],"keys":["Sushi Bars"],"lastUpdated":1547527612361,"name":"Arigato Sushi","phone":"(250) 538-1881","price":"","reviewCount":4,"reviewScore":3,"meta":{"revision":0,"created":1547531155792,"version":0},"$loki":211},{"_id":"5c3d65bd3525a329e0c007b0","address":"595 Cranberry Road","location":{"type":"Point","coordinates":[-123.4996997,48.8519491]},"isApproved":true,"items":[],"keys":["Farmers Market","Coffee & Tea","Cafes"],"lastUpdated":1547527612228,"name":"Mt Maxwell Coffee Roasters","phone":"(250) 931-6727","price":"$","reviewCount":3,"reviewScore":5,"meta":{"revision":0,"created":1547531155792,"version":0},"$loki":212},{"_id":"5c3d65bd3525a329e0bff74e","address":"107-2945 Jacklin Road","location":{"type":"Point","coordinates":[-123.499693,48.8521925]},"isApproved":true,"items":[],"keys":["Ice Cream & Frozen Yogurt","Fast Food"],"lastUpdated":1547527612218,"name":"Orange Julius Store","phone":"(250) 474-1522","price":"","reviewCount":1,"reviewScore":1,"meta":{"revision":0,"created":1547531155792,"version":0},"$loki":213},{"_id":"5c3d65bd3525a329e0c0cc0c","address":"110 Purvis Lane","location":{"type":"Point","coordinates":[-123.498367993553,48.853772231659]},"isApproved":true,"items":[],"keys":["Burgers","Gluten-Free","Pizza"],"lastUpdated":1547527612533,"name":"Burger Bar 537","phone":"(250) 537-5745","price":"$$","reviewCount":4,"reviewScore":3.5,"meta":{"revision":0,"created":1547531155792,"version":0},"$loki":214},{"_id":"5c3d65bd3525a329e0c0d806","address":"650 Yates Street","location":{"type":"Point","coordinates":[-123.4918275,48.8363798]},"isApproved":true,"items":[],"keys":["Korean"],"lastUpdated":1547527612554,"name":"King Sejong Restaurant","phone":"(250) 382-1289","price":"$$","reviewCount":42,"reviewScore":4,"meta":{"revision":0,"created":1547531155792,"version":0},"$loki":215},{"_id":"5c3d65bd3525a329e0c0ac12","address":"716 Burdett Avenue","location":{"type":"Point","coordinates":[-123.5088755,48.8166622]},"isApproved":true,"items":[],"keys":["Greek","Lounges"],"lastUpdated":1547527612490,"name":"Millos Greek Restaurant & Lounge","phone":"(250) 382-4422","price":"$$","reviewCount":52,"reviewScore":3.5,"meta":{"revision":0,"created":1547531155792,"version":0},"$loki":216},{"_id":"5c3d65bd3525a329e0c16a3f","address":"124 Upper Ganges Road","location":{"type":"Point","coordinates":[-123.449448,48.7692853]},"isApproved":true,"items":[],"keys":["Pubs","Seafood"],"lastUpdated":1547527612773,"name":"Moby’s Pub","phone":"(250) 537-5559","price":"$$","reviewCount":43,"reviewScore":4,"meta":{"revision":0,"created":1547531155792,"version":0},"$loki":217},{"_id":"5c3d65bd3525a329e0c18400","address":"910 Esquimalt Road","location":{"type":"Point","coordinates":[-123.315559923649,48.8006335082124]},"isApproved":true,"items":[],"keys":["Indian"],"lastUpdated":1547527612814,"name":"Spice Valley Indian Cuisine","phone":"(778) 265-0434","price":"","reviewCount":1,"reviewScore":5,"meta":{"revision":0,"created":1547531155792,"version":0},"$loki":218},{"_id":"5c3d65bd3525a329e0c05a13","address":"4605 Bedwell Harbour Road","location":{"type":"Point","coordinates":[-123.281145343863,48.7796400735624]},"isApproved":true,"items":[],"keys":["Bakeries","Coffee & Tea","Breakfast & Brunch"],"lastUpdated":1547527612355,"name":"Vanilla Leaf Bakery Cafe","phone":"(250) 629-6453","price":"$","reviewCount":2,"reviewScore":5,"meta":{"revision":0,"created":1547531155792,"version":0},"$loki":219},{"_id":"5c3d65bd3525a329e0c06ea9","address":"4605 Bedwell Harbour Road","location":{"type":"Point","coordinates":[-123.281064834624,48.7796289251458]},"isApproved":true,"items":[],"keys":["Breakfast & Brunch","Diners","Burgers"],"lastUpdated":1547527612387,"name":"Jo’s Place","phone":"(250) 629-6033","price":"$$","reviewCount":16,"reviewScore":5,"meta":{"revision":0,"created":1547531155792,"version":0},"$loki":220},{"_id":"5c3d65bd3525a329e0c0c1b6","address":"Oak Rd","location":{"type":"Point","coordinates":[-123.280556,48.780556]},"isApproved":true,"items":[],"keys":["Cafes"],"lastUpdated":1547527612517,"name":"Port Browning Cafe","phone":"(250) 629-3493","price":"$$","reviewCount":5,"reviewScore":4,"meta":{"revision":0,"created":1547531155792,"version":0},"$loki":221},{"_id":"5c3d65bd3525a329e0c00c8e","address":"6697 Sooke Road","location":{"type":"Point","coordinates":[-123.273911932944,48.7676576431669]},"isApproved":true,"items":[],"keys":["Breakfast & Brunch","Sandwiches"],"lastUpdated":1547527612231,"name":"Cathy’s Corner Cafe","phone":"(778) 425-0020","price":"","reviewCount":9,"reviewScore":4.5,"meta":{"revision":0,"created":1547531155792,"version":0},"$loki":222},{"_id":"5c3d65bd3525a329e0c05e25","address":"2527 Beacon Avenue","location":{"type":"Point","coordinates":[-123.270390182734,48.76111960583]},"isApproved":true,"items":[],"keys":["Cafes","Ice Cream & Frozen Yogurt"],"lastUpdated":1547527612362,"name":"Quince","phone":"(250) 656-1657","price":"","reviewCount":5,"reviewScore":4.5,"meta":{"revision":0,"created":1547531155792,"version":0},"$loki":223},{"_id":"5c3d65bd3525a329e0c057e1","address":"4670 Elk Lake Drive","location":{"type":"Point","coordinates":[-123.270717747509,48.7614886978305]},"isApproved":true,"items":[],"keys":["American (Traditional)","Bars"],"lastUpdated":1547527612349,"name":"The Lakes Grillhouse ‘n Bar","phone":"(250) 658-8989","price":"$$$","reviewCount":4,"reviewScore":3.5,"meta":{"revision":0,"created":1547531155792,"version":0},"$loki":224},{"_id":"5c3d65bd3525a329e0c0208c","address":"4 Front St","location":{"type":"Point","coordinates":[-123.151788,48.608812]},"isApproved":true,"items":[],"keys":["Breakfast & Brunch","Bakeries","Cafes"],"lastUpdated":1547527612275,"name":"Knead & Feed","phone":"(360) 678-5431","price":"$$","reviewCount":266,"reviewScore":3,"meta":{"revision":0,"created":1547531155792,"version":0},"$loki":225},{"_id":"5c3d65bd3525a329e0c02a5b","address":"2656 Quadra Street","location":{"type":"Point","coordinates":[-123.151788,48.608812]},"isApproved":true,"items":[],"keys":["Canadian (New)"],"lastUpdated":1547527612286,"name":"Part and Parcel","phone":"(778) 406-0888","price":"$$","reviewCount":37,"reviewScore":4.5,"meta":{"revision":0,"created":1547531155792,"version":0},"$loki":226},{"_id":"5c3d65bd3525a329e0c01f7e","address":"633 Courtney Street","location":{"type":"Point","coordinates":[-123.1529139,48.6084392]},"isApproved":true,"items":[],"keys":["Japanese"],"lastUpdated":1547527612269,"name":"Uchida Eatery / Shokudo","phone":"(250) 388-7383","price":"$$","reviewCount":49,"reviewScore":4.5,"meta":{"revision":0,"created":1547531155792,"version":0},"$loki":227},{"_id":"5c3d65bd3525a329e0c0aee1","address":"614 S 1st St","location":{"type":"Point","coordinates":[-123.1529139,48.6084392]},"isApproved":true,"items":[],"keys":["Seafood","Bars","American (New)"],"lastUpdated":1547527612491,"name":"La Conner Seafood and Prime Rib House and Lounge","phone":"(360) 466-4014","price":"$$","reviewCount":103,"reviewScore":3,"meta":{"revision":0,"created":1547531155792,"version":0},"$loki":228},{"_id":"5c3d65bd3525a329e0c13ec2","address":"1019 Water St","location":{"type":"Point","coordinates":[-123.1529139,48.6084392]},"isApproved":true,"items":[],"keys":["Cocktail Bars","Burgers","Seafood"],"lastUpdated":1547527612706,"name":"Quench Waterfront Kitchen & Bar","phone":"(360) 385-1055","price":"$$","reviewCount":118,"reviewScore":3.5,"meta":{"revision":0,"created":1547531155792,"version":0},"$loki":229},{"_id":"5c3d65bd3525a329e0c16abe","address":"799 Verdier Avenue","location":{"type":"Point","coordinates":[-123.1529139,48.6084392]},"isApproved":true,"items":[],"keys":["Cafes","Seafood","Burgers"],"lastUpdated":1547527612773,"name":"Seahorses Cafe","phone":"(250) 544-1565","price":"$$","reviewCount":24,"reviewScore":4,"meta":{"revision":0,"created":1547531155792,"version":0},"$loki":230},{"_id":"5c3d65bd3525a329e0c0e892","address":"2816 Henry Road","location":{"type":"Point","coordinates":[-123.402309,48.6473421]},"isApproved":true,"items":[],"keys":["Buffets"],"lastUpdated":1547527612575,"name":"The Club House","phone":"(250) 246-4948","price":"","reviewCount":0,"reviewScore":0,"meta":{"revision":0,"created":1547531155792,"version":0},"$loki":231},{"_id":"5c3d65bd3525a329e0c0fb03","address":"805 Lower Ganges Road","location":{"type":"Point","coordinates":[-123.400272130966,48.647644667102]},"isApproved":true,"items":[],"keys":["Bars","American (Traditional)"],"lastUpdated":1547527612601,"name":"Clubhouse Bar and Grill","phone":"(250) 537-1760","price":"","reviewCount":2,"reviewScore":2,"meta":{"revision":0,"created":1547531155792,"version":0},"$loki":232},{"_id":"5c3d65bd3525a329e0c05970","address":"3307 Cowichan Lake Road","location":{"type":"Point","coordinates":[-123.4000484,48.6478163]},"isApproved":true,"items":[],"keys":["Indian"],"lastUpdated":1547527612355,"name":"Heritage Indian Cuisine","phone":"(250) 597-7737","price":"","reviewCount":5,"reviewScore":4,"meta":{"revision":0,"created":1547531155792,"version":0},"$loki":233},{"_id":"5c3d65bd3525a329e0c1b27d","address":"435 Simcoe Street","location":{"type":"Point","coordinates":[-123.401203,48.648153]},"isApproved":true,"items":[],"keys":["Breakfast & Brunch","Seafood","Cafes"],"lastUpdated":1547527612878,"name":"Heron Rock Bistro","phone":"(250) 383-1545","price":"$$","reviewCount":74,"reviewScore":4,"meta":{"revision":0,"created":1547531155792,"version":0},"$loki":234},{"_id":"5c3d65bd3525a329e0c094b4","address":"766 Goldstream Ave","location":{"type":"Point","coordinates":[-123.4000371,48.648669]},"isApproved":true,"items":[],"keys":["Bubble Tea","Noodles","Soul Food"],"lastUpdated":1547527612453,"name":"R&N Chicken And Noodle","phone":"(250) 590-2251","price":"$$","reviewCount":6,"reviewScore":3,"meta":{"revision":0,"created":1547531155792,"version":0},"$loki":235},{"_id":"5c3d65bd3525a329e0c0cae1","address":"3749 Shelbourne Street","location":{"type":"Point","coordinates":[-123.3993753,48.6487183]},"isApproved":true,"items":[],"keys":["Ice Cream & Frozen Yogurt","Salad","Juice Bars & Smoothies"],"lastUpdated":1547527612533,"name":"FreshCoast Health Food Bar","phone":"(778) 265-7785","price":"$$","reviewCount":12,"reviewScore":4,"meta":{"revision":0,"created":1547531155792,"version":0},"$loki":236},{"_id":"5c3d65bd3525a329e0c01b40","address":"134 Madrona Drive","location":{"type":"Point","coordinates":[-123.39671,48.6490848]},"isApproved":true,"items":[],"keys":["Pizza"],"lastUpdated":1547527612258,"name":"Wood-fired Pizza","phone":"(250) 539-3388","price":"$$","reviewCount":3,"reviewScore":4.5,"meta":{"revision":0,"created":1547531155792,"version":0},"$loki":237},{"_id":"5c3d65bd3525a329e0c0014c","address":"2470 Beacon Avenue","location":{"type":"Point","coordinates":[-123.3975201,48.6490567]},"isApproved":true,"items":[],"keys":["Modern European"],"lastUpdated":1547527612224,"name":"Bistro Suisse","phone":"(250) 656-5353","price":"$$","reviewCount":39,"reviewScore":4.5,"meta":{"revision":0,"created":1547531155792,"version":0},"$loki":238},{"_id":"5c3d65bd3525a329e0c1777a","address":"9891 Seaport Place","location":{"type":"Point","coordinates":[-123.397602033066,48.6491187235926]},"isApproved":true,"items":[],"keys":["Seafood","Tapas Bars"],"lastUpdated":1547527612791,"name":"The Surly Mermaid","phone":"(778) 351-1544","price":"$$","reviewCount":34,"reviewScore":4,"meta":{"revision":0,"created":1547531155792,"version":0},"$loki":239},{"_id":"5c3d65bd3525a329e0c040ab","address":"7575 Mays Rd","location":{"type":"Point","coordinates":[-123.3968643,48.6494662]},"isApproved":true,"items":[],"keys":["Cafes","Wineries"],"lastUpdated":1547527612320,"name":"Saison Market Vineyard","phone":"(250) 597-0484","price":"$$","reviewCount":7,"reviewScore":4.5,"meta":{"revision":0,"created":1547531155792,"version":0},"$loki":240},{"_id":"5c3d65bd3525a329e0c1a623","address":"1011 Blanshard Street","location":{"type":"Point","coordinates":[-123.395958,48.648817100173]},"isApproved":true,"items":[],"keys":["Food Stands","Middle Eastern"],"lastUpdated":1547527612860,"name":"Yalla Middle Eastern Cuisine","phone":"(250) 384-0069","price":"$","reviewCount":22,"reviewScore":4.5,"meta":{"revision":0,"created":1547531155792,"version":0},"$loki":241},{"_id":"5c3d65bd3525a329e0c08820","address":"2505 Beacon Avenue","location":{"type":"Point","coordinates":[-123.396435324814,48.6488342441728]},"isApproved":true,"items":[],"keys":["Cafes"],"lastUpdated":1547527612428,"name":"Beacon Cafe","phone":"(778) 426-3663","price":"","reviewCount":3,"reviewScore":2.5,"meta":{"revision":0,"created":1547531155792,"version":0},"$loki":242},{"_id":"5c3d65bd3525a329e0c0a20b","address":"51 Northshore Road","location":{"type":"Point","coordinates":[-123.3970454,48.6486619]},"isApproved":true,"items":[],"keys":["Steakhouses"],"lastUpdated":1547527612473,"name":"Cow Cafe & Cookhouse","phone":"(250) 749-4933","price":"$$","reviewCount":7,"reviewScore":3.5,"meta":{"revision":0,"created":1547531155792,"version":0},"$loki":243},{"_id":"5c3d65bd3525a329e0c00676","address":"2401 E Millstream Rd","location":{"type":"Point","coordinates":[-123.395641,48.647294]},"isApproved":true,"items":[],"keys":["Canadian (New)","Comfort Food","Bars"],"lastUpdated":1547527612227,"name":"Milestones Restaurants","phone":"(250) 391-5016","price":"$$","reviewCount":26,"reviewScore":3.5,"meta":{"revision":0,"created":1547531155792,"version":0},"$loki":244},{"_id":"5c3d65bd3525a329e0c08585","address":"9805 Seaport Place","location":{"type":"Point","coordinates":[-123.3948938,48.6493626]},"isApproved":true,"items":[],"keys":["Coffee & Tea","Sandwiches"],"lastUpdated":1547527612427,"name":"Georgia Cafe","phone":"(250) 655-9783","price":"$","reviewCount":3,"reviewScore":4,"meta":{"revision":0,"created":1547531155792,"version":0},"$loki":245},{"_id":"5c3d65bd3525a329e0c0d946","address":"2550 Beacon Avenue","location":{"type":"Point","coordinates":[-123.394072946682,48.649064292293]},"isApproved":true,"items":[],"keys":["Seafood","Canadian (New)"],"lastUpdated":1547527612555,"name":"Pier Bistro","phone":"(250) 655-4995","price":"$$","reviewCount":49,"reviewScore":3.5,"meta":{"revision":0,"created":1547531155792,"version":0},"$loki":246},{"_id":"5c3d65bd3525a329e0c0e306","address":"2537 Beacon Avenue","location":{"type":"Point","coordinates":[-123.3947272,48.648765]},"isApproved":true,"items":[],"keys":["Lounges","Canadian (New)"],"lastUpdated":1547527612572,"name":"Beacon Landing Bar & Grill","phone":"(250) 656-6690","price":"$$","reviewCount":46,"reviewScore":3,"meta":{"revision":0,"created":1547531155792,"version":0},"$loki":247},{"_id":"5c3d65bd3525a329e0c0cc72","address":"9805 Seaport Place","location":{"type":"Point","coordinates":[-123.3948938,48.6491158]},"isApproved":true,"items":[],"keys":["Bars","Seafood"],"lastUpdated":1547527612533,"name":"Haro’s Restaurant and Bar","phone":"(250) 655-9700","price":"$$","reviewCount":25,"reviewScore":3.5,"meta":{"revision":0,"created":1547531155792,"version":0},"$loki":248},{"_id":"5c3d65bd3525a329e0c0b34f","address":"6991 E Saanich Road","location":{"type":"Point","coordinates":[-123.394909806238,48.6504503140779]},"isApproved":true,"items":[],"keys":["Delis","Gluten-Free"],"lastUpdated":1547527612498,"name":"Tonolli’s Deli","phone":"(778) 426-2822","price":"$","reviewCount":5,"reviewScore":5,"meta":{"revision":0,"created":1547531155792,"version":0},"$loki":249},{"_id":"5c3d65bd3525a329e0c14761","address":"3020 Drinkwater Road","location":{"type":"Point","coordinates":[-123.394518,48.6505939]},"isApproved":true,"items":[],"keys":["Fast Food","Burgers"],"lastUpdated":1547527612721,"name":"McDonald’s","phone":"(250) 748-7838","price":"","reviewCount":0,"reviewScore":0,"meta":{"revision":0,"created":1547531155792,"version":0},"$loki":250},{"_id":"5c3d65bd3525a329e0c0d646","address":"9881 Seaport Place","location":{"type":"Point","coordinates":[-123.394098,48.650682]},"isApproved":true,"items":[],"keys":["Pubs","Seafood"],"lastUpdated":1547527612548,"name":"The Rumrunner Pub","phone":"(250) 656-5643","price":"$$","reviewCount":38,"reviewScore":3,"meta":{"revision":0,"created":1547531155792,"version":0},"$loki":251},{"_id":"5c3d65bd3525a329e0c0cb92","address":"BC Ferries","location":{"type":"Point","coordinates":[-123.409696538139,48.6898842138855]},"isApproved":true,"items":[],"keys":["Buffets"],"lastUpdated":1547527612533,"name":"Pacific Buffet","phone":"(888) 223-7779","price":"$$","reviewCount":10,"reviewScore":3.5,"meta":{"revision":0,"created":1547531155792,"version":0},"$loki":252},