{"filename":"-124.25-48.75","collections":[{"name":"restaurants","data":[{"_id":"5c3d65bd3525a329e0c089d2","address":"Bayview Ave Communit","location":{"type":"Point","coordinates":[-124.4169041,48.554483]},"isApproved":true,"items":[],"keys":["Breakfast & Brunch"],"lastUpdated":1547527612429,"name":"Washington State of","phone":"(360) 645-2569","price":"","reviewCount":0,"reviewScore":0,"meta":{"revision":0,"created":1547531147395,"version":0},"$loki":1},{"_id":"5c3d65bd3525a329e0c15ff8","address":"6574 Baird Road","location":{"type":"Point","coordinates":[-124.4169041,48.554483]},"isApproved":true,"items":[],"keys":["Restaurants"],"lastUpdated":1547527612756,"name":"Shack in the Woods","phone":"(778) 410-2401","price":"","reviewCount":0,"reviewScore":0,"meta":{"revision":0,"created":1547531147395,"version":0},"$loki":2},{"_id":"5c3d65bd3525a329e0c07fff","address":"721 Station Avenue","location":{"type":"Point","coordinates":[-124.4225339,48.5529843]},"isApproved":true,"items":[],"keys":["Diners"],"lastUpdated":1547527612418,"name":"Floyd’s Diner","phone":"(778) 440-1200","price":"$$","reviewCount":33,"reviewScore":4,"meta":{"revision":0,"created":1547531147395,"version":0},"$loki":3},{"_id":"5c3d65bd3525a329e0c09c64","address":"45 Craig Street","location":{"type":"Point","coordinates":[-124.4193744,48.5522878]},"isApproved":true,"items":[],"keys":["Canadian (New)"],"lastUpdated":1547527612465,"name":"Just Jake’s","phone":"(250) 746-5622","price":"$$","reviewCount":24,"reviewScore":3.5,"meta":{"revision":0,"created":1547531147395,"version":0},"$loki":4},{"_id":"5c3d65bd3525a329e0c07ba7","address":"202-9800 McDonald Park Road","location":{"type":"Point","coordinates":[-124.417928,48.5526958]},"isApproved":true,"items":[],"keys":["Chinese"],"lastUpdated":1547527612410,"name":"Maple Palace Chinese Restaurant","phone":"(778) 426-3288","price":"","reviewCount":1,"reviewScore":4,"meta":{"revision":0,"created":1547531147395,"version":0},"$loki":5},{"_id":"5c3d65bd3525a329e0c03253","address":"2740 Sturdies Bay Road","location":{"type":"Point","coordinates":[-124.0506267,48.8270414]},"isApproved":true,"items":[],"keys":["American (Traditional)","Diners"],"lastUpdated":1547527612296,"name":"Grand Central Diner","phone":"(250) 539-9885","price":"$$","reviewCount":13,"reviewScore":4,"meta":{"revision":0,"created":1547531147395,"version":0},"$loki":6},{"_id":"5c3d65bd3525a329e0c026c9","address":"1759 Cowichan Bay Road","location":{"type":"Point","coordinates":[-124.051056,48.827039]},"isApproved":true,"items":[],"keys":["Seafood"],"lastUpdated":1547527612284,"name":"Rock Cod Cafe","phone":"(250) 746-1550","price":"$$","reviewCount":38,"reviewScore":4,"meta":{"revision":0,"created":1547531147395,"version":0},"$loki":7},{"_id":"5c3d65bd3525a329e0c0a2fb","address":"160 Upper Ganges Rd","location":{"type":"Point","coordinates":[-124.052684081633,48.8272012488085]},"isApproved":true,"items":[],"keys":["Diners","British"],"lastUpdated":1547527612474,"name":"Hastings House Dining Room","phone":"(250) 537-2362","price":"$$$$","reviewCount":5,"reviewScore":4.5,"meta":{"revision":0,"created":1547531147395,"version":0},"$loki":8},{"_id":"5c3d65bd3525a329e0c16de2","address":"109 S Shore Road","location":{"type":"Point","coordinates":[-124.0579855,48.8238708]},"isApproved":true,"items":[],"keys":["Gastropubs"],"lastUpdated":1547527612780,"name":"Just Jakes At The Lake","phone":"(250) 932-2221","price":"$$","reviewCount":9,"reviewScore":3,"meta":{"revision":0,"created":1547531147395,"version":0},"$loki":9},{"_id":"5c3d65bd3525a329e0c16bb2","address":"602 Broughton Street","location":{"type":"Point","coordinates":[-124.057258106768,48.8220550556244]},"isApproved":true,"items":[],"keys":["Desserts","Poutineries","Patisserie/Cake Shop"],"lastUpdated":1547527612773,"name":"BeaverTails","phone":"(778) 440-8245","price":"$","reviewCount":37,"reviewScore":4.5,"meta":{"revision":0,"created":1547531147395,"version":0},"$loki":10},{"_id":"5c3d65bd3525a329e0c16431","address":"512 Fort Street","location":{"type":"Point","coordinates":[-124.0572825,48.8229166]},"isApproved":true,"items":[],"keys":["Thai","Seafood","Soup"],"lastUpdated":1547527612764,"name":"Siam Thai Restaurant","phone":"(250) 383-9911","price":"$$","reviewCount":36,"reviewScore":3.5,"meta":{"revision":0,"created":1547531147395,"version":0},"$loki":11},{"_id":"5c3d65bd3525a329e0c15b35","address":"101-1517 Admirals Road","location":{"type":"Point","coordinates":[-123.8005881,48.7718546]},"isApproved":true,"items":[],"keys":["Fast Food","Ice Cream & Frozen Yogurt"],"lastUpdated":1547527612753,"name":"DQ Grill & Chill Restaurant","phone":"(250) 383-8511","price":"","reviewCount":4,"reviewScore":2.5,"meta":{"revision":0,"created":1547531147395,"version":0},"$loki":12}],"idIndex":[1,2,3,4,5,6,7,8,9,10,11,12],"binaryIndices":{},"constraints":null,"uniqueNames":[],"transforms":{},"objType":"restaurants","dirty":true,"cachedIndex":null,"cachedBinaryIndex":null,"cachedData":null,"adaptiveBinaryIndices":true,"transactional":false,"cloneObjects":false,"cloneMethod":"parse-stringify","asyncListeners":false,"disableMeta":false,"disableChangesApi":true,"disableDeltaChangesApi":true,"autoupdate":false,"serializableIndices":true,"ttl":null,"maxId":12,"DynamicViews":[],"events":{"insert":[],"update":[],"pre-insert":[],"pre-update":[],"close":[],"flushbuffer":[],"error":[],"delete":[null],"warning":[null]},"changes":[]}],"databaseVersion":1.5,"engineVersion":1.5,"autosave":false,"autosaveInterval":5000,"autosaveHandle":null,"throttledSaves":true,"options":{"serializationMethod":"normal","destructureDelimiter":"$<\n"},"persistenceMethod":"fs","persistenceAdapter":null,"verbose":false,"events":{"init":[null],"loaded":[],"flushChanges":[],"close":[],"changes":[],"warning":[]},"ENV":"NODEJS"}