{"filename":"-124.25-47.25","collections":[{"name":"restaurants","data":[{"_id":"5c3d65bd3525a329e0c12139","address":"698 Ocean Shores Blvd","location":{"type":"Point","coordinates":[-124.19776,47.194945]},"isApproved":true,"items":[],"keys":["Burgers","American (Traditional)"],"lastUpdated":1547527612663,"name":"Shore Shack","phone":"(360) 289-0900","price":"$","reviewCount":55,"reviewScore":3,"meta":{"revision":0,"created":1547531148134,"version":0},"$loki":1},{"_id":"5c3d65bd3525a329e0c17b91","address":"5 W Myrtle Ln","location":{"type":"Point","coordinates":[-124.198821253412,47.1954432738613]},"isApproved":true,"items":[],"keys":["Pubs","American (New)"],"lastUpdated":1547527612800,"name":"Mill 109","phone":"(360) 276-4884","price":"$$","reviewCount":237,"reviewScore":3.5,"meta":{"revision":0,"created":1547531148134,"version":0},"$loki":2},{"_id":"5c3d65bd3525a329e0c138e5","address":"520 23rd St","location":{"type":"Point","coordinates":[-124.198826,47.195527]},"isApproved":true,"items":[],"keys":["Bars","American (Traditional)"],"lastUpdated":1547527612698,"name":"Welcome Inn","phone":"(360) 533-5060","price":"$$","reviewCount":19,"reviewScore":4,"meta":{"revision":0,"created":1547531148134,"version":0},"$loki":3},{"_id":"5c3d65bd3525a329e0c0ba5e","address":"850 Point Brown Ave NE","location":{"type":"Point","coordinates":[-124.2028593,47.2086339]},"isApproved":true,"items":[],"keys":["Fast Food"],"lastUpdated":1547527612507,"name":"The Lighthouse","phone":"(360) 289-0903","price":"","reviewCount":8,"reviewScore":4,"meta":{"revision":0,"created":1547531148134,"version":0},"$loki":4},{"_id":"5c3d65bd3525a329e0c06aa4","address":"830 Point Brown Ave NE","location":{"type":"Point","coordinates":[-124.162956,47.015332]},"isApproved":true,"items":[],"keys":["Seafood","Sushi Bars","Steakhouses"],"lastUpdated":1547527612380,"name":"Mike’s Seafood","phone":"(360) 289-0532","price":"$$","reviewCount":296,"reviewScore":3.5,"meta":{"revision":0,"created":1547531148134,"version":0},"$loki":5},{"_id":"5c3d65bd3525a329e0c0aa42","address":"78 State Rt 115","location":{"type":"Point","coordinates":[-124.1614638,47.0140275]},"isApproved":true,"items":[],"keys":["Steakhouses","Seafood"],"lastUpdated":1547527612488,"name":"Emily’s Restaurant","phone":"(888) 461-2214","price":"$$","reviewCount":104,"reviewScore":3,"meta":{"revision":0,"created":1547531148134,"version":0},"$loki":6},{"_id":"5c3d65bd3525a329e0c06483","address":"720 W Wishkah St","location":{"type":"Point","coordinates":[-124.1618307,47.0135176]},"isApproved":true,"items":[],"keys":["Mexican"],"lastUpdated":1547527612371,"name":"Mazatlan Restaurant","phone":"(360) 532-0940","price":"$$","reviewCount":45,"reviewScore":3,"meta":{"revision":0,"created":1547531148134,"version":0},"$loki":7},{"_id":"5c3d65bd3525a329e0c19f9c","address":"1015 W Robert Bush Dr","location":{"type":"Point","coordinates":[-124.162334,47.014352]},"isApproved":true,"items":[],"keys":["Coffee & Tea","Florists","Breakfast & Brunch"],"lastUpdated":1547527612851,"name":"Elixir Coffee","phone":"(360) 875-8032","price":"$","reviewCount":52,"reviewScore":4.5,"meta":{"revision":0,"created":1547531148134,"version":0},"$loki":8},{"_id":"5c3d65bd3525a329e0c11bbd","address":"100 N Park St","location":{"type":"Point","coordinates":[-124.1656549,47.0117087]},"isApproved":true,"items":[],"keys":["Thai"],"lastUpdated":1547527612659,"name":"Thai Smiles","phone":"(360) 637-9434","price":"$","reviewCount":51,"reviewScore":4,"meta":{"revision":0,"created":1547531148134,"version":0},"$loki":9},{"_id":"5c3d65bd3525a329e0c001ea","address":"893 Pt Brown Ave NW","location":{"type":"Point","coordinates":[-124.1657771,47.0108525]},"isApproved":true,"items":[],"keys":["Pubs","American (Traditional)","Karaoke"],"lastUpdated":1547527612224,"name":"Porthole Pub Bar & Grill","phone":"(360) 289-4469","price":"$$","reviewCount":91,"reviewScore":3.5,"meta":{"revision":0,"created":1547531148134,"version":0},"$loki":10},{"_id":"5c3d65bd3525a329e0c12b92","address":"909 E Wishkah","location":{"type":"Point","coordinates":[-124.1623626,47.0117938]},"isApproved":true,"items":[],"keys":["Fast Food","Burgers","Coffee & Tea"],"lastUpdated":1547527612680,"name":"McDonald’s","phone":"(360) 533-1533","price":"$","reviewCount":3,"reviewScore":2.5,"meta":{"revision":0,"created":1547531148134,"version":0},"$loki":11},{"_id":"5c3d65bd3525a329e0bffa17","address":"806 Ocean Shores Blvd NW","location":{"type":"Point","coordinates":[-124.161182,47.011092]},"isApproved":true,"items":[],"keys":["Chinese","Vietnamese"],"lastUpdated":1547527612220,"name":"Viet Hoa Restaurant","phone":"(360) 289-2818","price":"$","reviewCount":197,"reviewScore":3.5,"meta":{"revision":0,"created":1547531148134,"version":0},"$loki":12},{"_id":"5c3d65bd3525a329e0c18e95","address":"857 Point Brown Ave NW","location":{"type":"Point","coordinates":[-124.162349738181,47.0122879427873]},"isApproved":true,"items":[],"keys":["Seafood","American (Traditional)"],"lastUpdated":1547527612831,"name":"Home Port Restaurant","phone":"(360) 289-2600","price":"$$","reviewCount":154,"reviewScore":3,"meta":{"revision":0,"created":1547531148134,"version":0},"$loki":13},{"_id":"5c3d65bd3525a329e0c16f05","address":"841 Point Brown Ave NW","location":{"type":"Point","coordinates":[-124.16255,47.012996]},"isApproved":true,"items":[],"keys":["Coffee & Tea","Breakfast & Brunch","Wine Bars"],"lastUpdated":1547527612781,"name":"Ocean Beach Roasters & Bistro","phone":"(360) 289-3100","price":"$$","reviewCount":317,"reviewScore":4.5,"meta":{"revision":0,"created":1547531148134,"version":0},"$loki":14},{"_id":"5c3d65bd3525a329e0c0d47d","address":"104 Lincoln St","location":{"type":"Point","coordinates":[-124.1619002,47.0124897]},"isApproved":true,"items":[],"keys":["Burgers"],"lastUpdated":1547527612547,"name":"Al’s Hum Dinger","phone":"(360) 533-2754","price":"$","reviewCount":92,"reviewScore":4.5,"meta":{"revision":0,"created":1547531148134,"version":0},"$loki":15},{"_id":"5c3d65bd3525a329e0c177e6","address":"202 W Ocean Ave","location":{"type":"Point","coordinates":[-124.1622295,47.0093304]},"isApproved":true,"items":[],"keys":["Mexican"],"lastUpdated":1547527612792,"name":"El Rancho","phone":"(360) 268-7294","price":"$$","reviewCount":36,"reviewScore":4,"meta":{"revision":0,"created":1547531148134,"version":0},"$loki":16},{"_id":"5c3d65bd3525a329e0c0534b","address":"1200 N Montesano St","location":{"type":"Point","coordinates":[-124.1620136,47.0090605]},"isApproved":true,"items":[],"keys":["Pizza"],"lastUpdated":1547527612346,"name":"Original House of Pizza","phone":"(360) 268-0901","price":"$$","reviewCount":60,"reviewScore":3.5,"meta":{"revision":0,"created":1547531148134,"version":0},"$loki":17},{"_id":"5c3d65bd3525a329e0c0b2a3","address":"301 N Park St","location":{"type":"Point","coordinates":[-124.1621886,47.008744]},"isApproved":true,"items":[],"keys":["Hot Dogs"],"lastUpdated":1547527612498,"name":"‘Deen Dogs","phone":"","price":"","reviewCount":2,"reviewScore":3.5,"meta":{"revision":0,"created":1547531148134,"version":0},"$loki":18},{"_id":"5c3d65bd3525a329e0c12ddb","address":"2411 Nyhus St N","location":{"type":"Point","coordinates":[-124.1609538,47.0087546]},"isApproved":true,"items":[],"keys":["American (Traditional)","Breakfast & Brunch","Burgers"],"lastUpdated":1547527612681,"name":"Totem Drive Inn","phone":"(360) 268-0909","price":"$","reviewCount":19,"reviewScore":3.5,"meta":{"revision":0,"created":1547531148134,"version":0},"$loki":19},{"_id":"5c3d65bd3525a329e0c0be05","address":"701 Englewood Ln S","location":{"type":"Point","coordinates":[-124.159331,47.007313]},"isApproved":true,"items":[],"keys":["Coffee & Tea","Food Stands"],"lastUpdated":1547527612515,"name":"Whitecap Espresso","phone":"(360) 268-1282","price":"$","reviewCount":7,"reviewScore":4,"meta":{"revision":0,"created":1547531148134,"version":0},"$loki":20},{"_id":"5c3d65bd3525a329e0c16462","address":"823 W 1st St","location":{"type":"Point","coordinates":[-124.1668053,47.0021216]},"isApproved":true,"items":[],"keys":["Bars","Pizza","Sandwiches"],"lastUpdated":1547527612764,"name":"West First St Pub","phone":"(360) 637-8780","price":"$$","reviewCount":5,"reviewScore":3.5,"meta":{"revision":0,"created":1547531148134,"version":0},"$loki":21},{"_id":"5c3d65bd3525a329e0c0516f","address":"1414 260th Pl","location":{"type":"Point","coordinates":[-124.165481,47.005501]},"isApproved":true,"items":[],"keys":["American (Traditional)"],"lastUpdated":1547527612340,"name":"Anita’s Coastal Cafe","phone":"(360) 642-3500","price":"$$","reviewCount":47,"reviewScore":2.5,"meta":{"revision":0,"created":1547531148134,"version":0},"$loki":22},{"_id":"5c3d65bd3525a329e0c18abc","address":"620 E Heron St","location":{"type":"Point","coordinates":[-124.1653749,47.0055214]},"isApproved":true,"items":[],"keys":["Burgers"],"lastUpdated":1547527612823,"name":"Burger King","phone":"(360) 533-2176","price":"$","reviewCount":20,"reviewScore":2.5,"meta":{"revision":0,"created":1547531148134,"version":0},"$loki":23},{"_id":"5c3d65bd3525a329e0c13026","address":"185 W Chance A La Mer NW","location":{"type":"Point","coordinates":[-124.16070856154,47.0064712245789]},"isApproved":true,"items":[],"keys":["Caribbean","Barbeque"],"lastUpdated":1547527612688,"name":"Sea Breeze Bbq Hut & More","phone":"(360) 289-9900","price":"$$","reviewCount":92,"reviewScore":4.5,"meta":{"revision":0,"created":1547531148134,"version":0},"$loki":24},{"_id":"5c3d65bd3525a329e0c182fa","address":"160 Laurel Ave","location":{"type":"Point","coordinates":[-124.161260426044,47.006298837226]},"isApproved":true,"items":[],"keys":["American (Traditional)"],"lastUpdated":1547527612813,"name":"The Barge Restaurant","phone":"(360) 942-5100","price":"$$","reviewCount":21,"reviewScore":2.5,"meta":{"revision":0,"created":1547531148134,"version":0},"$loki":25},{"_id":"5c3d65bd3525a329e0c14eb4","address":"103 E Wishkah St","location":{"type":"Point","coordinates":[-124.162701434243,47.0070039108403]},"isApproved":true,"items":[],"keys":["American (Traditional)","Beer Bar"],"lastUpdated":1547527612736,"name":"The Tap Room","phone":"(360) 589-3311","price":"$","reviewCount":24,"reviewScore":4,"meta":{"revision":0,"created":1547531148134,"version":0},"$loki":26},{"_id":"5c3d65bd3525a329e0c05d98","address":"1143 East Wishkah Street","location":{"type":"Point","coordinates":[-124.1634105,47.0069154]},"isApproved":true,"items":[],"keys":["Pizza"],"lastUpdated":1547527612361,"name":"Papa Murphy’s","phone":"(360) 538-7210","price":"","reviewCount":4,"reviewScore":4.5,"meta":{"revision":0,"created":1547531148134,"version":0},"$loki":27},{"_id":"5c3d65bd3525a329e0c10f80","address":"1120 E Wishkah St","location":{"type":"Point","coordinates":[-124.165763,47.00772]},"isApproved":true,"items":[],"keys":["Fast Food","Tex-Mex","Mexican"],"lastUpdated":1547527612640,"name":"Taco Bell","phone":"(360) 538-1888","price":"$","reviewCount":9,"reviewScore":3,"meta":{"revision":0,"created":1547531148134,"version":0},"$loki":28},{"_id":"5c3d65bd3525a329e0c1616f","address":"1029 E Wishkah St","location":{"type":"Point","coordinates":[-124.1651715,47.00782]},"isApproved":true,"items":[],"keys":["Sandwiches","Fast Food"],"lastUpdated":1547527612763,"name":"Subway","phone":"(360) 532-5494","price":"$","reviewCount":9,"reviewScore":3,"meta":{"revision":0,"created":1547531148134,"version":0},"$loki":29},{"_id":"5c3d65bd3525a329e0c105f1","address":"319 W Wishkah St","location":{"type":"Point","coordinates":[-124.1620415,47.007829]},"isApproved":true,"items":[],"keys":["Pizza"],"lastUpdated":1547527612618,"name":"Little Caesars Pizza","phone":"(360) 612-3579","price":"","reviewCount":1,"reviewScore":1,"meta":{"revision":0,"created":1547531148134,"version":0},"$loki":30},{"_id":"5c3d65bd3525a329e0c10a8d","address":"131 E Chance A La Mer Ne","location":{"type":"Point","coordinates":[-124.1673539,47.0078102]},"isApproved":true,"items":[],"keys":["Seafood"],"lastUpdated":1547527612631,"name":"Alec’s By the Sea","phone":"(360) 289-4026","price":"$$","reviewCount":173,"reviewScore":3,"meta":{"revision":0,"created":1547531148134,"version":0},"$loki":31},{"_id":"5c3d65bd3525a329e0c02c9a","address":"1016 Catala Ave SE","location":{"type":"Point","coordinates":[-124.1656404,47.0067179]},"isApproved":true,"items":[],"keys":["Cafes"],"lastUpdated":1547527612293,"name":"Ocean Shores Community Club Cafe","phone":"(360) 289-2433","price":"","reviewCount":1,"reviewScore":3,"meta":{"revision":0,"created":1547531148134,"version":0},"$loki":32},{"_id":"5c3d65bd3525a329e0c1763d","address":"21 Seabrook Ave","location":{"type":"Point","coordinates":[-124.1656316,47.009744]},"isApproved":true,"items":[],"keys":["Pizza"],"lastUpdated":1547527612791,"name":"Frontager’s Pizza Co.","phone":"(360) 276-0297","price":"$$","reviewCount":96,"reviewScore":4,"meta":{"revision":0,"created":1547531148134,"version":0},"$loki":33},{"_id":"5c3d65bd3525a329e0c14b11","address":"404 Salmonberry Ln SW","location":{"type":"Point","coordinates":[-124.150980859995,46.95033639619]},"isApproved":true,"items":[],"keys":["American (New)"],"lastUpdated":1547527612728,"name":"Oyhut Bay Bistro","phone":"(360) 940-7138","price":"$$","reviewCount":97,"reviewScore":4.5,"meta":{"revision":0,"created":1547531148134,"version":0},"$loki":34},{"_id":"5c3d65bd3525a329e0c0268c","address":"412 S Boone","location":{"type":"Point","coordinates":[-124.1308369,46.9546455]},"isApproved":true,"items":[],"keys":["Thai"],"lastUpdated":1547527612284,"name":"Thai Carrot","phone":"(360) 532-2044","price":"$$","reviewCount":56,"reviewScore":3.5,"meta":{"revision":0,"created":1547531148134,"version":0},"$loki":35},{"_id":"5c3d65bd3525a329e0c0fca7","address":"845 Ocean Shores Blvd NW","location":{"type":"Point","coordinates":[-124.1674098,47.0146875]},"isApproved":true,"items":[],"keys":["Seafood","Steakhouses","American (Traditional)"],"lastUpdated":1547527612607,"name":"Ocean Grill","phone":"(360) 289-0530","price":"$$","reviewCount":246,"reviewScore":4,"meta":{"revision":0,"created":1547531148134,"version":0},"$loki":36},{"_id":"5c3d65bd3525a329e0c0ad76","address":"615 Ocean Shores Blvd NW","location":{"type":"Point","coordinates":[-124.168960293732,47.0422342019207]},"isApproved":true,"items":[],"keys":["American (New)"],"lastUpdated":1547527612490,"name":"Mariah’s Restaurant At the Polynesian","phone":"(360) 289-3361","price":"$$","reviewCount":78,"reviewScore":3,"meta":{"revision":0,"created":1547531148134,"version":0},"$loki":37},{"_id":"5c3d65bd3525a329e0c10ecf","address":"749 Point Brown Ave NW","location":{"type":"Point","coordinates":[-124.1740725,47.1138949]},"isApproved":true,"items":[],"keys":["Bakeries","Cafes"],"lastUpdated":1547527612640,"name":"Ocean Shores Bakery Cafe","phone":"(360) 500-2876","price":"","reviewCount":16,"reviewScore":4.5,"meta":{"revision":0,"created":1547531148134,"version":0},"$loki":38}],"idIndex":[1,2,3,4,5,6,7,8,9,10,11,12,13,14,15,16,17,18,19,20,21,22,23,24,25,26,27,28,29,30,31,32,33,34,35,36,37,38],"binaryIndices":{},"constraints":null,"uniqueNames":[],"transforms":{},"objType":"restaurants","dirty":true,"cachedIndex":null,"cachedBinaryIndex":null,"cachedData":null,"adaptiveBinaryIndices":true,"transactional":false,"cloneObjects":false,"cloneMethod":"parse-stringify","asyncListeners":false,"disableMeta":false,"disableChangesApi":true,"disableDeltaChangesApi":true,"autoupdate":false,"serializableIndices":true,"ttl":null,"maxId":38,"DynamicViews":[],"events":{"insert":[],"update":[],"pre-insert":[],"pre-update":[],"close":[],"flushbuffer":[],"error":[],"delete":[null],"warning":[null]},"changes":[]}],"databaseVersion":1.5,"engineVersion":1.5,"autosave":false,"autosaveInterval":5000,"autosaveHandle":null,"throttledSaves":true,"options":{"serializationMethod":"normal","destructureDelimiter":"$<\n"},"persistenceMethod":"fs","persistenceAdapter":null,"verbose":false,"events":{"init":[null],"loaded":[],"flushChanges":[],"close":[],"changes":[],"warning":[]},"ENV":"NODEJS"}