{"filename":"-124.75-43","collections":[{"name":"restaurants","data":[{"_id":"5c3d65bd3525a329e0c0d5c9","address":"530 8th St","location":{"type":"Point","coordinates":[-124.4181201,43.0684736]},"isApproved":true,"items":[],"keys":["American (New)"],"lastUpdated":1547527612548,"name":"A&W Restaurant","phone":"(541) 572-2411","price":"$","reviewCount":11,"reviewScore":4,"meta":{"revision":0,"created":1547531151591,"version":0},"$loki":1},{"_id":"5c3d65bd3525a329e0c07ef8","address":"1130 Baltimore Ave SE","location":{"type":"Point","coordinates":[-124.4130132,43.1133306]},"isApproved":true,"items":[],"keys":["Mexican","International Grocery"],"lastUpdated":1547527612417,"name":"A Little Bite","phone":"(541) 366-0104","price":"","reviewCount":4,"reviewScore":5,"meta":{"revision":0,"created":1547531151591,"version":0},"$loki":2},{"_id":"5c3d65bd3525a329e0c0fd2c","address":"1989 Sherman Ave","location":{"type":"Point","coordinates":[-124.4127417,43.1138963]},"isApproved":true,"items":[],"keys":["Cafes"],"lastUpdated":1547527612608,"name":"Wildflour Cafe & Catering","phone":"(541) 808-3633","price":"","reviewCount":3,"reviewScore":5,"meta":{"revision":0,"created":1547531151591,"version":0},"$loki":3},{"_id":"5c3d65bd3525a329e0c06cfd","address":"29 W 1st St","location":{"type":"Point","coordinates":[-124.4144791,43.1148023]},"isApproved":true,"items":[],"keys":["Restaurants","Ice Cream & Frozen Yogurt"],"lastUpdated":1547527612387,"name":"All American Ice Cream & Frozen Yogurt","phone":"(541) 396-5277","price":"","reviewCount":2,"reviewScore":5,"meta":{"revision":0,"created":1547531151591,"version":0},"$loki":4},{"_id":"5c3d65bd3525a329e0c1b257","address":"274 S Broadway","location":{"type":"Point","coordinates":[-124.4153558,43.113853]},"isApproved":true,"items":[],"keys":["Thai"],"lastUpdated":1547527612878,"name":"EZ Thai Restaurant","phone":"(541) 267-8404","price":"$$","reviewCount":124,"reviewScore":4,"meta":{"revision":0,"created":1547531151591,"version":0},"$loki":5},{"_id":"5c3d65bd3525a329e0c067e3","address":"1032 Oregon Ave SE","location":{"type":"Point","coordinates":[-124.4143203,43.1122386]},"isApproved":true,"items":[],"keys":["Chinese","Lounges"],"lastUpdated":1547527612378,"name":"Asian Garden","phone":"(541) 329-1100","price":"$$","reviewCount":29,"reviewScore":3,"meta":{"revision":0,"created":1547531151591,"version":0},"$loki":6},{"_id":"5c3d65bd3525a329e0c076b6","address":"740 Koos Bay Blvd","location":{"type":"Point","coordinates":[-124.4101188,43.1188675]},"isApproved":true,"items":[],"keys":["Pizza"],"lastUpdated":1547527612402,"name":"Dave’s Pizza","phone":"(541) 269-1010","price":"$$","reviewCount":45,"reviewScore":3.5,"meta":{"revision":0,"created":1547531151591,"version":0},"$loki":7},{"_id":"5c3d65bd3525a329e0c02a39","address":"490 Hwy 101","location":{"type":"Point","coordinates":[-124.4103017,43.118842]},"isApproved":true,"items":[],"keys":["Pizza","Bakeries","Coffee & Tea"],"lastUpdated":1547527612286,"name":"Pastries & Pizza","phone":"(541) 329-1767","price":"$$","reviewCount":61,"reviewScore":4.5,"meta":{"revision":0,"created":1547531151591,"version":0},"$loki":8},{"_id":"5c3d65bd3525a329e0c10ee0","address":"680 2nd St Se On Hwy 101","location":{"type":"Point","coordinates":[-124.408448,43.1189978]},"isApproved":true,"items":[],"keys":["Cheese Shops","Ice Cream & Frozen Yogurt","Cafes"],"lastUpdated":1547527612640,"name":"Face Rock Creamery","phone":"(541) 347-3223","price":"$","reviewCount":189,"reviewScore":4.5,"meta":{"revision":0,"created":1547531151591,"version":0},"$loki":9},{"_id":"5c3d65bd3525a329e0c11db0","address":"183 E Second St","location":{"type":"Point","coordinates":[-124.4085466,43.1193501]},"isApproved":true,"items":[],"keys":["Coffee & Tea","Cafes","Breakfast & Brunch"],"lastUpdated":1547527612661,"name":"The Coffee Connection","phone":"(541) 396-2800","price":"$","reviewCount":3,"reviewScore":4,"meta":{"revision":0,"created":1547531151591,"version":0},"$loki":10},{"_id":"5c3d65bd3525a329e0c1b1a2","address":"2 N Central St","location":{"type":"Point","coordinates":[-124.4067308,43.1188297]},"isApproved":true,"items":[],"keys":["American (New)","Burgers","Sandwiches"],"lastUpdated":1547527612877,"name":"Coquille Broiler","phone":"(541) 396-7039","price":"$$","reviewCount":30,"reviewScore":3.5,"meta":{"revision":0,"created":1547531151591,"version":0},"$loki":11},{"_id":"5c3d65bd3525a329e0c0a2e4","address":"90 June Ave SE","location":{"type":"Point","coordinates":[-124.4028709,43.1199472]},"isApproved":true,"items":[],"keys":["Delis","Beer, Wine & Spirits","Mexican"],"lastUpdated":1547527612473,"name":"Wilsons Market","phone":"(541) 347-3083","price":"$","reviewCount":14,"reviewScore":4.5,"meta":{"revision":0,"created":1547531151591,"version":0},"$loki":12},{"_id":"5c3d65bd3525a329e0c0ec3a","address":"160 Baltimore Ave","location":{"type":"Point","coordinates":[-124.398086547852,43.1194267272949]},"isApproved":true,"items":[],"keys":["Irish","Burgers","Sports Bars"],"lastUpdated":1547527612582,"name":"Foley’s Irish Pub","phone":"(541) 329-2203","price":"$$","reviewCount":131,"reviewScore":3.5,"meta":{"revision":0,"created":1547531151591,"version":0},"$loki":13},{"_id":"5c3d65bd3525a329e0c0386a","address":"155 First St","location":{"type":"Point","coordinates":[-124.413849,43.120078]},"isApproved":true,"items":[],"keys":["Seafood"],"lastUpdated":1547527612304,"name":"Tony’s Crab Shack","phone":"(541) 347-2875","price":"$$","reviewCount":412,"reviewScore":4,"meta":{"revision":0,"created":1547531151591,"version":0},"$loki":14},{"_id":"5c3d65bd3525a329e0c17ca4","address":"249 1st St SE","location":{"type":"Point","coordinates":[-124.413014377897,43.119941302538]},"isApproved":true,"items":[],"keys":["Seafood","Fish & Chips","Cocktail Bars"],"lastUpdated":1547527612800,"name":"Bandon Fish Market","phone":"(541) 347-4282","price":"$$","reviewCount":251,"reviewScore":4,"meta":{"revision":0,"created":1547531151591,"version":0},"$loki":15},{"_id":"5c3d65bd3525a329e0c13414","address":"735 3rd St SE","location":{"type":"Point","coordinates":[-124.412616,43.119908]},"isApproved":true,"items":[],"keys":["Delis"],"lastUpdated":1547527612690,"name":"The Fleet Deli","phone":"(541) 290-7030","price":"","reviewCount":5,"reviewScore":5,"meta":{"revision":0,"created":1547531151591,"version":0},"$loki":16},{"_id":"5c3d65bd3525a329e0c093cd","address":"130 Chicago Ave","location":{"type":"Point","coordinates":[-124.412502,43.1196301]},"isApproved":true,"items":[],"keys":["Italian"],"lastUpdated":1547527612452,"name":"Angelo’s Italy","phone":"(541) 329-0372","price":"$$","reviewCount":132,"reviewScore":4,"meta":{"revision":0,"created":1547531151591,"version":0},"$loki":17},{"_id":"5c3d65bd3525a329e0c0cd2c","address":"125 Chicago Ave SE","location":{"type":"Point","coordinates":[-124.41239764885,43.119664376227]},"isApproved":true,"items":[],"keys":["Seafood","Desserts"],"lastUpdated":1547527612534,"name":"The Wheelhouse & Crowsnest","phone":"(541) 347-9331","price":"$$","reviewCount":160,"reviewScore":3.5,"meta":{"revision":0,"created":1547531151591,"version":0},"$loki":18},{"_id":"5c3d65bd3525a329e0bffd7d","address":"395 2nd St SE","location":{"type":"Point","coordinates":[-124.4113139,43.1193436]},"isApproved":true,"items":[],"keys":["Pizza","Breweries"],"lastUpdated":1547527612222,"name":"Bandon Brewing Company","phone":"(541) 347-3911","price":"$$","reviewCount":134,"reviewScore":4,"meta":{"revision":0,"created":1547531151591,"version":0},"$loki":19},{"_id":"5c3d65bd3525a329e0c0548c","address":"375 2nd St SE","location":{"type":"Point","coordinates":[-124.4114027,43.1191676]},"isApproved":true,"items":[],"keys":["Italian","Seafood","Steakhouses"],"lastUpdated":1547527612347,"name":"Alloro Wine Bar and Restaurant","phone":"(541) 347-1850","price":"$$","reviewCount":182,"reviewScore":4.5,"meta":{"revision":0,"created":1547531151591,"version":0},"$loki":20},{"_id":"5c3d65bd3525a329e0c195eb","address":"145 2nd St SE","location":{"type":"Point","coordinates":[-124.4115787,43.1193133]},"isApproved":true,"items":[],"keys":["Breakfast & Brunch"],"lastUpdated":1547527612841,"name":"Minute Cafe","phone":"(541) 347-2707","price":"$","reviewCount":197,"reviewScore":3.5,"meta":{"revision":0,"created":1547531151591,"version":0},"$loki":21},{"_id":"5c3d65bd3525a329e0c06021","address":"325 2nd St SE","location":{"type":"Point","coordinates":[-124.412325965676,43.1191857242301]},"isApproved":true,"items":[],"keys":["American (Traditional)","Bars","Salad"],"lastUpdated":1547527612368,"name":"Broken Anchor Bar & Grill","phone":"(541) 329-2326","price":"$$","reviewCount":111,"reviewScore":4,"meta":{"revision":0,"created":1547531151591,"version":0},"$loki":22},{"_id":"5c3d65bd3525a329e0c14c22","address":"230 2nd St SE","location":{"type":"Point","coordinates":[-124.41274603399,43.1189187765368]},"isApproved":true,"items":[],"keys":["Latin American","Juice Bars & Smoothies","Steakhouses"],"lastUpdated":1547527612729,"name":"Pablo’s Corner","phone":"(541) 404-1980","price":"","reviewCount":25,"reviewScore":5,"meta":{"revision":0,"created":1547531151591,"version":0},"$loki":23},{"_id":"5c3d65bd3525a329e0bff806","address":"230 2nd St","location":{"type":"Point","coordinates":[-124.412791,43.1189206]},"isApproved":true,"items":[],"keys":["Bakeries","Coffee & Tea","Soup"],"lastUpdated":1547527612218,"name":"The Rolling Pin Bake and Brews","phone":"(541) 252-5244","price":"$","reviewCount":25,"reviewScore":5,"meta":{"revision":0,"created":1547531151591,"version":0},"$loki":24},{"_id":"5c3d65bd3525a329e0c0e5e8","address":"160 2nd St SE","location":{"type":"Point","coordinates":[-124.4139211,43.1189947]},"isApproved":true,"items":[],"keys":["Bakeries","Desserts","Delis"],"lastUpdated":1547527612573,"name":"Bandon Baking Company","phone":"(541) 347-9440","price":"$","reviewCount":44,"reviewScore":4,"meta":{"revision":0,"created":1547531151591,"version":0},"$loki":25},{"_id":"5c3d65bd3525a329e0c1ae58","address":"102 Hall Ave","location":{"type":"Point","coordinates":[-124.414145500266,43.1191360461596]},"isApproved":true,"items":[],"keys":["Fish & Chips"],"lastUpdated":1547527612876,"name":"The Boat Fish & Chips","phone":"","price":"$$","reviewCount":58,"reviewScore":4,"meta":{"revision":0,"created":1547531151591,"version":0},"$loki":26},{"_id":"5c3d65bd3525a329e0c0b608","address":"365 2nd St SE","location":{"type":"Point","coordinates":[-124.413819,43.1194253]},"isApproved":true,"items":[],"keys":["Coffee & Tea","Sandwiches"],"lastUpdated":1547527612499,"name":"Bandon Coffee Cafe","phone":"(541) 347-1144","price":"$","reviewCount":110,"reviewScore":4,"meta":{"revision":0,"created":1547531151591,"version":0},"$loki":27},{"_id":"5c3d65bd3525a329e0c15ee1","address":"150 North Ave SE","location":{"type":"Point","coordinates":[-124.4142453,43.1197055]},"isApproved":true,"items":[],"keys":["Mexican","Seafood","Latin American"],"lastUpdated":1547527612756,"name":"Rancho Viejo Mexican Restaurant","phone":"(541) 329-2040","price":"$$","reviewCount":37,"reviewScore":3.5,"meta":{"revision":0,"created":1547531151591,"version":0},"$loki":28},{"_id":"5c3d65bd3525a329e0c008b6","address":"110 1st St SE","location":{"type":"Point","coordinates":[-124.4146414,43.1199248]},"isApproved":true,"items":[],"keys":["Fish & Chips","Seafood"],"lastUpdated":1547527612228,"name":"Bandon Bait","phone":"(541) 347-3905","price":"$","reviewCount":26,"reviewScore":4,"meta":{"revision":0,"created":1547531151591,"version":0},"$loki":29},{"_id":"5c3d65bd3525a329e0c0b8ba","address":"480 1st St SW","location":{"type":"Point","coordinates":[-124.41853,43.12054]},"isApproved":true,"items":[],"keys":["Seafood","Sandwiches","Salad"],"lastUpdated":1547527612507,"name":"Edgewaters","phone":"(541) 347-8500","price":"$$","reviewCount":267,"reviewScore":4,"meta":{"revision":0,"created":1547531151591,"version":0},"$loki":30},{"_id":"5c3d65bd3525a329e0c05e44","address":"315 1st St SE","location":{"type":"Point","coordinates":[-124.417625,43.12032]},"isApproved":true,"items":[],"keys":["American (New)","Bars","Seafood"],"lastUpdated":1547527612362,"name":"The Loft Restaurant & Bar","phone":"(541) 329-0535","price":"$$$","reviewCount":82,"reviewScore":4.5,"meta":{"revision":0,"created":1547531151591,"version":0},"$loki":31},{"_id":"5c3d65bd3525a329e0c09cbc","address":"1695 Beach Loop Dr","location":{"type":"Point","coordinates":[-124.4326757,43.10862]},"isApproved":true,"items":[],"keys":["Seafood","American (New)"],"lastUpdated":1547527612465,"name":"Lord Bennett’s Restaurant","phone":"(541) 347-3663","price":"$$$","reviewCount":139,"reviewScore":4,"meta":{"revision":0,"created":1547531151591,"version":0},"$loki":32},{"_id":"5c3d65bd3525a329e0c06e53","address":"1120 Virginia Ave","location":{"type":"Point","coordinates":[-124.415363,43.09846]},"isApproved":true,"items":[],"keys":["Burgers","Sandwiches"],"lastUpdated":1547527612387,"name":"Yeong’s Place","phone":"(541) 756-1914","price":"$","reviewCount":124,"reviewScore":4.5,"meta":{"revision":0,"created":1547531151591,"version":0},"$loki":33},{"_id":"5c3d65bd3525a329e0c1577e","address":"48396 Hwy 101","location":{"type":"Point","coordinates":[-124.4504972,42.9264215]},"isApproved":true,"items":[],"keys":["Breakfast & Brunch","Cafes"],"lastUpdated":1547527612746,"name":"The Spoon","phone":"(541) 348-1015","price":"$","reviewCount":61,"reviewScore":4.5,"meta":{"revision":0,"created":1547531151591,"version":0},"$loki":34}],"idIndex":[1,2,3,4,5,6,7,8,9,10,11,12,13,14,15,16,17,18,19,20,21,22,23,24,25,26,27,28,29,30,31,32,33,34],"binaryIndices":{},"constraints":null,"uniqueNames":[],"transforms":{},"objType":"restaurants","dirty":true,"cachedIndex":null,"cachedBinaryIndex":null,"cachedData":null,"adaptiveBinaryIndices":true,"transactional":false,"cloneObjects":false,"cloneMethod":"parse-stringify","asyncListeners":false,"disableMeta":false,"disableChangesApi":true,"disableDeltaChangesApi":true,"autoupdate":false,"serializableIndices":true,"ttl":null,"maxId":34,"DynamicViews":[],"events":{"insert":[],"update":[],"pre-insert":[],"pre-update":[],"close":[],"flushbuffer":[],"error":[],"delete":[null],"warning":[null]},"changes":[]}],"databaseVersion":1.5,"engineVersion":1.5,"autosave":false,"autosaveInterval":5000,"autosaveHandle":null,"throttledSaves":true,"options":{"serializationMethod":"normal","destructureDelimiter":"$<\n"},"persistenceMethod":"fs","persistenceAdapter":null,"verbose":false,"events":{"init":[null],"loaded":[],"flushChanges":[],"close":[],"changes":[],"warning":[]},"ENV":"NODEJS"}