{"filename":"-77.5-35.75","collections":[{"name":"restaurants","data":[{"_id":"5c3d65bd3525a329e0c1af3c","address":"3434 Cooperative Way","location":{"type":"Point","coordinates":[-77.6039947,35.616805]},"isApproved":true,"items":[],"keys":["Chinese"],"lastUpdated":1547527612876,"name":"China 1","phone":"(252) 753-6888","price":"","reviewCount":1,"reviewScore":3,"meta":{"revision":0,"created":1547531150593,"version":0},"$loki":1},{"_id":"5c3d65bd3525a329e0c1889a","address":"648 S Memorial Dr","location":{"type":"Point","coordinates":[-77.604877,35.6172632]},"isApproved":true,"items":[],"keys":["Fast Food","Chicken Wings"],"lastUpdated":1547527612822,"name":"Popeyes Louisiana Kitchen","phone":"(252) 551-3002","price":"$","reviewCount":8,"reviewScore":2,"meta":{"revision":0,"created":1547531150593,"version":0},"$loki":2},{"_id":"5c3d65bd3525a329e0c0c13e","address":"624 S Memorial Dr","location":{"type":"Point","coordinates":[-77.6059065,35.6165711]},"isApproved":true,"items":[],"keys":["Burgers","Fast Food"],"lastUpdated":1547527612517,"name":"Wendy’s","phone":"(252) 752-0305","price":"$$$$","reviewCount":7,"reviewScore":1.5,"meta":{"revision":0,"created":1547531150593,"version":0},"$loki":3},{"_id":"5c3d65bd3525a329e0c115bd","address":"250 Easy St","location":{"type":"Point","coordinates":[-77.6059065,35.6165711]},"isApproved":true,"items":[],"keys":["Chinese"],"lastUpdated":1547527612649,"name":"Shun Xing","phone":"(252) 754-8223","price":"","reviewCount":1,"reviewScore":2,"meta":{"revision":0,"created":1547531150593,"version":0},"$loki":4},{"_id":"5c3d65bd3525a329e0c104bd","address":"540 Cotanche St","location":{"type":"Point","coordinates":[-77.3689599,35.6523786]},"isApproved":true,"items":[],"keys":["Sandwiches","Delis","Fast Food"],"lastUpdated":1547527612618,"name":"Jimmy John’s","phone":"(252) 329-0130","price":"","reviewCount":5,"reviewScore":3.5,"meta":{"revision":0,"created":1547531150593,"version":0},"$loki":5},{"_id":"5c3d65bd3525a329e0bffa8a","address":"703 Dickinson Ave","location":{"type":"Point","coordinates":[-77.3701680824161,35.6438126001876]},"isApproved":true,"items":[],"keys":["Gastropubs","Southern","Cocktail Bars"],"lastUpdated":1547527612220,"name":"Dickinson Avenue Public House","phone":"(252) 689-6388","price":"$$","reviewCount":105,"reviewScore":4.5,"meta":{"revision":0,"created":1547531150593,"version":0},"$loki":6},{"_id":"5c3d65bd3525a329e0c0637e","address":"1200 N Greene St","location":{"type":"Point","coordinates":[-77.3685915,35.6445131]},"isApproved":true,"items":[],"keys":["Mexican"],"lastUpdated":1547527612369,"name":"El Azador Mexican Restaurant","phone":"(252) 353-4229","price":"$","reviewCount":32,"reviewScore":4.5,"meta":{"revision":0,"created":1547531150593,"version":0},"$loki":7},{"_id":"5c3d65bd3525a329e0c1a788","address":"521 Cotanche St","location":{"type":"Point","coordinates":[-77.3664928,35.6524949]},"isApproved":true,"items":[],"keys":["Mexican"],"lastUpdated":1547527612867,"name":"Chico’s Mexican Restaurant","phone":"(252) 757-1666","price":"$$","reviewCount":44,"reviewScore":3,"meta":{"revision":0,"created":1547531150593,"version":0},"$loki":8},{"_id":"5c3d65bd3525a329e0c0e202","address":"120 W 5th St","location":{"type":"Point","coordinates":[-77.31472,35.652982]},"isApproved":true,"items":[],"keys":["Coffee & Tea","Beer, Wine & Spirits","Sandwiches"],"lastUpdated":1547527612565,"name":"Winslow’s","phone":"(252) 364-8921","price":"$$","reviewCount":129,"reviewScore":3,"meta":{"revision":0,"created":1547531150593,"version":0},"$loki":9},{"_id":"5c3d65bd3525a329e0c0d224","address":"114 E 5th St","location":{"type":"Point","coordinates":[-77.3721221,35.6302616]},"isApproved":true,"items":[],"keys":["Southern","Gastropubs","Beer, Wine & Spirits"],"lastUpdated":1547527612545,"name":"Crossbones Tavern","phone":"(252) 689-6199","price":"$$","reviewCount":29,"reviewScore":3.5,"meta":{"revision":0,"created":1547531150593,"version":0},"$loki":10},{"_id":"5c3d65bd3525a329e0c0bdd1","address":"1205 W Fifth St","location":{"type":"Point","coordinates":[-77.3778183,35.6330836]},"isApproved":true,"items":[],"keys":["Caribbean"],"lastUpdated":1547527612515,"name":"Munchy’s Jamaican And Caribbean Foods","phone":"(252) 215-5678","price":"$","reviewCount":3,"reviewScore":3,"meta":{"revision":0,"created":1547531150593,"version":0},"$loki":11},{"_id":"5c3d65bd3525a329e0c119ce","address":"213 E 5th St","location":{"type":"Point","coordinates":[-77.3774144,35.609341]},"isApproved":true,"items":[],"keys":["Hot Dogs","Burgers"],"lastUpdated":1547527612651,"name":"Sup Dogs","phone":"(252) 752-7682","price":"$","reviewCount":105,"reviewScore":4,"meta":{"revision":0,"created":1547531150593,"version":0},"$loki":12},{"_id":"5c3d65bd3525a329e0c156dd","address":"718 Dickinson Ave","location":{"type":"Point","coordinates":[-77.3761570484783,35.6092706084797]},"isApproved":true,"items":[],"keys":["Cocktail Bars","American (New)"],"lastUpdated":1547527612746,"name":"Ford + Shep","phone":"(252) 689-6853","price":"","reviewCount":21,"reviewScore":4,"meta":{"revision":0,"created":1547531150593,"version":0},"$loki":13},{"_id":"5c3d65bd3525a329e0c03c88","address":"7160 US Hwy 264 E","location":{"type":"Point","coordinates":[-77.3767242077104,35.6093108999413]},"isApproved":true,"items":[],"keys":["Southern","Seafood","Breakfast & Brunch"],"lastUpdated":1547527612312,"name":"Poor Mans Restaurant","phone":"(252) 974-7667","price":"$","reviewCount":3,"reviewScore":5,"meta":{"revision":0,"created":1547531150593,"version":0},"$loki":14},{"_id":"5c3d65bd3525a329e0bfff52","address":"1915 N Memorial Dr","location":{"type":"Point","coordinates":[-77.3766073,35.609415]},"isApproved":true,"items":[],"keys":["Mexican"],"lastUpdated":1547527612223,"name":"Anita’s Mexican Restaurant","phone":"(252) 375-7925","price":"$$","reviewCount":35,"reviewScore":5,"meta":{"revision":0,"created":1547531150593,"version":0},"$loki":15},{"_id":"5c3d65bd3525a329e0c10ece","address":"419 Evans St","location":{"type":"Point","coordinates":[-77.3727162,35.6112134]},"isApproved":true,"items":[],"keys":["Indian"],"lastUpdated":1547527612640,"name":"Cinnamon","phone":"(252) 551-3253","price":"$$","reviewCount":64,"reviewScore":4.5,"meta":{"revision":0,"created":1547531150593,"version":0},"$loki":16},{"_id":"5c3d65bd3525a329e0c1938b","address":"632 S Pitt St","location":{"type":"Point","coordinates":[-77.3728372143737,35.611204592054]},"isApproved":true,"items":[],"keys":["Pizza","Italian","Cocktail Bars"],"lastUpdated":1547527612834,"name":"Luna Pizza Cafe","phone":"(252) 751-0900","price":"$$","reviewCount":37,"reviewScore":4.5,"meta":{"revision":0,"created":1547531150593,"version":0},"$loki":17},{"_id":"5c3d65bd3525a329e0c17db9","address":"1700 W 5th St","location":{"type":"Point","coordinates":[-77.3733953,35.6113662]},"isApproved":true,"items":[],"keys":["Tacos"],"lastUpdated":1547527612801,"name":"Mario’s Tacos","phone":"","price":"$","reviewCount":41,"reviewScore":4.5,"meta":{"revision":0,"created":1547531150593,"version":0},"$loki":18},{"_id":"5c3d65bd3525a329e0c07fc8","address":"1938 N Memorial Dr","location":{"type":"Point","coordinates":[-77.3737592,35.6115724]},"isApproved":true,"items":[],"keys":["Fast Food"],"lastUpdated":1547527612418,"name":"Warren’s Hot Dogs","phone":"(252) 752-3647","price":"$","reviewCount":6,"reviewScore":4.5,"meta":{"revision":0,"created":1547531150593,"version":0},"$loki":19},{"_id":"5c3d65bd3525a329e0c010be","address":"718 Dickinson Ave","location":{"type":"Point","coordinates":[-77.3729214,35.6123235]},"isApproved":true,"items":[],"keys":["Waffles"],"lastUpdated":1547527612239,"name":"The Smashed Waffle Company","phone":"(252) 364-2872","price":"$","reviewCount":51,"reviewScore":4.5,"meta":{"revision":0,"created":1547531150593,"version":0},"$loki":20},{"_id":"5c3d65bd3525a329e0c105e3","address":"751 Bs Barbecue Rd","location":{"type":"Point","coordinates":[-77.3725989,35.611579]},"isApproved":true,"items":[],"keys":["Barbeque"],"lastUpdated":1547527612618,"name":"B’s Barbecue","phone":"(252) 758-7126","price":"$","reviewCount":139,"reviewScore":4.5,"meta":{"revision":0,"created":1547531150593,"version":0},"$loki":21},{"_id":"5c3d65bd3525a329e0bffc26","address":"104 W 5th St","location":{"type":"Point","coordinates":[-77.3710715,35.6111095]},"isApproved":true,"items":[],"keys":["American (New)","French","Modern European"],"lastUpdated":1547527612221,"name":"Starlight Cafe","phone":"(252) 707-9033","price":"$$","reviewCount":90,"reviewScore":4,"meta":{"revision":0,"created":1547531150593,"version":0},"$loki":22},{"_id":"5c3d65bd3525a329e0c05e02","address":"113 E 5th St","location":{"type":"Point","coordinates":[-77.3713168,35.610704]},"isApproved":true,"items":[],"keys":["Burgers","American (Traditional)","Bars"],"lastUpdated":1547527612361,"name":"Fire American Tavern","phone":"(252) 565-7333","price":"$$","reviewCount":19,"reviewScore":2.5,"meta":{"revision":0,"created":1547531150593,"version":0},"$loki":23},{"_id":"5c3d65bd3525a329e0c05fb4","address":"301 S Jarvis St","location":{"type":"Point","coordinates":[-77.3721331357956,35.6111268643998]},"isApproved":true,"items":[],"keys":["Pubs","American (New)"],"lastUpdated":1547527612368,"name":"Christy’s Euro Pub","phone":"(252) 758-2774","price":"$","reviewCount":93,"reviewScore":4,"meta":{"revision":0,"created":1547531150593,"version":0},"$loki":24},{"_id":"5c3d65bd3525a329e0c1b38e","address":"201 S Jarvis St","location":{"type":"Point","coordinates":[-77.3723912,35.6112802]},"isApproved":true,"items":[],"keys":["Sports Bars","American (Traditional)"],"lastUpdated":1547527612884,"name":"Anchorz Bar and Grill","phone":"(252) 689-6640","price":"","reviewCount":1,"reviewScore":3,"meta":{"revision":0,"created":1547531150593,"version":0},"$loki":25},{"_id":"5c3d65bd3525a329e0c124a6","address":"431 Evans St","location":{"type":"Point","coordinates":[-77.3725058,35.6106962]},"isApproved":true,"items":[],"keys":["Salad"],"lastUpdated":1547527612670,"name":"501 Fresh","phone":"","price":"$$","reviewCount":14,"reviewScore":4,"meta":{"revision":0,"created":1547531150593,"version":0},"$loki":26},{"_id":"5c3d65bd3525a329e0bffbcb","address":"460 Moye Blvd","location":{"type":"Point","coordinates":[-77.3722890779088,35.6100182352103]},"isApproved":true,"items":[],"keys":["Delis","Sandwiches","Fast Food"],"lastUpdated":1547527612220,"name":"Jimmy John’s","phone":"(252) 695-6268","price":"$","reviewCount":7,"reviewScore":4,"meta":{"revision":0,"created":1547531150593,"version":0},"$loki":27},{"_id":"5c3d65bd3525a329e0c0c477","address":"2399 N Memorial Dr","location":{"type":"Point","coordinates":[-77.3655266666666,35.6124038165418]},"isApproved":true,"items":[],"keys":["American (Traditional)","Diners","Breakfast & Brunch"],"lastUpdated":1547527612524,"name":"Peaden’s","phone":"(252) 752-5747","price":"$","reviewCount":8,"reviewScore":3,"meta":{"revision":0,"created":1547531150593,"version":0},"$loki":28},{"_id":"5c3d65bd3525a329e0c06b10","address":"330 Evans St","location":{"type":"Point","coordinates":[-77.365977,35.6113985]},"isApproved":true,"items":[],"keys":["Interior Design","Cafes","Home Decor"],"lastUpdated":1547527612380,"name":"Coastal Fog","phone":"(252) 347-2632","price":"$$","reviewCount":52,"reviewScore":4.5,"meta":{"revision":0,"created":1547531150593,"version":0},"$loki":29},{"_id":"5c3d65bd3525a329e0c0b4aa","address":"2602 Old Creek Rd","location":{"type":"Point","coordinates":[-77.379859,35.6109578]},"isApproved":true,"items":[],"keys":["American (New)"],"lastUpdated":1547527612499,"name":"Lee’s Country Kitchen","phone":"(252) 752-0837","price":"","reviewCount":3,"reviewScore":3.5,"meta":{"revision":0,"created":1547531150593,"version":0},"$loki":30},{"_id":"5c3d65bd3525a329e0c0031c","address":"","location":{"type":"Point","coordinates":[-77.387255,35.612783]},"isApproved":true,"items":[],"keys":["Food Trucks","Mexican"],"lastUpdated":1547527612225,"name":"El Tucan Loco","phone":"(336) 324-8105","price":"","reviewCount":1,"reviewScore":3,"meta":{"revision":0,"created":1547531150593,"version":0},"$loki":31},{"_id":"5c3d65bd3525a329e0c0b7f3","address":"1111 N Memorial Dr","location":{"type":"Point","coordinates":[-77.393638,35.610017]},"isApproved":true,"items":[],"keys":["American (New)"],"lastUpdated":1547527612505,"name":"Ronaldo’s Fly by Eatery","phone":"(252) 695-0656","price":"","reviewCount":1,"reviewScore":1,"meta":{"revision":0,"created":1547531150593,"version":0},"$loki":32},{"_id":"5c3d65bd3525a329e0c070bd","address":"431 Evans St","location":{"type":"Point","coordinates":[-77.3935376,35.6132897]},"isApproved":true,"items":[],"keys":["Coffee & Tea","Breakfast & Brunch"],"lastUpdated":1547527612389,"name":"The Scullery","phone":"(252) 321-1550","price":"$","reviewCount":192,"reviewScore":4,"meta":{"revision":0,"created":1547531150593,"version":0},"$loki":33},{"_id":"5c3d65bd3525a329e0c150fc","address":"2401 N Memorial Dr","location":{"type":"Point","coordinates":[-77.4012956,35.6136483]},"isApproved":true,"items":[],"keys":["Burgers"],"lastUpdated":1547527612737,"name":"Burger King","phone":"(252) 758-6668","price":"","reviewCount":1,"reviewScore":4,"meta":{"revision":0,"created":1547531150593,"version":0},"$loki":34},{"_id":"5c3d65bd3525a329e0c03847","address":"3410 Cooperative Way","location":{"type":"Point","coordinates":[-77.3949053,35.6093773]},"isApproved":true,"items":[],"keys":["Fast Food","Burgers","Coffee & Tea"],"lastUpdated":1547527612304,"name":"McDonald’s","phone":"(252) 753-4064","price":"$","reviewCount":4,"reviewScore":2.5,"meta":{"revision":0,"created":1547531150593,"version":0},"$loki":35},{"_id":"5c3d65bd3525a329e0c0dd8a","address":"123 E 5th St","location":{"type":"Point","coordinates":[-77.4172854423523,35.6211545561084]},"isApproved":true,"items":[],"keys":["Cajun/Creole","Bars","Seafood"],"lastUpdated":1547527612563,"name":"The Blackened Kraken Bar & Grill","phone":"(252) 215-8822","price":"$$","reviewCount":47,"reviewScore":4,"meta":{"revision":0,"created":1547531150593,"version":0},"$loki":36},{"_id":"5c3d65bd3525a329e0c0eb4c","address":"3411 Cooperative Way","location":{"type":"Point","coordinates":[-77.3802953,35.6294215]},"isApproved":true,"items":[],"keys":["Chicken Wings"],"lastUpdated":1547527612581,"name":"Bojangles Famous Chicken & Biscuits","phone":"(252) 753-0004","price":"$","reviewCount":3,"reviewScore":2.5,"meta":{"revision":0,"created":1547531150593,"version":0},"$loki":37},{"_id":"5c3d65bd3525a329e0c1b005","address":"214 E 5th St","location":{"type":"Point","coordinates":[-77.4,35.6599999]},"isApproved":true,"items":[],"keys":["Mexican"],"lastUpdated":1547527612876,"name":"Mi Cabana Express & Cantina 5","phone":"(252) 689-6175","price":"$$","reviewCount":4,"reviewScore":4,"meta":{"revision":0,"created":1547531150593,"version":0},"$loki":38},{"_id":"5c3d65bd3525a329e0bff67c","address":"815 John Small Ave","location":{"type":"Point","coordinates":[-77.1731404,35.6213712]},"isApproved":true,"items":[],"keys":["Italian","Pizza"],"lastUpdated":1547527612217,"name":"Frank’s Pizza & Italian Restaurant","phone":"(252) 362-3009","price":"$","reviewCount":16,"reviewScore":3,"meta":{"revision":0,"created":1547531150593,"version":0},"$loki":39}],"idIndex":[1,2,3,4,5,6,7,8,9,10,11,12,13,14,15,16,17,18,19,20,21,22,23,24,25,26,27,28,29,30,31,32,33,34,35,36,37,38,39],"binaryIndices":{},"constraints":null,"uniqueNames":[],"transforms":{},"objType":"restaurants","dirty":true,"cachedIndex":null,"cachedBinaryIndex":null,"cachedData":null,"adaptiveBinaryIndices":true,"transactional":false,"cloneObjects":false,"cloneMethod":"parse-stringify","asyncListeners":false,"disableMeta":false,"disableChangesApi":true,"disableDeltaChangesApi":true,"autoupdate":false,"serializableIndices":true,"ttl":null,"maxId":39,"DynamicViews":[],"events":{"insert":[],"update":[],"pre-insert":[],"pre-update":[],"close":[],"flushbuffer":[],"error":[],"delete":[null],"warning":[null]},"changes":[]}],"databaseVersion":1.5,"engineVersion":1.5,"autosave":false,"autosaveInterval":5000,"autosaveHandle":null,"throttledSaves":true,"options":{"serializationMethod":"normal","destructureDelimiter":"$<\n"},"persistenceMethod":"fs","persistenceAdapter":null,"verbose":false,"events":{"init":[null],"loaded":[],"flushChanges":[],"close":[],"changes":[],"warning":[]},"ENV":"NODEJS"}