{"filename":"-78.25-35.75","collections":[{"name":"restaurants","data":[{"_id":"5c3d65bd3525a329e0c006d9","address":"2603 Glenwood Ave","location":{"type":"Point","coordinates":[-78.2707193,35.8165836]},"isApproved":true,"items":[],"keys":["Pizza","Chicken Wings","Sandwiches"],"lastUpdated":1547527612227,"name":"Domino’s Pizza","phone":"(919) 783-8803","price":"$$","reviewCount":4,"reviewScore":3,"meta":{"revision":0,"created":1547531156500,"version":0},"$loki":1},{"_id":"5c3d65bd3525a329e0c10a10","address":"607 W Gannon Ave","location":{"type":"Point","coordinates":[-78.328901812256,35.819982208382]},"isApproved":true,"items":[],"keys":["Fast Food"],"lastUpdated":1547527612631,"name":"Hardee’s","phone":"(919) 269-7810","price":"$","reviewCount":3,"reviewScore":3.5,"meta":{"revision":0,"created":1547531156500,"version":0},"$loki":2},{"_id":"5c3d65bd3525a329e0c041a7","address":"10300 Chapel Hill Rd","location":{"type":"Point","coordinates":[-78.3295699,35.8208476]},"isApproved":true,"items":[],"keys":["Sandwiches","Fast Food"],"lastUpdated":1547527612320,"name":"Subway","phone":"(919) 469-1985","price":"$","reviewCount":5,"reviewScore":3.5,"meta":{"revision":0,"created":1547531156500,"version":0},"$loki":3},{"_id":"5c3d65bd3525a329e0c02967","address":"1811 New Hope Church Rd","location":{"type":"Point","coordinates":[-78.325605,35.8215031]},"isApproved":true,"items":[],"keys":["Chinese"],"lastUpdated":1547527612285,"name":"New China King","phone":"(919) 873-1256","price":"$$","reviewCount":13,"reviewScore":4,"meta":{"revision":0,"created":1547531156500,"version":0},"$loki":4},{"_id":"5c3d65bd3525a329e0c1b24b","address":"409 W Gannon Ave","location":{"type":"Point","coordinates":[-78.3228113,35.8201429]},"isApproved":true,"items":[],"keys":["Seafood","Bars","American (Traditional)"],"lastUpdated":1547527612877,"name":"Red Snapper Grill","phone":"(919) 375-5055","price":"$$","reviewCount":17,"reviewScore":2.5,"meta":{"revision":0,"created":1547531156500,"version":0},"$loki":5},{"_id":"5c3d65bd3525a329e0c09683","address":"6105 Grace Park Dr","location":{"type":"Point","coordinates":[-78.3229225,35.8200908]},"isApproved":true,"items":[],"keys":["Indian","Pakistani"],"lastUpdated":1547527612454,"name":"Spice & Curry","phone":"(919) 234-6281","price":"$$","reviewCount":62,"reviewScore":3,"meta":{"revision":0,"created":1547531156500,"version":0},"$loki":6},{"_id":"5c3d65bd3525a329e0c17827","address":"79 Falling Springs Dr","location":{"type":"Point","coordinates":[-78.3234561,35.8224127]},"isApproved":true,"items":[],"keys":["Pizza","Italian","Sandwiches"],"lastUpdated":1547527612792,"name":"Capp’s Pizzeria","phone":"(919) 240-4104","price":"$$","reviewCount":46,"reviewScore":4,"meta":{"revision":0,"created":1547531156500,"version":0},"$loki":7},{"_id":"5c3d65bd3525a329e0c03783","address":"877 E Gannon Ave","location":{"type":"Point","coordinates":[-78.294327,35.8305207]},"isApproved":true,"items":[],"keys":["Chinese"],"lastUpdated":1547527612304,"name":"Wang’s Bistro","phone":"(919) 269-9788","price":"","reviewCount":1,"reviewScore":3,"meta":{"revision":0,"created":1547531156500,"version":0},"$loki":8},{"_id":"5c3d65bd3525a329e0c126e9","address":"160 Wakelon St","location":{"type":"Point","coordinates":[-78.294327,35.8305207]},"isApproved":true,"items":[],"keys":["Sandwiches","Fast Food"],"lastUpdated":1547527612671,"name":"Subway","phone":"(919) 269-9293","price":"","reviewCount":2,"reviewScore":3,"meta":{"revision":0,"created":1547531156500,"version":0},"$loki":9},{"_id":"5c3d65bd3525a329e0c19917","address":"3101-101 Edwards Mill Rd","location":{"type":"Point","coordinates":[-78.294327,35.8305207]},"isApproved":true,"items":[],"keys":["Sandwiches","Pizza","Sports Bars"],"lastUpdated":1547527612843,"name":"Rudino’s Sports Corner","phone":"(919) 786-4235","price":"$$","reviewCount":68,"reviewScore":3,"meta":{"revision":0,"created":1547531156500,"version":0},"$loki":10},{"_id":"5c3d65bd3525a329e0c16275","address":"3244 Capital Blvd","location":{"type":"Point","coordinates":[-78.294185,35.830158]},"isApproved":true,"items":[],"keys":["Burgers","Hot Dogs","Fast Food"],"lastUpdated":1547527612763,"name":"Cook Out","phone":"(919) 862-8280","price":"$","reviewCount":48,"reviewScore":4,"meta":{"revision":0,"created":1547531156500,"version":0},"$loki":11},{"_id":"5c3d65bd3525a329e0bfff97","address":"841 E Gannon Ave","location":{"type":"Point","coordinates":[-78.2967238686345,35.8311992150299]},"isApproved":true,"items":[],"keys":["Sandwiches","Fast Food"],"lastUpdated":1547527612223,"name":"Subway","phone":"(919) 269-2699","price":"$","reviewCount":3,"reviewScore":4.5,"meta":{"revision":0,"created":1547531156500,"version":0},"$loki":12},{"_id":"5c3d65bd3525a329e0c060ee","address":"151 Wakelon St","location":{"type":"Point","coordinates":[-78.3157855,35.8335572]},"isApproved":true,"items":[],"keys":["Pizza","Italian","Chicken Wings"],"lastUpdated":1547527612368,"name":"Pizza Hut","phone":"(919) 269-6455","price":"$$","reviewCount":12,"reviewScore":3,"meta":{"revision":0,"created":1547531156500,"version":0},"$loki":13},{"_id":"5c3d65bd3525a329e0c121a0","address":"161 Wakelon Drive","location":{"type":"Point","coordinates":[-78.3148512905851,35.8334639134884]},"isApproved":true,"items":[],"keys":["Fast Food","Tex-Mex","Mexican"],"lastUpdated":1547527612663,"name":"Taco Bell","phone":"(919) 404-1701","price":"$","reviewCount":7,"reviewScore":2,"meta":{"revision":0,"created":1547531156500,"version":0},"$loki":14},{"_id":"5c3d65bd3525a329e0bffd3d","address":"1711 N Harrison Ave","location":{"type":"Point","coordinates":[-78.3148434,35.83349]},"isApproved":true,"items":[],"keys":["Burgers","Fast Food"],"lastUpdated":1547527612222,"name":"Burger King","phone":"(919) 677-8895","price":"$","reviewCount":9,"reviewScore":2,"meta":{"revision":0,"created":1547531156500,"version":0},"$loki":15},{"_id":"5c3d65bd3525a329e0c05275","address":"171 Wakelon St","location":{"type":"Point","coordinates":[-78.3148516,35.8330625]},"isApproved":true,"items":[],"keys":["Fast Food","Sandwiches"],"lastUpdated":1547527612346,"name":"Arby’s","phone":"(919) 269-0995","price":"$","reviewCount":3,"reviewScore":4,"meta":{"revision":0,"created":1547531156500,"version":0},"$loki":16},{"_id":"5c3d65bd3525a329e0c06628","address":"3177 Capital Blvd","location":{"type":"Point","coordinates":[-78.3142527,35.8321921]},"isApproved":true,"items":[],"keys":["Mexican"],"lastUpdated":1547527612377,"name":"Tacos Y Mariscos Vallarta","phone":"(919) 790-2696","price":"$$","reviewCount":88,"reviewScore":4,"meta":{"revision":0,"created":1547531156500,"version":0},"$loki":17},{"_id":"5c3d65bd3525a329e0c077e3","address":"122 N Arendell Ave","location":{"type":"Point","coordinates":[-78.3127171,35.8219264]},"isApproved":true,"items":[],"keys":["American (Traditional)"],"lastUpdated":1547527612408,"name":"Barhams Restaurant","phone":"(919) 404-0589","price":"","reviewCount":2,"reviewScore":2.5,"meta":{"revision":0,"created":1547531156500,"version":0},"$loki":18},{"_id":"5c3d65bd3525a329e0c0c3fb","address":"3215 Wake Forest Rd","location":{"type":"Point","coordinates":[-78.3162879,35.832343]},"isApproved":true,"items":[],"keys":["Breakfast & Brunch","American (Traditional)","Diners"],"lastUpdated":1547527612523,"name":"Denny’s","phone":"(919) 876-9556","price":"$","reviewCount":71,"reviewScore":3.5,"meta":{"revision":0,"created":1547531156500,"version":0},"$loki":19},{"_id":"5c3d65bd3525a329e0c14733","address":"404 E Six Forks Rd","location":{"type":"Point","coordinates":[-78.3164636,35.8322857]},"isApproved":true,"items":[],"keys":["Chinese"],"lastUpdated":1547527612721,"name":"Jumbo China Restaurant","phone":"(919) 546-8858","price":"$","reviewCount":21,"reviewScore":2.5,"meta":{"revision":0,"created":1547531156500,"version":0},"$loki":20},{"_id":"5c3d65bd3525a329e0c192bd","address":"161 Wakelon Dr","location":{"type":"Point","coordinates":[-78.3171891,35.8322444]},"isApproved":true,"items":[],"keys":["Fast Food","Chicken Wings","Chicken Shop"],"lastUpdated":1547527612833,"name":"KFC","phone":"(919) 404-1701","price":"","reviewCount":1,"reviewScore":1,"meta":{"revision":0,"created":1547531156500,"version":0},"$loki":21},{"_id":"5c3d65bd3525a329e0c1b44a","address":"Tarrymore Sq","location":{"type":"Point","coordinates":[-78.3187022473174,35.8322765354126]},"isApproved":true,"items":[],"keys":["Pizza"],"lastUpdated":1547527612885,"name":"Pizza Hut","phone":"(919) 790-8111","price":"","reviewCount":1,"reviewScore":1,"meta":{"revision":0,"created":1547531156500,"version":0},"$loki":22},{"_id":"5c3d65bd3525a329e0c0379e","address":"102 Pearces Rd","location":{"type":"Point","coordinates":[-78.3241151,35.8391946]},"isApproved":true,"items":[],"keys":["Breakfast & Brunch","Waffles","American (Traditional)"],"lastUpdated":1547527612304,"name":"Waffle House","phone":"(919) 404-4600","price":"$","reviewCount":3,"reviewScore":3.5,"meta":{"revision":0,"created":1547531156500,"version":0},"$loki":23},{"_id":"5c3d65bd3525a329e0c0fd2d","address":"4325 Glenwood Ave","location":{"type":"Point","coordinates":[-78.3229447,35.8374285]},"isApproved":true,"items":[],"keys":["Mexican"],"lastUpdated":1547527612608,"name":"La Rancherita","phone":"(919) 785-1951","price":"$$","reviewCount":104,"reviewScore":4,"meta":{"revision":0,"created":1547531156500,"version":0},"$loki":24},{"_id":"5c3d65bd3525a329e0c10d1c","address":"1240 N Arendell Ave","location":{"type":"Point","coordinates":[-78.32285,35.8378628]},"isApproved":true,"items":[],"keys":["Fast Food","Burgers","Ice Cream & Frozen Yogurt"],"lastUpdated":1547527612633,"name":"Sonic Drive-In","phone":"(919) 269-3477","price":"","reviewCount":6,"reviewScore":3,"meta":{"revision":0,"created":1547531156500,"version":0},"$loki":25},{"_id":"5c3d65bd3525a329e0c12ecc","address":"4025 Lake Boone Trl","location":{"type":"Point","coordinates":[-78.318673,35.833467]},"isApproved":true,"items":[],"keys":["Sandwiches"],"lastUpdated":1547527612687,"name":"Which Wich","phone":"(919) 781-1101","price":"$","reviewCount":65,"reviewScore":3.5,"meta":{"revision":0,"created":1547531156500,"version":0},"$loki":26},{"_id":"5c3d65bd3525a329e0c049d5","address":"877 E Gannon Ave","location":{"type":"Point","coordinates":[-78.318781,35.833441]},"isApproved":true,"items":[],"keys":["Mexican"],"lastUpdated":1547527612331,"name":"San Jose Restaurant","phone":"(919) 269-3399","price":"$$","reviewCount":24,"reviewScore":3.5,"meta":{"revision":0,"created":1547531156500,"version":0},"$loki":27},{"_id":"5c3d65bd3525a329e0c111ae","address":"3901 Capital Blvd","location":{"type":"Point","coordinates":[-78.3172054664919,35.8334693]},"isApproved":true,"items":[],"keys":["Fast Food","Sandwiches"],"lastUpdated":1547527612641,"name":"Subway","phone":"(919) 876-0772","price":"","reviewCount":1,"reviewScore":1,"meta":{"revision":0,"created":1547531156500,"version":0},"$loki":28},{"_id":"5c3d65bd3525a329e0c06654","address":"2904 Wake Forest Rd","location":{"type":"Point","coordinates":[-78.6228887,35.8206144]},"isApproved":true,"items":[],"keys":["Delis","Sandwiches","Fast Food"],"lastUpdated":1547527612377,"name":"Jimmy John’s","phone":"(919) 836-0404","price":"$","reviewCount":30,"reviewScore":2,"meta":{"revision":0,"created":1547531156500,"version":0},"$loki":29},{"_id":"5c3d65bd3525a329e0c1297d","address":"2904 Wake Forest Rd","location":{"type":"Point","coordinates":[-78.6228887,35.8206144]},"isApproved":true,"items":[],"keys":["Pizza"],"lastUpdated":1547527612679,"name":"Papa John’s Pizza","phone":"(919) 743-3333","price":"$","reviewCount":6,"reviewScore":2,"meta":{"revision":0,"created":1547531156500,"version":0},"$loki":30},{"_id":"5c3d65bd3525a329e0c10b63","address":"1803 N Harrison Ave","location":{"type":"Point","coordinates":[-78.623162,35.81998]},"isApproved":true,"items":[],"keys":["Fast Food"],"lastUpdated":1547527612632,"name":"Chick-fil-A","phone":"(919) 678-1444","price":"$","reviewCount":43,"reviewScore":3.5,"meta":{"revision":0,"created":1547531156500,"version":0},"$loki":31},{"_id":"5c3d65bd3525a329e0c0f01b","address":"4105 Wake Forest Rd","location":{"type":"Point","coordinates":[-78.625986,35.8199148]},"isApproved":true,"items":[],"keys":["Burgers","Fast Food"],"lastUpdated":1547527612590,"name":"Wendy’s","phone":"(919) 872-7286","price":"$","reviewCount":11,"reviewScore":2.5,"meta":{"revision":0,"created":1547531156500,"version":0},"$loki":32},{"_id":"5c3d65bd3525a329e0c13bc3","address":"3607 Davis Dr","location":{"type":"Point","coordinates":[-78.6260202527046,35.8199551]},"isApproved":true,"items":[],"keys":["Chinese"],"lastUpdated":1547527612704,"name":"JJ China Restaurant","phone":"(919) 380-7168","price":"$","reviewCount":30,"reviewScore":3.5,"meta":{"revision":0,"created":1547531156500,"version":0},"$loki":33},{"_id":"5c3d65bd3525a329e0c15ea7","address":"2811 Brentwood Rd","location":{"type":"Point","coordinates":[-78.626126870513,35.8200810604088]},"isApproved":true,"items":[],"keys":["Mexican"],"lastUpdated":1547527612755,"name":"El Dorado Authentic Mexican Restaurant","phone":"(919) 872-8440","price":"$","reviewCount":30,"reviewScore":3.5,"meta":{"revision":0,"created":1547531156500,"version":0},"$loki":34},{"_id":"5c3d65bd3525a329e0c134e0","address":"","location":{"type":"Point","coordinates":[-78.6281334981322,35.8212356481514]},"isApproved":true,"items":[],"keys":["Food Trucks","Cheesesteaks"],"lastUpdated":1547527612690,"name":"Mr. Cheesesteak","phone":"(919) 747-1730","price":"","reviewCount":3,"reviewScore":1.5,"meta":{"revision":0,"created":1547531156500,"version":0},"$loki":35},{"_id":"5c3d65bd3525a329e0c02b30","address":"1837 N Harrison Ave","location":{"type":"Point","coordinates":[-78.6325997,35.8224805]},"isApproved":true,"items":[],"keys":["Sports Bars","American (Traditional)"],"lastUpdated":1547527612286,"name":"Rallypoint Sport Grill","phone":"(919) 678-1088","price":"$$","reviewCount":125,"reviewScore":3.5,"meta":{"revision":0,"created":1547531156500,"version":0},"$loki":36},{"_id":"5c3d65bd3525a329e0c01492","address":"2340 Bale St","location":{"type":"Point","coordinates":[-78.6278171,35.8133357]},"isApproved":true,"items":[],"keys":["Seafood"],"lastUpdated":1547527612249,"name":"Shuckin’ Shack Oyster Bar","phone":"(919) 322-0324","price":"","reviewCount":9,"reviewScore":4,"meta":{"revision":0,"created":1547531156500,"version":0},"$loki":37},{"_id":"5c3d65bd3525a329e0c0897c","address":"2404 Wake Forest Rd","location":{"type":"Point","coordinates":[-78.6261533,35.813756]},"isApproved":true,"items":[],"keys":["Mexican"],"lastUpdated":1547527612429,"name":"El Rodeo Mexican Restaurant","phone":"(919) 833-1460","price":"$","reviewCount":47,"reviewScore":3.5,"meta":{"revision":0,"created":1547531156500,"version":0},"$loki":38},{"_id":"5c3d65bd3525a329e0c0131d","address":"5300 Homewood Banks Dr","location":{"type":"Point","coordinates":[-78.6270682,35.8136887]},"isApproved":true,"items":[],"keys":["Mexican","Seafood"],"lastUpdated":1547527612241,"name":"San Marcos Mexican Restaurant","phone":"(919) 803-4393","price":"$$","reviewCount":94,"reviewScore":4,"meta":{"revision":0,"created":1547531156500,"version":0},"$loki":39},{"_id":"5c3d65bd3525a329e0c048c3","address":"3027-101 Capital Blvd","location":{"type":"Point","coordinates":[-78.6268137,35.8126306]},"isApproved":true,"items":[],"keys":["American (Traditional)"],"lastUpdated":1547527612330,"name":"Aggie’s Grill Station","phone":"(919) 790-6688","price":"$","reviewCount":91,"reviewScore":4.5,"meta":{"revision":0,"created":1547531156500,"version":0},"$loki":40},{"_id":"5c3d65bd3525a329e0c19fe0","address":"3131 Capital Blvd","location":{"type":"Point","coordinates":[-78.6256213,35.8154363]},"isApproved":true,"items":[],"keys":["Buffets","Chinese","Sushi Bars"],"lastUpdated":1547527612852,"name":"Hibachi Grill and Supreme Buffet","phone":"(919) 878-5888","price":"$","reviewCount":79,"reviewScore":2.5,"meta":{"revision":0,"created":1547531156500,"version":0},"$loki":41},{"_id":"5c3d65bd3525a329e0c05a40","address":"","location":{"type":"Point","coordinates":[-78.6244169,35.814977]},"isApproved":true,"items":[],"keys":["Food Trucks","Korean"],"lastUpdated":1547527612356,"name":"Bulkogi Truck","phone":"(847) 530-6910","price":"$","reviewCount":52,"reviewScore":4.5,"meta":{"revision":0,"created":1547531156500,"version":0},"$loki":42},{"_id":"5c3d65bd3525a329e0c0f281","address":"Triangle E Shoppi","location":{"type":"Point","coordinates":[-78.625976,35.815001]},"isApproved":true,"items":[],"keys":["Barbeque"],"lastUpdated":1547527612591,"name":"Smithfield’s Chicken’n Bar-B Q","phone":"(919) 269-7009","price":"$$","reviewCount":9,"reviewScore":3.5,"meta":{"revision":0,"created":1547531156500,"version":0},"$loki":43},{"_id":"5c3d65bd3525a329e0c03b53","address":"182 Wakelon St","location":{"type":"Point","coordinates":[-78.6262198,35.8188729]},"isApproved":true,"items":[],"keys":["Chinese"],"lastUpdated":1547527612312,"name":"Golden China","phone":"(919) 269-4070","price":"$","reviewCount":7,"reviewScore":3,"meta":{"revision":0,"created":1547531156500,"version":0},"$loki":44},{"_id":"5c3d65bd3525a329e0c07490","address":"418 W Gannon Ave","location":{"type":"Point","coordinates":[-78.6262198,35.8188729]},"isApproved":true,"items":[],"keys":["Breakfast & Brunch","American (Traditional)"],"lastUpdated":1547527612400,"name":"McLean’s Ole Time Cafe","phone":"(919) 269-0125","price":"$$","reviewCount":78,"reviewScore":3.5,"meta":{"revision":0,"created":1547531156500,"version":0},"$loki":45},{"_id":"5c3d65bd3525a329e0c0a923","address":"2801 Old Wake Forest Rd","location":{"type":"Point","coordinates":[-78.6247837543487,35.8191246456017]},"isApproved":true,"items":[],"keys":["Fast Food","Burgers","Coffee & Tea"],"lastUpdated":1547527612482,"name":"McDonald’s","phone":"(919) 821-3297","price":"$","reviewCount":22,"reviewScore":2,"meta":{"revision":0,"created":1547531156500,"version":0},"$loki":46},{"_id":"5c3d65bd3525a329e0c0b87a","address":"4325 Glenwood Ave","location":{"type":"Point","coordinates":[-78.625178,35.8185001]},"isApproved":true,"items":[],"keys":["Sandwiches","Food Court"],"lastUpdated":1547527612506,"name":"Which Wich?","phone":"(919) 977-7968","price":"","reviewCount":3,"reviewScore":1.5,"meta":{"revision":0,"created":1547531156500,"version":0},"$loki":47},{"_id":"5c3d65bd3525a329e0c04095","address":"58 Chapelton Ct","location":{"type":"Point","coordinates":[-78.6125088513164,35.8109137777301]},"isApproved":true,"items":[],"keys":["Coffee & Tea","Themed Cafes","Breakfast & Brunch"],"lastUpdated":1547527612320,"name":"Breakaway Cafe","phone":"(984) 234-3010","price":"$$","reviewCount":75,"reviewScore":4,"meta":{"revision":0,"created":1547531156500,"version":0},"$loki":48},{"_id":"5c3d65bd3525a329e0c01e97","address":"3520 Capital Blvd","location":{"type":"Point","coordinates":[-78.6149085,35.8183362]},"isApproved":true,"items":[],"keys":["Breakfast & Brunch"],"lastUpdated":1547527612260,"name":"Taqueria LA Cabaña","phone":"(919) 872-2252","price":"","reviewCount":3,"reviewScore":3.5,"meta":{"revision":0,"created":1547531156500,"version":0},"$loki":49},{"_id":"5c3d65bd3525a329e0c0ad58","address":"2603 Glenwood Ave","location":{"type":"Point","coordinates":[-78.620391,35.822505]},"isApproved":true,"items":[],"keys":["Desserts","Bakeries","Cafes"],"lastUpdated":1547527612490,"name":"Hereghty Heavenly Delicious","phone":"(919) 787-3995","price":"$","reviewCount":75,"reviewScore":3.5,"meta":{"revision":0,"created":1547531156500,"version":0},"$loki":50},{"_id":"5c3d65bd3525a329e0c087bf","address":"121 Wakelon St","location":{"type":"Point","coordinates":[-78.6203275993466,35.8225304954725]},"isApproved":true,"items":[],"keys":["Barbeque"],"lastUpdated":1547527612428,"name":"Smithfield’s Chicken ‘n Bar-b-q","phone":"(919) 269-7009","price":"$","reviewCount":11,"reviewScore":4,"meta":{"revision":0,"created":1547531156500,"version":0},"$loki":51},{"_id":"5c3d65bd3525a329e0c1b442","address":"3211 Edwards Mill Rd","location":{"type":"Point","coordinates":[-78.620584,35.822594]},"isApproved":true,"items":[],"keys":["Burgers"],"lastUpdated":1547527612885,"name":"Char-Grill Two","phone":"(919) 781-2945","price":"$","reviewCount":50,"reviewScore":3.5,"meta":{"revision":0,"created":1547531156500,"version":0},"$loki":52},{"_id":"5c3d65bd3525a329e0c0ad1f","address":"2300 Old Milburnie Rd","location":{"type":"Point","coordinates":[-78.621291,35.8242515]},"isApproved":true,"items":[],"keys":["Sports Bars","Breakfast & Brunch","Burgers"],"lastUpdated":1547527612490,"name":"Bogeys Bistro","phone":"(984) 202-3109","price":"","reviewCount":2,"reviewScore":5,"meta":{"revision":0,"created":1547531156500,"version":0},"$loki":53},{"_id":"5c3d65bd3525a329e0c189aa","address":"3088 Wake Forest Rd","location":{"type":"Point","coordinates":[-78.621219,35.823846]},"isApproved":true,"items":[],"keys":["Pizza","Gluten-Free","Salad"],"lastUpdated":1547527612823,"name":"Gusto Farm to Street","phone":"(919) 803-5959","price":"$","reviewCount":96,"reviewScore":4.5,"meta":{"revision":0,"created":1547531156500,"version":0},"$loki":54},{"_id":"5c3d65bd3525a329e0c0042c","address":"4025 Lake Boone Trl","location":{"type":"Point","coordinates":[-78.6210443,35.8238562]},"isApproved":true,"items":[],"keys":["Sports Bars","American (Traditional)"],"lastUpdated":1547527612226,"name":"Buffalo Brothers","phone":"(919) 782-4949","price":"$$","reviewCount":151,"reviewScore":3,"meta":{"revision":0,"created":1547531156500,"version":0},"$loki":55},{"_id":"5c3d65bd3525a329e0bffcf3","address":"186 Wakelon Dr","location":{"type":"Point","coordinates":[-78.6208489537239,35.8272399404777]},"isApproved":true,"items":[],"keys":["Pizza"],"lastUpdated":1547527612221,"name":"Milano Pizza","phone":"(919) 269-4488","price":"$","reviewCount":8,"reviewScore":3,"meta":{"revision":0,"created":1547531156500,"version":0},"$loki":56},{"_id":"5c3d65bd3525a329e0c06d66","address":"101 Keybridge Dr","location":{"type":"Point","coordinates":[-78.6206755,35.82806]},"isApproved":true,"items":[],"keys":["Chinese"],"lastUpdated":1547527612387,"name":"Acacia Tree","phone":"(919) 677-1190","price":"","reviewCount":5,"reviewScore":3,"meta":{"revision":0,"created":1547531156500,"version":0},"$loki":57},{"_id":"5c3d65bd3525a329e0c0522f","address":"3415 Wake Forest Rd","location":{"type":"Point","coordinates":[-78.6204979,35.829856]},"isApproved":true,"items":[],"keys":["Sandwiches","Pizza"],"lastUpdated":1547527612346,"name":"‘88 Oaks Carolina Kitchen and Bar","phone":"(919) 878-4917","price":"","reviewCount":5,"reviewScore":5,"meta":{"revision":0,"created":1547531156500,"version":0},"$loki":58},{"_id":"5c3d65bd3525a329e0c020a0","address":"4212 Wake Forest Rd","location":{"type":"Point","coordinates":[-78.6115391633939,35.8387921407526]},"isApproved":true,"items":[],"keys":["Fast Food","Burgers","Coffee & Tea"],"lastUpdated":1547527612275,"name":"McDonald’s","phone":"(919) 862-1996","price":"$","reviewCount":10,"reviewScore":2.5,"meta":{"revision":0,"created":1547531156500,"version":0},"$loki":59},{"_id":"5c3d65bd3525a329e0c12ad5","address":"4206 Old Wake Forest Rd","location":{"type":"Point","coordinates":[-78.6119,35.8385587715894]},"isApproved":true,"items":[],"keys":["American (Traditional)","Chicken Wings","Sports Bars"],"lastUpdated":1547527612680,"name":"Hooters","phone":"(919) 850-9882","price":"$$","reviewCount":46,"reviewScore":3,"meta":{"revision":0,"created":1547531156500,"version":0},"$loki":60},{"_id":"5c3d65bd3525a329e0c04ce6","address":"4325 Glenwood Ave","location":{"type":"Point","coordinates":[-78.6125716,35.8393944]},"isApproved":true,"items":[],"keys":["Mediterranean","Greek"],"lastUpdated":1547527612338,"name":"Greek Fiesta at Crabtree Mall","phone":"(919) 571-2545","price":"$$","reviewCount":21,"reviewScore":3,"meta":{"revision":0,"created":1547531156500,"version":0},"$loki":61},{"_id":"5c3d65bd3525a329e0c0a204","address":"831 Bass Pro Ln","location":{"type":"Point","coordinates":[-78.6129036,35.8391231]},"isApproved":true,"items":[],"keys":["Pizza"],"lastUpdated":1547527612473,"name":"The Original NY Pizza","phone":"(919) 677-8484","price":"$","reviewCount":36,"reviewScore":3.5,"meta":{"revision":0,"created":1547531156500,"version":0},"$loki":62},{"_id":"5c3d65bd3525a329e0c0aa9d","address":"424 E Six Forks Rd","location":{"type":"Point","coordinates":[-78.613586,35.837524]},"isApproved":true,"items":[],"keys":["Pizza","Italian","Chicken Wings"],"lastUpdated":1547527612489,"name":"Pizza Hut","phone":"(919) 828-7808","price":"$","reviewCount":6,"reviewScore":3,"meta":{"revision":0,"created":1547531156500,"version":0},"$loki":63},{"_id":"5c3d65bd3525a329e0c09ba7","address":"4001 Wake Forest Rd","location":{"type":"Point","coordinates":[-78.6155215,35.835542]},"isApproved":true,"items":[],"keys":["Japanese"],"lastUpdated":1547527612464,"name":"Hibachi Japan","phone":"(919) 878-8880","price":"$","reviewCount":42,"reviewScore":3,"meta":{"revision":0,"created":1547531156500,"version":0},"$loki":64},{"_id":"5c3d65bd3525a329e0c09eb3","address":"4003 Wake Forest Rd","location":{"type":"Point","coordinates":[-78.6154329,35.8355826]},"isApproved":true,"items":[],"keys":["Sandwiches","Fast Food"],"lastUpdated":1547527612471,"name":"Subway","phone":"(919) 876-2266","price":"$","reviewCount":10,"reviewScore":1.5,"meta":{"revision":0,"created":1547531156500,"version":0},"$loki":65},{"_id":"5c3d65bd3525a329e0c15ed6","address":"4005 Wake Forest Rd","location":{"type":"Point","coordinates":[-78.6154329,35.8356597]},"isApproved":true,"items":[],"keys":["Italian","Pizza","Sandwiches"],"lastUpdated":1547527612756,"name":"Italian Kitchen Pizza & Grill","phone":"(919) 790-2444","price":"$","reviewCount":29,"reviewScore":3.5,"meta":{"revision":0,"created":1547531156500,"version":0},"$loki":66},{"_id":"5c3d65bd3525a329e0c0072b","address":"4120 Main At North Hills","location":{"type":"Point","coordinates":[-78.5994611,35.8356928]},"isApproved":true,"items":[],"keys":["Barbeque"],"lastUpdated":1547527612227,"name":"The Q Shack","phone":"(919) 786-4381","price":"$$","reviewCount":102,"reviewScore":3,"meta":{"revision":0,"created":1547531156500,"version":0},"$loki":67},{"_id":"5c3d65bd3525a329e0c15bf2","address":"1408 Hardimont Rd","location":{"type":"Point","coordinates":[-78.5997853,35.8359877]},"isApproved":true,"items":[],"keys":["Thai"],"lastUpdated":1547527612754,"name":"Thai House","phone":"(919) 878-3379","price":"$$","reviewCount":155,"reviewScore":3.5,"meta":{"revision":0,"created":1547531156500,"version":0},"$loki":68},{"_id":"5c3d65bd3525a329e0c1149d","address":"3901 Capital Blvd","location":{"type":"Point","coordinates":[-78.6081496,35.836255]},"isApproved":true,"items":[],"keys":["Mexican","Latin American","Spanish"],"lastUpdated":1547527612643,"name":"El Pollo Rico Restaurant","phone":"(919) 431-9985","price":"$$","reviewCount":29,"reviewScore":4,"meta":{"revision":0,"created":1547531156500,"version":0},"$loki":69},{"_id":"5c3d65bd3525a329e0c0b484","address":"1625 Ronald Dr","location":{"type":"Point","coordinates":[-78.6081218,35.8386053]},"isApproved":true,"items":[],"keys":["Buffets","Chinese","Sushi Bars"],"lastUpdated":1547527612499,"name":"Kobe Buffet & Sushi Hibachi Grill","phone":"(919) 438-1274","price":"","reviewCount":28,"reviewScore":2,"meta":{"revision":0,"created":1547531156500,"version":0},"$loki":70},{"_id":"5c3d65bd3525a329e0c00e6c","address":"1600 Ronald Dr","location":{"type":"Point","coordinates":[-78.6103548,35.8382557]},"isApproved":true,"items":[],"keys":["Pizza"],"lastUpdated":1547527612237,"name":"Five Bros Pizza","phone":"(919) 307-3328","price":"","reviewCount":1,"reviewScore":1,"meta":{"revision":0,"created":1547531156500,"version":0},"$loki":71},{"_id":"5c3d65bd3525a329e0c10e25","address":"4242 Six Forks Rd","location":{"type":"Point","coordinates":[-78.6102706788574,35.8382348486587]},"isApproved":true,"items":[],"keys":["Steakhouses","Wine Bars","Seafood"],"lastUpdated":1547527612634,"name":"The Capital Grille","phone":"(919) 787-3901","price":"$$$","reviewCount":154,"reviewScore":4,"meta":{"revision":0,"created":1547531156500,"version":0},"$loki":72},{"_id":"5c3d65bd3525a329e0c07102","address":"1721 New Hope Church Rd","location":{"type":"Point","coordinates":[-78.6100202219518,35.8363935076074]},"isApproved":true,"items":[],"keys":["Chicken Wings"],"lastUpdated":1547527612389,"name":"Wingstop","phone":"(919) 872-8856","price":"$$","reviewCount":41,"reviewScore":3,"meta":{"revision":0,"created":1547531156500,"version":0},"$loki":73},{"_id":"5c3d65bd3525a329e0c174af","address":"3524 Davis Dr","location":{"type":"Point","coordinates":[-78.6084239,35.820474]},"isApproved":true,"items":[],"keys":["Japanese","Asian Fusion"],"lastUpdated":1547527612790,"name":"Zebon Hibachi","phone":"(919) 656-4158","price":"$$","reviewCount":18,"reviewScore":3.5,"meta":{"revision":0,"created":1547531156500,"version":0},"$loki":74},{"_id":"5c3d65bd3525a329e0c085b9","address":"817 Bass Pro Ln","location":{"type":"Point","coordinates":[-78.5981748,35.8166761]},"isApproved":true,"items":[],"keys":["Juice Bars & Smoothies","Sandwiches"],"lastUpdated":1547527612427,"name":"Tropical Smoothie Cafe","phone":"(919) 378-9333","price":"$","reviewCount":35,"reviewScore":3,"meta":{"revision":0,"created":1547531156500,"version":0},"$loki":75},{"_id":"5c3d65bd3525a329e0c0bea2","address":"10130 Green Level Church Rd","location":{"type":"Point","coordinates":[-78.5912017,35.8205101]},"isApproved":true,"items":[],"keys":["Fast Food","Sandwiches"],"lastUpdated":1547527612515,"name":"Subway","phone":"(919) 460-9422","price":"","reviewCount":1,"reviewScore":5,"meta":{"revision":0,"created":1547531156500,"version":0},"$loki":76},{"_id":"5c3d65bd3525a329e0c17d5d","address":"4020 Market at N Hills St","location":{"type":"Point","coordinates":[-78.5902587,35.8194301]},"isApproved":true,"items":[],"keys":["Tex-Mex","Mexican","Bars"],"lastUpdated":1547527612801,"name":"Chuy’s","phone":"(919) 571-2489","price":"$$","reviewCount":283,"reviewScore":3.5,"meta":{"revision":0,"created":1547531156500,"version":0},"$loki":77},{"_id":"5c3d65bd3525a329e0c0e117","address":"3000 Capital Blvd","location":{"type":"Point","coordinates":[-78.5918552,35.8202559]},"isApproved":true,"items":[],"keys":["Burgers"],"lastUpdated":1547527612565,"name":"Burger King Operations/Kin Restaurants","phone":"(919) 872-2070","price":"","reviewCount":3,"reviewScore":1,"meta":{"revision":0,"created":1547531156500,"version":0},"$loki":78},{"_id":"5c3d65bd3525a329e0bffe4d","address":"11010 Lake Grove BlvdSuite 102","location":{"type":"Point","coordinates":[-78.59237,35.82103]},"isApproved":true,"items":[],"keys":["Pizza","Italian","Chicken Wings"],"lastUpdated":1547527612222,"name":"Pizza Hut","phone":"(919) 234-0652","price":"$","reviewCount":19,"reviewScore":2.5,"meta":{"revision":0,"created":1547531156500,"version":0},"$loki":79},{"_id":"5c3d65bd3525a329e0c0e9fc","address":"2820 Brentwood Rd","location":{"type":"Point","coordinates":[-78.5951148,35.8181076]},"isApproved":true,"items":[],"keys":["Sandwiches","Fast Food"],"lastUpdated":1547527612581,"name":"Subway","phone":"(919) 790-3555","price":"","reviewCount":3,"reviewScore":2,"meta":{"revision":0,"created":1547531156500,"version":0},"$loki":80},{"_id":"5c3d65bd3525a329e0c0ab3f","address":"3320 Capital Blvd","location":{"type":"Point","coordinates":[-78.5962332235565,35.8171559947175]},"isApproved":true,"items":[],"keys":["Food Trucks","Mexican"],"lastUpdated":1547527612489,"name":"Taqueria Salsabanero","phone":"(919) 561-0141","price":"","reviewCount":1,"reviewScore":5,"meta":{"revision":0,"created":1547531156500,"version":0},"$loki":81},{"_id":"5c3d65bd3525a329e0c181d7","address":"3735 Davis Dr","location":{"type":"Point","coordinates":[-78.5961383,35.8170697]},"isApproved":true,"items":[],"keys":["Halal","Pizza","Barbeque"],"lastUpdated":1547527612809,"name":"S & S Halal Pizza & BBQ","phone":"(919) 234-1607","price":"","reviewCount":16,"reviewScore":4,"meta":{"revision":0,"created":1547531156500,"version":0},"$loki":82},{"_id":"5c3d65bd3525a329e0c1491b","address":"1108 Morrisville-Carpenter Rd","location":{"type":"Point","coordinates":[-78.59874,35.817642]},"isApproved":true,"items":[],"keys":["Tex-Mex","Fast Food","Mexican"],"lastUpdated":1547527612727,"name":"Taco Bell","phone":"(919) 377-0226","price":"$","reviewCount":38,"reviewScore":2.5,"meta":{"revision":0,"created":1547531156500,"version":0},"$loki":83},{"_id":"5c3d65bd3525a329e0c00788","address":"3200 Beechleaf Ct","location":{"type":"Point","coordinates":[-78.5946001,35.8198371]},"isApproved":true,"items":[],"keys":["Restaurants"],"lastUpdated":1547527612228,"name":"Truffles Deli","phone":"(919) 954-1944","price":"","reviewCount":2,"reviewScore":4,"meta":{"revision":0,"created":1547531156500,"version":0},"$loki":84},{"_id":"5c3d65bd3525a329e0c12ac1","address":"4141 Parklake Ave","location":{"type":"Point","coordinates":[-78.5911142803566,35.8234884054229]},"isApproved":true,"items":[],"keys":["Delis","Sandwiches"],"lastUpdated":1547527612680,"name":"Glen Lake Cafe","phone":"(919) 785-1232","price":"","reviewCount":3,"reviewScore":3.5,"meta":{"revision":0,"created":1547531156500,"version":0},"$loki":85},{"_id":"5c3d65bd3525a329e0c0da54","address":"1007 Shepard School Rd","location":{"type":"Point","coordinates":[-78.591549,35.822145]},"isApproved":true,"items":[],"keys":["Steakhouses","Bars"],"lastUpdated":1547527612556,"name":"Southland Steakhouse","phone":"(919) 375-4283","price":"$$","reviewCount":40,"reviewScore":4,"meta":{"revision":0,"created":1547531156500,"version":0},"$loki":86},{"_id":"5c3d65bd3525a329e0c17a8f","address":"9906 Chapel Hill Rd","location":{"type":"Point","coordinates":[-78.591323,35.8218031]},"isApproved":true,"items":[],"keys":["Pizza"],"lastUpdated":1547527612799,"name":"Marco’s Pizza","phone":"(919) 380-0044","price":"$$","reviewCount":25,"reviewScore":4,"meta":{"revision":0,"created":1547531156500,"version":0},"$loki":87},{"_id":"5c3d65bd3525a329e0c110b9","address":"4129 Davis Dr","location":{"type":"Point","coordinates":[-78.5907021,35.8220801]},"isApproved":true,"items":[],"keys":["Pizza","Italian","Chicken Wings"],"lastUpdated":1547527612640,"name":"Randy’s Pizza","phone":"(919) 468-3737","price":"$","reviewCount":78,"reviewScore":3,"meta":{"revision":0,"created":1547531156500,"version":0},"$loki":88},{"_id":"5c3d65bd3525a329e0c03463","address":"10255 Chapel Hill Rd","location":{"type":"Point","coordinates":[-78.589749,35.822315]},"isApproved":true,"items":[],"keys":["Sports Bars","American (Traditional)","Karaoke"],"lastUpdated":1547527612302,"name":"Desy’s Grill and Bar","phone":"(919) 380-1617","price":"$$","reviewCount":16,"reviewScore":3.5,"meta":{"revision":0,"created":1547531156500,"version":0},"$loki":89},{"_id":"5c3d65bd3525a329e0c0bd1b","address":"3108 Grace Park Dr","location":{"type":"Point","coordinates":[-78.5895855,35.8236981]},"isApproved":true,"items":[],"keys":["Bagels","Breakfast & Brunch","Ice Cream & Frozen Yogurt"],"lastUpdated":1547527612515,"name":"NC Bagel Cafe & Deli","phone":"(919) 469-2777","price":"$","reviewCount":47,"reviewScore":3.5,"meta":{"revision":0,"created":1547531156500,"version":0},"$loki":90},{"_id":"5c3d65bd3525a329e0c08459","address":"10285 Chapel Hill Rd","location":{"type":"Point","coordinates":[-78.58617,35.82517]},"isApproved":true,"items":[],"keys":["Chinese","Seafood","Noodles"],"lastUpdated":1547527612426,"name":"Szechuan Garden","phone":"(919) 468-6878","price":"$$","reviewCount":59,"reviewScore":4,"meta":{"revision":0,"created":1547531156500,"version":0},"$loki":91},{"_id":"5c3d65bd3525a329e0c0c9c7","address":"4011 Capital Blvd","location":{"type":"Point","coordinates":[-78.586582,35.824475]},"isApproved":true,"items":[],"keys":["Vietnamese"],"lastUpdated":1547527612527,"name":"Pho Far East","phone":"(919) 876-8621","price":"$$","reviewCount":375,"reviewScore":4,"meta":{"revision":0,"created":1547531156500,"version":0},"$loki":92},{"_id":"5c3d65bd3525a329e0c09ce2","address":"909 Aviation Pkwy","location":{"type":"Point","coordinates":[-78.5878637,35.8245838]},"isApproved":true,"items":[],"keys":["Delis","Sandwiches","Burgers"],"lastUpdated":1547527612465,"name":"Village Deli and Grill","phone":"(919) 462-6191","price":"$$","reviewCount":33,"reviewScore":3,"meta":{"revision":0,"created":1547531156500,"version":0},"$loki":93},{"_id":"5c3d65bd3525a329e0c0bb92","address":"2101 Grace Park Dr","location":{"type":"Point","coordinates":[-78.5886789,35.8236321]},"isApproved":true,"items":[],"keys":["Sushi Bars","Noodles"],"lastUpdated":1547527612509,"name":"Thai’s Noodles","phone":"(919) 481-3038","price":"$$","reviewCount":153,"reviewScore":3.5,"meta":{"revision":0,"created":1547531156500,"version":0},"$loki":94},{"_id":"5c3d65bd3525a329e0c002c2","address":"2420 Wycliff Rd","location":{"type":"Point","coordinates":[-78.5872539,35.8236317]},"isApproved":true,"items":[],"keys":["Delis","Grocery"],"lastUpdated":1547527612225,"name":"Food Lion","phone":"(919) 571-3638","price":"","reviewCount":7,"reviewScore":2.5,"meta":{"revision":0,"created":1547531156500,"version":0},"$loki":95},{"_id":"5c3d65bd3525a329e0c10350","address":"3309 Wake Forest Rd","location":{"type":"Point","coordinates":[-78.585332,35.8240775]},"isApproved":true,"items":[],"keys":["Seafood","Bars","Latin American"],"lastUpdated":1547527612617,"name":"Bahama Breeze","phone":"(919) 872-6330","price":"$$","reviewCount":332,"reviewScore":3.5,"meta":{"revision":0,"created":1547531156500,"version":0},"$loki":96},{"_id":"5c3d65bd3525a329e0c0a0a5","address":"532 W Gannon Ave","location":{"type":"Point","coordinates":[-78.5774408,35.8150476]},"isApproved":true,"items":[],"keys":["Chinese"],"lastUpdated":1547527612472,"name":"Good Taste","phone":"(919) 404-1218","price":"$","reviewCount":10,"reviewScore":4,"meta":{"revision":0,"created":1547531156500,"version":0},"$loki":97},{"_id":"5c3d65bd3525a329e0c00d2d","address":"","location":{"type":"Point","coordinates":[-78.5679609417317,35.8112213235526]},"isApproved":true,"items":[],"keys":["Food Trucks","Latin American"],"lastUpdated":1547527612236,"name":"The Corner Venezuelan Food","phone":"(919) 539-6780","price":"$","reviewCount":16,"reviewScore":4.5,"meta":{"revision":0,"created":1547531156500,"version":0},"$loki":98},{"_id":"5c3d65bd3525a329e0c07ce1","address":"4020 Capital Blvd","location":{"type":"Point","coordinates":[-78.5847735777497,35.8282805259342]},"isApproved":true,"items":[],"keys":["Bakeries","Desserts","Cafes"],"lastUpdated":1547527612411,"name":"Balcazar Bakery","phone":"(919) 878-5120","price":"$","reviewCount":21,"reviewScore":3.5,"meta":{"revision":0,"created":1547531156500,"version":0},"$loki":99},{"_id":"5c3d65bd3525a329e0c19500","address":"2055 Renaissance Park Pl","location":{"type":"Point","coordinates":[-78.5849365,35.8269947]},"isApproved":true,"items":[],"keys":["Fast Food","Delis","Sandwiches"],"lastUpdated":1547527612840,"name":"Jersey Mike’s Subs","phone":"(919) 650-3595","price":"$","reviewCount":17,"reviewScore":4.5,"meta":{"revision":0,"created":1547531156500,"version":0},"$loki":100},{"_id":"5c3d65bd3525a329e0c048a0","address":"","location":{"type":"Point","coordinates":[-78.586401011979,35.8271194015347]},"isApproved":true,"items":[],"keys":["Food Trucks","Puerto Rican"],"lastUpdated":1547527612330,"name":"Spanglish","phone":"(919) 307-7567","price":"$$","reviewCount":17,"reviewScore":4.5,"meta":{"revision":0,"created":1547531156500,"version":0},"$loki":101},{"_id":"5c3d65bd3525a329e0c1b465","address":"9825E Chapel Hill Rd","location":{"type":"Point","coordinates":[-78.5871098,35.8278338]},"isApproved":true,"items":[],"keys":["Pizza","Chicken Wings","Sandwiches"],"lastUpdated":1547527612885,"name":"Domino’s Pizza","phone":"(919) 319-7000","price":"$$","reviewCount":17,"reviewScore":2.5,"meta":{"revision":0,"created":1547531156500,"version":0},"$loki":102},{"_id":"5c3d65bd3525a329e0c073ca","address":"4111 Ed Dr","location":{"type":"Point","coordinates":[-78.587108,35.827985]},"isApproved":true,"items":[],"keys":["Fast Food","Delis","Sandwiches"],"lastUpdated":1547527612399,"name":"Firehouse Subs","phone":"(919) 783-7102","price":"$","reviewCount":15,"reviewScore":4,"meta":{"revision":0,"created":1547531156500,"version":0},"$loki":103},{"_id":"5c3d65bd3525a329e0c123e7","address":"3501-131 Capital Blvd","location":{"type":"Point","coordinates":[-78.5866131957008,35.8286132561499]},"isApproved":true,"items":[],"keys":["Pizza"],"lastUpdated":1547527612670,"name":"Chuck E. Cheese’s","phone":"(919) 850-9922","price":"$","reviewCount":31,"reviewScore":3,"meta":{"revision":0,"created":1547531156500,"version":0},"$loki":104},{"_id":"5c3d65bd3525a329e0bffd90","address":"4121 Main at N Hill","location":{"type":"Point","coordinates":[-78.5858607,35.8295717]},"isApproved":true,"items":[],"keys":["Sushi Bars","Japanese","Venues & Event Spaces"],"lastUpdated":1547527612222,"name":"Mura","phone":"(919) 781-7887","price":"$$","reviewCount":302,"reviewScore":3.5,"meta":{"revision":0,"created":1547531156500,"version":0},"$loki":105},{"_id":"5c3d65bd3525a329e0c00348","address":"3305 Capital Blvd","location":{"type":"Point","coordinates":[-78.5858607,35.8295717]},"isApproved":true,"items":[],"keys":["Mexican"],"lastUpdated":1547527612225,"name":"Los Cuates","phone":"(919) 954-1215","price":"$","reviewCount":51,"reviewScore":4,"meta":{"revision":0,"created":1547531156500,"version":0},"$loki":106},{"_id":"5c3d65bd3525a329e0c0e74e","address":"3080 Wake Forest Rd","location":{"type":"Point","coordinates":[-78.584054,35.833643]},"isApproved":true,"items":[],"keys":["Japanese","Thai","Sushi Bars"],"lastUpdated":1547527612574,"name":"Shaba Shabu","phone":"(919) 501-7755","price":"$$","reviewCount":296,"reviewScore":3.5,"meta":{"revision":0,"created":1547531156500,"version":0},"$loki":107},{"_id":"5c3d65bd3525a329e0c184b7","address":"2929 Capital Blvd","location":{"type":"Point","coordinates":[-78.5840014965785,35.8333895095052]},"isApproved":true,"items":[],"keys":["Sandwiches"],"lastUpdated":1547527612814,"name":"Giavanna’s Italian Sausage, Subs and More","phone":"","price":"","reviewCount":1,"reviewScore":5,"meta":{"revision":0,"created":1547531156500,"version":0},"$loki":108},{"_id":"5c3d65bd3525a329e0c13d47","address":"4154 Main At North Hills St","location":{"type":"Point","coordinates":[-78.5861367278639,35.8362481868455]},"isApproved":true,"items":[],"keys":["Fast Food"],"lastUpdated":1547527612706,"name":"Chick-fil-A","phone":"(919) 510-0100","price":"$","reviewCount":32,"reviewScore":4,"meta":{"revision":0,"created":1547531156500,"version":0},"$loki":109},{"_id":"5c3d65bd3525a329e0bff5c6","address":"210 Harrison Oaks Blvd","location":{"type":"Point","coordinates":[-78.5862606071032,35.8361864400349]},"isApproved":true,"items":[],"keys":["American (Traditional)","Sandwiches","Salad"],"lastUpdated":1547527612217,"name":"Bistro In The Park","phone":"(919) 677-1840","price":"","reviewCount":10,"reviewScore":4,"meta":{"revision":0,"created":1547531156500,"version":0},"$loki":110},{"_id":"5c3d65bd3525a329e0c07122","address":"3901 Capital Blvd","location":{"type":"Point","coordinates":[-78.585653,35.835897]},"isApproved":true,"items":[],"keys":["Indian"],"lastUpdated":1547527612389,"name":"Royal India Restaurants","phone":"(919) 981-0849","price":"$$","reviewCount":116,"reviewScore":3,"meta":{"revision":0,"created":1547531156500,"version":0},"$loki":111},{"_id":"5c3d65bd3525a329e0c001d0","address":"3026 Capital Blvd","location":{"type":"Point","coordinates":[-78.5857792,35.8348548]},"isApproved":true,"items":[],"keys":["Fast Food","Burgers","Coffee & Tea"],"lastUpdated":1547527612224,"name":"McDonald’s","phone":"(919) 878-0701","price":"$","reviewCount":7,"reviewScore":1.5,"meta":{"revision":0,"created":1547531156500,"version":0},"$loki":112},{"_id":"5c3d65bd3525a329e0c07e0a","address":"178 Wakelon St","location":{"type":"Point","coordinates":[-78.5848204,35.8353022]},"isApproved":true,"items":[],"keys":["Pizza"],"lastUpdated":1547527612416,"name":"San Marco’s Pizza","phone":"","price":"$","reviewCount":1,"reviewScore":3,"meta":{"revision":0,"created":1547531156500,"version":0},"$loki":113},{"_id":"5c3d65bd3525a329e0c1a1da","address":"2458 Wycliff Rd","location":{"type":"Point","coordinates":[-78.5833253204792,35.8363980987574]},"isApproved":true,"items":[],"keys":["Pizza"],"lastUpdated":1547527612858,"name":"Randy’s Pizza","phone":"(919) 322-5990","price":"$","reviewCount":104,"reviewScore":4,"meta":{"revision":0,"created":1547531156500,"version":0},"$loki":114},{"_id":"5c3d65bd3525a329e0c11ccb","address":"4011 Capital Blvd","location":{"type":"Point","coordinates":[-78.5833865,35.8363799]},"isApproved":true,"items":[],"keys":["Pizza","Italian","Chicken Wings"],"lastUpdated":1547527612660,"name":"Pizza Hut","phone":"(919) 790-8111","price":"$","reviewCount":10,"reviewScore":2.5,"meta":{"revision":0,"created":1547531156500,"version":0},"$loki":115},{"_id":"5c3d65bd3525a329e0c0b32d","address":"4040 Capital Blvd","location":{"type":"Point","coordinates":[-78.5814,35.8361]},"isApproved":true,"items":[],"keys":["Fast Food","Chicken Wings","Chicken Shop"],"lastUpdated":1547527612498,"name":"KFC","phone":"(919) 872-5356","price":"$","reviewCount":7,"reviewScore":2,"meta":{"revision":0,"created":1547531156500,"version":0},"$loki":116},{"_id":"5c3d65bd3525a329e0c08e33","address":"3105 Capital Blvd","location":{"type":"Point","coordinates":[-78.580306,35.834854]},"isApproved":true,"items":[],"keys":["Steakhouses"],"lastUpdated":1547527612438,"name":"Outback Steakhouse","phone":"(919) 790-0990","price":"$$","reviewCount":99,"reviewScore":2.5,"meta":{"revision":0,"created":1547531156500,"version":0},"$loki":117},{"_id":"5c3d65bd3525a329e0c014b7","address":"4020 Capital Blvd","location":{"type":"Point","coordinates":[-78.5786827,35.8358565]},"isApproved":true,"items":[],"keys":["Latin American"],"lastUpdated":1547527612249,"name":"Mar-Y-Sol Restaurant","phone":"(919) 431-0505","price":"$$","reviewCount":11,"reviewScore":3.5,"meta":{"revision":0,"created":1547531156500,"version":0},"$loki":118},{"_id":"5c3d65bd3525a329e0c0e3eb","address":"101 Park At North Hills St","location":{"type":"Point","coordinates":[-78.51131,35.81858]},"isApproved":true,"items":[],"keys":["Tapas/Small Plates","Cocktail Bars","Wine Bars"],"lastUpdated":1547527612572,"name":"Level7","phone":"(919) 571-2500","price":"$$","reviewCount":93,"reviewScore":3.5,"meta":{"revision":0,"created":1547531156500,"version":0},"$loki":119},{"_id":"5c3d65bd3525a329e0c03d04","address":"Midtown Raleigh Farmers Market","location":{"type":"Point","coordinates":[-78.5506692,35.8151884]},"isApproved":true,"items":[],"keys":["Farmers Market","Specialty Food","Food Stands"],"lastUpdated":1547527612313,"name":"Zapples","phone":"(919) 342-8885","price":"","reviewCount":1,"reviewScore":5,"meta":{"revision":0,"created":1547531156500,"version":0},"$loki":120},{"_id":"5c3d65bd3525a329e0c02fb8","address":"424 E Six Forks Rd","location":{"type":"Point","coordinates":[-78.6313624,35.7744301]},"isApproved":true,"items":[],"keys":["Mediterranean"],"lastUpdated":1547527612295,"name":"Jasmin & Olivz Mediterranean","phone":"(919) 743-3336","price":"$","reviewCount":57,"reviewScore":3.5,"meta":{"revision":0,"created":1547531156500,"version":0},"$loki":121},{"_id":"5c3d65bd3525a329e0c0e3cc","address":"411 West Morgan St","location":{"type":"Point","coordinates":[-78.6313624,35.7744301]},"isApproved":true,"items":[],"keys":["Seafood","Food Trucks"],"lastUpdated":1547527612572,"name":"Cousins Maine Lobster - Raleigh","phone":"(919) 867-6203","price":"$$","reviewCount":169,"reviewScore":3.5,"meta":{"revision":0,"created":1547531156500,"version":0},"$loki":122}],"idIndex":[1,2,3,4,5,6,7,8,9,10,11,12,13,14,15,16,17,18,19,20,21,22,23,24,25,26,27,28,29,30,31,32,33,34,35,36,37,38,39,40,41,42,43,44,45,46,47,48,49,50,51,52,53,54,55,56,57,58,59,60,61,62,63,64,65,66,67,68,69,70,71,72,73,74,75,76,77,78,79,80,81,82,83,84,85,86,87,88,89,90,91,92,93,94,95,96,97,98,99,100,101,102,103,104,105,106,107,108,109,110,111,112,113,114,115,116,117,118,119,120,121,122],"binaryIndices":{},"constraints":null,"uniqueNames":[],"transforms":{},"objType":"restaurants","dirty":true,"cachedIndex":null,"cachedBinaryIndex":null,"cachedData":null,"adaptiveBinaryIndices":true,"transactional":false,"cloneObjects":false,"cloneMethod":"parse-stringify","asyncListeners":false,"disableMeta":false,"disableChangesApi":true,"disableDeltaChangesApi":true,"autoupdate":false,"serializableIndices":true,"ttl":null,"maxId":122,"DynamicViews":[],"events":{"insert":[],"update":[],"pre-insert":[],"pre-update":[],"close":[],"flushbuffer":[],"error":[],"delete":[null],"warning":[null]},"changes":[]}],"databaseVersion":1.5,"engineVersion":1.5,"autosave":false,"autosaveInterval":5000,"autosaveHandle":null,"throttledSaves":true,"options":{"serializationMethod":"normal","destructureDelimiter":"$<\n"},"persistenceMethod":"fs","persistenceAdapter":null,"verbose":false,"events":{"init":[null],"loaded":[],"flushChanges":[],"close":[],"changes":[],"warning":[]},"ENV":"NODEJS"}