{"filename":"-79.75-36","collections":[{"name":"restaurants","data":[{"_id":"5c3d65bd3525a329e0c15895","address":"268 Lowes Blvd","location":{"type":"Point","coordinates":[-80.0583162,35.919965]},"isApproved":true,"items":[],"keys":["Sandwiches","Fast Food"],"lastUpdated":1547527612747,"name":"Subway","phone":"(336) 224-5066","price":"","reviewCount":1,"reviewScore":2,"meta":{"revision":0,"created":1547531150967,"version":0},"$loki":1},{"_id":"5c3d65bd3525a329e0c09f74","address":"8275 S Nc Highway 109","location":{"type":"Point","coordinates":[-80.0584858,35.919955]},"isApproved":true,"items":[],"keys":["Fast Food","Sandwiches"],"lastUpdated":1547527612472,"name":"Subway","phone":"(336) 472-0133","price":"","reviewCount":2,"reviewScore":1,"meta":{"revision":0,"created":1547531150967,"version":0},"$loki":2},{"_id":"5c3d65bd3525a329e0c08857","address":"1447 National Hwy","location":{"type":"Point","coordinates":[-80.0553478,35.9182944]},"isApproved":true,"items":[],"keys":["Chinese"],"lastUpdated":1547527612428,"name":"China City","phone":"(336) 885-7588","price":"$","reviewCount":6,"reviewScore":2.5,"meta":{"revision":0,"created":1547531150967,"version":0},"$loki":3},{"_id":"5c3d65bd3525a329e0c19fc9","address":"601 S Main St","location":{"type":"Point","coordinates":[-80.058891,35.9157941]},"isApproved":true,"items":[],"keys":["Chinese"],"lastUpdated":1547527612852,"name":"Tasty China","phone":"(336) 237-0533","price":"$","reviewCount":16,"reviewScore":3,"meta":{"revision":0,"created":1547531150967,"version":0},"$loki":4},{"_id":"5c3d65bd3525a329e0c02de4","address":"624 National Hwy","location":{"type":"Point","coordinates":[-80.0688057,35.897909]},"isApproved":true,"items":[],"keys":["Seafood","Seafood Markets"],"lastUpdated":1547527612294,"name":"Todd Seafood Mkt","phone":"(336) 476-1158","price":"","reviewCount":1,"reviewScore":5,"meta":{"revision":0,"created":1547531150967,"version":0},"$loki":5},{"_id":"5c3d65bd3525a329e0c10934","address":"2391 N Center St","location":{"type":"Point","coordinates":[-80.0671781,35.8986791]},"isApproved":true,"items":[],"keys":["Barbeque"],"lastUpdated":1547527612625,"name":"Hannah’s BBQ South","phone":"(828) 327-4227","price":"$","reviewCount":13,"reviewScore":4,"meta":{"revision":0,"created":1547531150967,"version":0},"$loki":6},{"_id":"5c3d65bd3525a329e0c12ddc","address":"1709 N Center St","location":{"type":"Point","coordinates":[-80.0671781,35.8986791]},"isApproved":true,"items":[],"keys":["Mexican"],"lastUpdated":1547527612681,"name":"El Paso Mexican Restaurant","phone":"(828) 322-6292","price":"$$","reviewCount":21,"reviewScore":3.5,"meta":{"revision":0,"created":1547531150967,"version":0},"$loki":7},{"_id":"5c3d65bd3525a329e0bff507","address":"900 W Cooksey Dr","location":{"type":"Point","coordinates":[-80.0913358,35.897402]},"isApproved":true,"items":[],"keys":["Chinese"],"lastUpdated":1547527612216,"name":"China Wok","phone":"(336) 472-0175","price":"","reviewCount":6,"reviewScore":3.5,"meta":{"revision":0,"created":1547531150967,"version":0},"$loki":8},{"_id":"5c3d65bd3525a329e0c1ac59","address":"900 W Cooksey Dr","location":{"type":"Point","coordinates":[-80.0913358,35.897402]},"isApproved":true,"items":[],"keys":["Sandwiches","Fast Food"],"lastUpdated":1547527612869,"name":"Subway","phone":"(336) 472-0469","price":"","reviewCount":2,"reviewScore":4.5,"meta":{"revision":0,"created":1547531150967,"version":0},"$loki":9},{"_id":"5c3d65bd3525a329e0c03aef","address":"3779 North Carolina 8","location":{"type":"Point","coordinates":[-80.078623,35.884796]},"isApproved":true,"items":[],"keys":["Pizza","Italian"],"lastUpdated":1547527612312,"name":"Elizabeth’s Pizza Express","phone":"(336) 237-1345","price":"$","reviewCount":3,"reviewScore":4.5,"meta":{"revision":0,"created":1547531150967,"version":0},"$loki":10},{"_id":"5c3d65bd3525a329e0c06ae6","address":"1260 16th St NE","location":{"type":"Point","coordinates":[-80.0860624,35.8822021]},"isApproved":true,"items":[],"keys":["Burgers","Fast Food"],"lastUpdated":1547527612380,"name":"Wendy’s","phone":"(828) 327-0196","price":"","reviewCount":3,"reviewScore":2.5,"meta":{"revision":0,"created":1547531150967,"version":0},"$loki":11},{"_id":"5c3d65bd3525a329e0c0a12d","address":"2208 S Main St","location":{"type":"Point","coordinates":[-80.0847242,35.8824151]},"isApproved":true,"items":[],"keys":["Desserts","Burgers","Sandwiches"],"lastUpdated":1547527612473,"name":"Biscuit King","phone":"(336) 224-1313","price":"$","reviewCount":1,"reviewScore":1,"meta":{"revision":0,"created":1547531150967,"version":0},"$loki":12},{"_id":"5c3d65bd3525a329e0bff6fb","address":"246 14th Ave NE","location":{"type":"Point","coordinates":[-80.083183,35.8819233]},"isApproved":true,"items":[],"keys":["American (Traditional)","American (New)"],"lastUpdated":1547527612217,"name":"Backstreets Bar and Grill","phone":"(828) 328-6479","price":"$$","reviewCount":63,"reviewScore":3.5,"meta":{"revision":0,"created":1547531150967,"version":0},"$loki":13},{"_id":"5c3d65bd3525a329e0bff6da","address":"704 Randolph St","location":{"type":"Point","coordinates":[-80.0841133,35.8846409]},"isApproved":true,"items":[],"keys":["Donuts","Sandwiches"],"lastUpdated":1547527612217,"name":"Granny’s Donuts & Sandwiches","phone":"(336) 476-9595","price":"$","reviewCount":27,"reviewScore":5,"meta":{"revision":0,"created":1547531150967,"version":0},"$loki":14},{"_id":"5c3d65bd3525a329e0c00efa","address":"242 11th Ave NE","location":{"type":"Point","coordinates":[-80.0808919966221,35.8842139167882]},"isApproved":true,"items":[],"keys":["American (New)","Wine Bars"],"lastUpdated":1547527612237,"name":"Cafe Rule & Wine Bar","phone":"(828) 324-2005","price":"$$$","reviewCount":93,"reviewScore":4,"meta":{"revision":0,"created":1547531150967,"version":0},"$loki":15},{"_id":"5c3d65bd3525a329e0c08381","address":"5585 Rink Dam Rd","location":{"type":"Point","coordinates":[-80.0806193,35.8827568]},"isApproved":true,"items":[],"keys":["American (Traditional)"],"lastUpdated":1547527612420,"name":"Crossroads Grill","phone":"(828) 632-5656","price":"$","reviewCount":17,"reviewScore":5,"meta":{"revision":0,"created":1547531150967,"version":0},"$loki":16},{"_id":"5c3d65bd3525a329e0c04b4d","address":"2346 Springs Rd NE","location":{"type":"Point","coordinates":[-80.0800762,35.8792536]},"isApproved":true,"items":[],"keys":["Chinese"],"lastUpdated":1547527612331,"name":"China Moon","phone":"(828) 256-1188","price":"","reviewCount":4,"reviewScore":5,"meta":{"revision":0,"created":1547531150967,"version":0},"$loki":17},{"_id":"5c3d65bd3525a329e0c165f0","address":"200 North Main St","location":{"type":"Point","coordinates":[-80.0776771,35.8754145]},"isApproved":true,"items":[],"keys":["Health Markets","Breakfast & Brunch"],"lastUpdated":1547527612765,"name":"BAM Nutrition","phone":"(336) 843-4262","price":"$","reviewCount":1,"reviewScore":5,"meta":{"revision":0,"created":1547531150967,"version":0},"$loki":18},{"_id":"5c3d65bd3525a329e0c0c4cd","address":"947 Fisher Ferry St","location":{"type":"Point","coordinates":[-80.077454,35.876447]},"isApproved":true,"items":[],"keys":["Barbeque"],"lastUpdated":1547527612524,"name":"Terry House Barbecue","phone":"(336) 475-1628","price":"$","reviewCount":4,"reviewScore":3.5,"meta":{"revision":0,"created":1547531150967,"version":0},"$loki":19},{"_id":"5c3d65bd3525a329e0c11a8d","address":"603 Randolph St","location":{"type":"Point","coordinates":[-80.0764294751798,35.8745559996956]},"isApproved":true,"items":[],"keys":["Fast Food","Burgers","Ice Cream & Frozen Yogurt"],"lastUpdated":1547527612652,"name":"Sonic Drive-In","phone":"(336) 476-0064","price":"$","reviewCount":9,"reviewScore":3,"meta":{"revision":0,"created":1547531150967,"version":0},"$loki":20},{"_id":"5c3d65bd3525a329e0c19761","address":"40 Cloninger Mill Rd NE","location":{"type":"Point","coordinates":[-80.0872050100223,35.8817957675382]},"isApproved":true,"items":[],"keys":["Japanese","Sushi Bars","Seafood"],"lastUpdated":1547527612841,"name":"Umi","phone":"(828) 322-5511","price":"$$","reviewCount":67,"reviewScore":4.5,"meta":{"revision":0,"created":1547531150967,"version":0},"$loki":21},{"_id":"5c3d65bd3525a329e0c18ac2","address":"2710 N Center St","location":{"type":"Point","coordinates":[-80.0886133,35.8609257]},"isApproved":true,"items":[],"keys":["Wine Bars","Sports Bars","American (Traditional)"],"lastUpdated":1547527612823,"name":"Olde Tavern","phone":"(828) 322-3323","price":"$$","reviewCount":19,"reviewScore":3,"meta":{"revision":0,"created":1547531150967,"version":0},"$loki":22},{"_id":"5c3d65bd3525a329e0c1116f","address":"1725 E Broad St","location":{"type":"Point","coordinates":[-80.0762695,35.8723613]},"isApproved":true,"items":[],"keys":["Pizza"],"lastUpdated":1547527612641,"name":"Hungry Howie’s Pizza","phone":"","price":"","reviewCount":3,"reviewScore":2.5,"meta":{"revision":0,"created":1547531150967,"version":0},"$loki":23},{"_id":"5c3d65bd3525a329e0c16b00","address":"1503 Cinema Dr","location":{"type":"Point","coordinates":[-80.076343,35.872617]},"isApproved":true,"items":[],"keys":["Pizza"],"lastUpdated":1547527612773,"name":"Village Inn Pizza Parlor","phone":"(704) 873-0256","price":"$","reviewCount":17,"reviewScore":3,"meta":{"revision":0,"created":1547531150967,"version":0},"$loki":24},{"_id":"5c3d65bd3525a329e0c1658e","address":"1525 G Cinema Dr","location":{"type":"Point","coordinates":[-80.074565,35.8700343]},"isApproved":true,"items":[],"keys":["Sandwiches","Fast Food"],"lastUpdated":1547527612764,"name":"Subway","phone":"(704) 883-7772","price":"$","reviewCount":3,"reviewScore":4,"meta":{"revision":0,"created":1547531150967,"version":0},"$loki":25},{"_id":"5c3d65bd3525a329e0c0da9b","address":"106 W Main St","location":{"type":"Point","coordinates":[-80.0746192,35.8697592]},"isApproved":true,"items":[],"keys":["Pizza"],"lastUpdated":1547527612556,"name":"Elizabeth Pizza & Restaurant","phone":"(336) 476-7444","price":"$$","reviewCount":5,"reviewScore":4,"meta":{"revision":0,"created":1547531150967,"version":0},"$loki":26},{"_id":"5c3d65bd3525a329e0c0c327","address":"1922 16th St NE","location":{"type":"Point","coordinates":[-80.0739,35.8691]},"isApproved":true,"items":[],"keys":["Sandwiches","Fast Food"],"lastUpdated":1547527612518,"name":"Subway","phone":"(828) 324-8583","price":"$","reviewCount":2,"reviewScore":3,"meta":{"revision":0,"created":1547531150967,"version":0},"$loki":27},{"_id":"5c3d65bd3525a329e0c19da2","address":"920 Randolph St","location":{"type":"Point","coordinates":[-80.0736631841564,35.868384502331]},"isApproved":true,"items":[],"keys":["American (Traditional)","Chicken Wings"],"lastUpdated":1547527612850,"name":"East Coast Wings + Grill","phone":"(336) 474-2329","price":"$","reviewCount":28,"reviewScore":2.5,"meta":{"revision":0,"created":1547531150967,"version":0},"$loki":28},{"_id":"5c3d65bd3525a329e0c16c21","address":"2511 N Center St","location":{"type":"Point","coordinates":[-80.0731364,35.8703008]},"isApproved":true,"items":[],"keys":["Burgers","Fast Food","Coffee & Tea"],"lastUpdated":1547527612774,"name":"McDonald’s","phone":"(828) 322-2081","price":"","reviewCount":7,"reviewScore":1.5,"meta":{"revision":0,"created":1547531150967,"version":0},"$loki":29},{"_id":"5c3d65bd3525a329e0c12c2c","address":"883 Highland Ave SE","location":{"type":"Point","coordinates":[-80.0701081752777,35.8647043750683]},"isApproved":true,"items":[],"keys":["Bars","Pizza","American (New)"],"lastUpdated":1547527612680,"name":"Blowing Rock Draft House & Brewery","phone":"(828) 855-9999","price":"","reviewCount":9,"reviewScore":3.5,"meta":{"revision":0,"created":1547531150967,"version":0},"$loki":30},{"_id":"5c3d65bd3525a329e0c19402","address":"1033 Randolph St","location":{"type":"Point","coordinates":[-80.069779,35.864271]},"isApproved":true,"items":[],"keys":["Chinese"],"lastUpdated":1547527612840,"name":"China Garden","phone":"(336) 475-0188","price":"$","reviewCount":10,"reviewScore":3,"meta":{"revision":0,"created":1547531150967,"version":0},"$loki":31},{"_id":"5c3d65bd3525a329e0c04da4","address":"6483 Old US Hwy 52","location":{"type":"Point","coordinates":[-80.070742,35.863513]},"isApproved":true,"items":[],"keys":["Chinese"],"lastUpdated":1547527612338,"name":"New China","phone":"(336) 731-8880","price":"","reviewCount":3,"reviewScore":1,"meta":{"revision":0,"created":1547531150967,"version":0},"$loki":32},{"_id":"5c3d65bd3525a329e0c0cb33","address":"1304 2nd St N.E.","location":{"type":"Point","coordinates":[-80.0718609,35.8642496]},"isApproved":true,"items":[],"keys":["Burgers","Fast Food"],"lastUpdated":1547527612533,"name":"Checkers","phone":"(828) 327-5611","price":"","reviewCount":5,"reviewScore":3,"meta":{"revision":0,"created":1547531150967,"version":0},"$loki":33},{"_id":"5c3d65bd3525a329e0c07d6d","address":"1030 Randolph St","location":{"type":"Point","coordinates":[-80.0727435,35.8652552]},"isApproved":true,"items":[],"keys":["Fast Food"],"lastUpdated":1547527612411,"name":"Bojangles","phone":"(336) 475-8579","price":"$","reviewCount":8,"reviewScore":3,"meta":{"revision":0,"created":1547531150967,"version":0},"$loki":34},{"_id":"5c3d65bd3525a329e0c1a27a","address":"2145 N Ctr St","location":{"type":"Point","coordinates":[-80.0726309,35.8649604]},"isApproved":true,"items":[],"keys":["Southern","American (Traditional)","Comfort Food"],"lastUpdated":1547527612858,"name":"Granny’s Country Kitchen","phone":"(828) 855-1659","price":"$$","reviewCount":9,"reviewScore":2,"meta":{"revision":0,"created":1547531150967,"version":0},"$loki":35},{"_id":"5c3d65bd3525a329e0c00f0b","address":"1033 Randolph St","location":{"type":"Point","coordinates":[-80.0709139,35.8643198]},"isApproved":true,"items":[],"keys":["Burgers","American (Traditional)","Sandwiches"],"lastUpdated":1547527612237,"name":"Coach’s Neighborhood Grill","phone":"(336) 313-8944","price":"$$","reviewCount":7,"reviewScore":2.5,"meta":{"revision":0,"created":1547531150967,"version":0},"$loki":36},{"_id":"5c3d65bd3525a329e0c033c7","address":"1510 E Broad St","location":{"type":"Point","coordinates":[-80.0709139,35.86433]},"isApproved":true,"items":[],"keys":["Hot Dogs","Burgers"],"lastUpdated":1547527612302,"name":"Burger King","phone":"(704) 873-3653","price":"$$","reviewCount":5,"reviewScore":2,"meta":{"revision":0,"created":1547531150967,"version":0},"$loki":37},{"_id":"5c3d65bd3525a329e0c0d882","address":"1245 Hwy 321 NW","location":{"type":"Point","coordinates":[-80.0716298,35.8657834]},"isApproved":true,"items":[],"keys":["American (Traditional)","Diners","Breakfast & Brunch"],"lastUpdated":1547527612555,"name":"Waffle House","phone":"(828) 324-4004","price":"$","reviewCount":7,"reviewScore":3.5,"meta":{"revision":0,"created":1547531150967,"version":0},"$loki":38},{"_id":"5c3d65bd3525a329e0c02cf2","address":"2540 N Center St","location":{"type":"Point","coordinates":[-80.071459,35.866577]},"isApproved":true,"items":[],"keys":["Pizza"],"lastUpdated":1547527612293,"name":"Papa John’s Pizza","phone":"(828) 327-7272","price":"$","reviewCount":4,"reviewScore":3,"meta":{"revision":0,"created":1547531150967,"version":0},"$loki":39},{"_id":"5c3d65bd3525a329e0c0a0f9","address":"1126 Randolph St","location":{"type":"Point","coordinates":[-80.0721515956047,35.8673606348906]},"isApproved":true,"items":[],"keys":["Fast Food","Sandwiches"],"lastUpdated":1547527612473,"name":"Arby’s","phone":"(336) 475-4766","price":"","reviewCount":6,"reviewScore":1.5,"meta":{"revision":0,"created":1547531150967,"version":0},"$loki":40},{"_id":"5c3d65bd3525a329e0c0f4d2","address":"1026 Randolph St","location":{"type":"Point","coordinates":[-80.072663,35.8660032]},"isApproved":true,"items":[],"keys":["American (New)","Diners","Breakfast & Brunch"],"lastUpdated":1547527612592,"name":"Sunrise Diner","phone":"(336) 472-8677","price":"$","reviewCount":24,"reviewScore":3.5,"meta":{"revision":0,"created":1547531150967,"version":0},"$loki":41},{"_id":"5c3d65bd3525a329e0c1ab4c","address":"1409 29th Ave Dr NE","location":{"type":"Point","coordinates":[-80.073275791724,35.8618404952949]},"isApproved":true,"items":[],"keys":["Chinese"],"lastUpdated":1547527612868,"name":"Golden China Restaurant","phone":"(828) 256-8438","price":"$","reviewCount":12,"reviewScore":3.5,"meta":{"revision":0,"created":1547531150967,"version":0},"$loki":42},{"_id":"5c3d65bd3525a329e0c1a162","address":"6425 Old US Highway 52","location":{"type":"Point","coordinates":[-80.0729165,35.862587]},"isApproved":true,"items":[],"keys":["Fast Food","Sandwiches"],"lastUpdated":1547527612857,"name":"Subway","phone":"(336) 731-2253","price":"","reviewCount":3,"reviewScore":3.5,"meta":{"revision":0,"created":1547531150967,"version":0},"$loki":43},{"_id":"5c3d65bd3525a329e0c16bc2","address":"1123 Randolph St","location":{"type":"Point","coordinates":[-80.0719145,35.8616159]},"isApproved":true,"items":[],"keys":["Burgers","Fast Food"],"lastUpdated":1547527612773,"name":"Cook Out","phone":"","price":"$","reviewCount":14,"reviewScore":4,"meta":{"revision":0,"created":1547531150967,"version":0},"$loki":44},{"_id":"5c3d65bd3525a329e0c0770f","address":"1840 12th Ave NE","location":{"type":"Point","coordinates":[-80.0723517,35.8581286]},"isApproved":true,"items":[],"keys":["Chinese"],"lastUpdated":1547527612402,"name":"Oriental Express Restaurant","phone":"(828) 328-5335","price":"$","reviewCount":9,"reviewScore":4.5,"meta":{"revision":0,"created":1547531150967,"version":0},"$loki":45},{"_id":"5c3d65bd3525a329e0c16029","address":"1470 US Hwy 321 NW","location":{"type":"Point","coordinates":[-80.0735799,35.8576952]},"isApproved":true,"items":[],"keys":["Fast Food","Sandwiches"],"lastUpdated":1547527612756,"name":"Arby’s","phone":"(828) 324-9429","price":"$","reviewCount":6,"reviewScore":2.5,"meta":{"revision":0,"created":1547531150967,"version":0},"$loki":46},{"_id":"5c3d65bd3525a329e0c1ad0b","address":"1011 Randolph St","location":{"type":"Point","coordinates":[-80.0738099999845,35.8573318050747]},"isApproved":true,"items":[],"keys":["Burgers","Fast Food"],"lastUpdated":1547527612875,"name":"Burger King","phone":"(336) 476-3926","price":"","reviewCount":3,"reviewScore":4,"meta":{"revision":0,"created":1547531150967,"version":0},"$loki":47},{"_id":"5c3d65bd3525a329e0c14ce0","address":"1122 Randolph St","location":{"type":"Point","coordinates":[-80.073919,35.8582524]},"isApproved":true,"items":[],"keys":["Chinese"],"lastUpdated":1547527612729,"name":"Lucky Chens Kitchen","phone":"(336) 472-1098","price":"","reviewCount":2,"reviewScore":2,"meta":{"revision":0,"created":1547531150967,"version":0},"$loki":48},{"_id":"5c3d65bd3525a329e0c0faa2","address":"204 US Hwy 321 NW","location":{"type":"Point","coordinates":[-80.0733271613717,35.8559945464912]},"isApproved":true,"items":[],"keys":["American (Traditional)","Chicken Wings"],"lastUpdated":1547527612601,"name":"Ham’s of Hickory","phone":"(828) 855-3900","price":"$","reviewCount":17,"reviewScore":2.5,"meta":{"revision":0,"created":1547531150967,"version":0},"$loki":49},{"_id":"5c3d65bd3525a329e0c0aad9","address":"1040 S Main St","location":{"type":"Point","coordinates":[-80.0706412643194,35.855422806546]},"isApproved":true,"items":[],"keys":["Burgers","American (Traditional)","Sandwiches"],"lastUpdated":1547527612489,"name":"Bojangles","phone":"(336) 224-5412","price":"$","reviewCount":5,"reviewScore":2,"meta":{"revision":0,"created":1547531150967,"version":0},"$loki":50},{"_id":"5c3d65bd3525a329e0c055c0","address":"1021 2nd St NE","location":{"type":"Point","coordinates":[-80.072338,35.855291]},"isApproved":true,"items":[],"keys":["Pizza","Italian"],"lastUpdated":1547527612348,"name":"Village Inn Pizza Viewmont","phone":"(828) 322-2929","price":"$","reviewCount":6,"reviewScore":4,"meta":{"revision":0,"created":1547531150967,"version":0},"$loki":51},{"_id":"5c3d65bd3525a329e0c16f5d","address":"306 E Main Ave","location":{"type":"Point","coordinates":[-80.0670254,35.8546123]},"isApproved":true,"items":[],"keys":["Diners","Barbeque","Hot Dogs"],"lastUpdated":1547527612781,"name":"Scotz Bbq & Diner","phone":"(828) 632-8999","price":"$","reviewCount":3,"reviewScore":1.5,"meta":{"revision":0,"created":1547531150967,"version":0},"$loki":52},{"_id":"5c3d65bd3525a329e0c1b0d3","address":"1239 2nd St NE","location":{"type":"Point","coordinates":[-80.065398,35.855675]},"isApproved":true,"items":[],"keys":["Fast Food"],"lastUpdated":1547527612877,"name":"Chick-fil-A","phone":"(828) 569-2769","price":"$","reviewCount":5,"reviewScore":3,"meta":{"revision":0,"created":1547531150967,"version":0},"$loki":53},{"_id":"5c3d65bd3525a329e0c0b580","address":"131 Turnersburg Hwy","location":{"type":"Point","coordinates":[-80.071287,35.891512]},"isApproved":true,"items":[],"keys":["Burgers","Fast Food","Ice Cream & Frozen Yogurt"],"lastUpdated":1547527612499,"name":"Dairy Queen","phone":"(704) 873-1841","price":"$","reviewCount":8,"reviewScore":3,"meta":{"revision":0,"created":1547531150967,"version":0},"$loki":54},{"_id":"5c3d65bd3525a329e0c03cb9","address":"645 Madison Rd","location":{"type":"Point","coordinates":[-80.071979,35.8908245]},"isApproved":true,"items":[],"keys":["Pizza","Italian","Chicken Wings"],"lastUpdated":1547527612313,"name":"Pizza Hut","phone":"(336) 751-1907","price":"$","reviewCount":5,"reviewScore":3.5,"meta":{"revision":0,"created":1547531150967,"version":0},"$loki":55},{"_id":"5c3d65bd3525a329e0c09fc3","address":"706 Randolph St","location":{"type":"Point","coordinates":[-80.0708534,35.8939194]},"isApproved":true,"items":[],"keys":["Barbeque"],"lastUpdated":1547527612472,"name":"Barbecue Shack","phone":"(336) 472-8566","price":"$","reviewCount":13,"reviewScore":4,"meta":{"revision":0,"created":1547531150967,"version":0},"$loki":56},{"_id":"5c3d65bd3525a329e0c000bf","address":"3204 Springs Rd","location":{"type":"Point","coordinates":[-80.0419434,35.8735019]},"isApproved":true,"items":[],"keys":["Pizza","Sandwiches","Fast Food"],"lastUpdated":1547527612224,"name":"Domino’s","phone":"(828) 256-9811","price":"$$","reviewCount":6,"reviewScore":3,"meta":{"revision":0,"created":1547531150967,"version":0},"$loki":57},{"_id":"5c3d65bd3525a329e0c10d6d","address":"126 W Broad St","location":{"type":"Point","coordinates":[-80.0361325986076,35.8689388514842]},"isApproved":true,"items":[],"keys":["Sandwiches"],"lastUpdated":1547527612633,"name":"Sub Express","phone":"(704) 872-9666","price":"$","reviewCount":17,"reviewScore":3.5,"meta":{"revision":0,"created":1547531150967,"version":0},"$loki":58},{"_id":"5c3d65bd3525a329e0c0b6e6","address":"1261 16th St NE","location":{"type":"Point","coordinates":[-79.9996448,35.9213635]},"isApproved":true,"items":[],"keys":["Seafood"],"lastUpdated":1547527612505,"name":"Captain’s Galley Seafood Restaurant","phone":"(828) 327-0555","price":"$$","reviewCount":14,"reviewScore":3.5,"meta":{"revision":0,"created":1547531150967,"version":0},"$loki":59},{"_id":"5c3d65bd3525a329e0c080c1","address":"2451 Springs Rd NE","location":{"type":"Point","coordinates":[-80.0008899,35.9224158]},"isApproved":true,"items":[],"keys":["Fast Food","Mexican"],"lastUpdated":1547527612419,"name":"Taco Bell","phone":"(828) 256-3931","price":"$","reviewCount":6,"reviewScore":1.5,"meta":{"revision":0,"created":1547531150967,"version":0},"$loki":60},{"_id":"5c3d65bd3525a329e0c190f7","address":"1102 W Fairfield Rd","location":{"type":"Point","coordinates":[-80.006726,35.921665]},"isApproved":true,"items":[],"keys":["American (Traditional)","Italian","Greek"],"lastUpdated":1547527612832,"name":"Nick’s Sub Shop & Grill","phone":"(336) 861-5757","price":"$","reviewCount":10,"reviewScore":4,"meta":{"revision":0,"created":1547531150967,"version":0},"$loki":61},{"_id":"5c3d65bd3525a329e0c0f13e","address":"900 Hwy 90 West","location":{"type":"Point","coordinates":[-80.0004967,35.9210346]},"isApproved":true,"items":[],"keys":["Pizza","Chicken Wings","Sandwiches"],"lastUpdated":1547527612591,"name":"Domino’s Pizza","phone":"(828) 635-6868","price":"$","reviewCount":4,"reviewScore":2.5,"meta":{"revision":0,"created":1547531150967,"version":0},"$loki":62},{"_id":"5c3d65bd3525a329e0c15b08","address":"309 W Fairfield Rd","location":{"type":"Point","coordinates":[-79.9874789,35.923379]},"isApproved":true,"items":[],"keys":["American (New)","Pubs"],"lastUpdated":1547527612753,"name":"Sidelines Sports Grill","phone":"(336) 434-8605","price":"$","reviewCount":5,"reviewScore":3,"meta":{"revision":0,"created":1547531150967,"version":0},"$loki":63},{"_id":"5c3d65bd3525a329e0c0b9a2","address":"2757 S Main St","location":{"type":"Point","coordinates":[-79.9890056,35.9252249]},"isApproved":true,"items":[],"keys":["Burgers","Fast Food"],"lastUpdated":1547527612507,"name":"Burger King","phone":"(336) 886-4624","price":"$","reviewCount":4,"reviewScore":2.5,"meta":{"revision":0,"created":1547531150967,"version":0},"$loki":64},{"_id":"5c3d65bd3525a329e0c05766","address":"940 Davie Ave","location":{"type":"Point","coordinates":[-79.9880237,35.9231699]},"isApproved":true,"items":[],"keys":["Pizza","Italian","Chicken Wings"],"lastUpdated":1547527612349,"name":"Pizza Hut","phone":"(704) 878-6500","price":"$$","reviewCount":4,"reviewScore":2,"meta":{"revision":0,"created":1547531150967,"version":0},"$loki":65},{"_id":"5c3d65bd3525a329e0c04b1a","address":"2722 S Main","location":{"type":"Point","coordinates":[-79.9842,35.9254]},"isApproved":true,"items":[],"keys":["Fast Food","Chicken Wings","Chicken Shop"],"lastUpdated":1547527612331,"name":"KFC","phone":"(336) 885-8423","price":"","reviewCount":10,"reviewScore":1,"meta":{"revision":0,"created":1547531150967,"version":0},"$loki":66},{"_id":"5c3d65bd3525a329e0c0766b","address":"1585 Liberty Dr","location":{"type":"Point","coordinates":[-79.9842006,35.925061]},"isApproved":true,"items":[],"keys":["Burgers","Fast Food","Coffee & Tea"],"lastUpdated":1547527612402,"name":"McDonald’s","phone":"(336) 476-9260","price":"$","reviewCount":1,"reviewScore":4,"meta":{"revision":0,"created":1547531150967,"version":0},"$loki":67},{"_id":"5c3d65bd3525a329e0c00fe4","address":"2738 S Main St","location":{"type":"Point","coordinates":[-79.983775,35.924752]},"isApproved":true,"items":[],"keys":["Fast Food","Burgers","Coffee & Tea"],"lastUpdated":1547527612238,"name":"McDonald’s","phone":"(336) 887-6011","price":"","reviewCount":2,"reviewScore":1,"meta":{"revision":0,"created":1547531150967,"version":0},"$loki":68},{"_id":"5c3d65bd3525a329e0c03654","address":"1405 29th Ave NE","location":{"type":"Point","coordinates":[-79.984004,35.9242651]},"isApproved":true,"items":[],"keys":["Grocery","Beer, Wine & Spirits","Chicken Wings"],"lastUpdated":1547527612303,"name":"Lowes Foods","phone":"(828) 256-1095","price":"","reviewCount":2,"reviewScore":3,"meta":{"revision":0,"created":1547531150967,"version":0},"$loki":69},{"_id":"5c3d65bd3525a329e0c11c5a","address":"110 W Fairfield Rd","location":{"type":"Point","coordinates":[-79.984004,35.9242651]},"isApproved":true,"items":[],"keys":["Delis"],"lastUpdated":1547527612660,"name":"Food Lion","phone":"(336) 434-6521","price":"$$","reviewCount":3,"reviewScore":1.5,"meta":{"revision":0,"created":1547531150967,"version":0},"$loki":70},{"_id":"5c3d65bd3525a329e0c14024","address":"2814 S Main St","location":{"type":"Point","coordinates":[-79.9816445,35.923224]},"isApproved":true,"items":[],"keys":["American (Traditional)"],"lastUpdated":1547527612707,"name":"Spiros Family Restaurant","phone":"(336) 883-1390","price":"","reviewCount":3,"reviewScore":2.5,"meta":{"revision":0,"created":1547531150967,"version":0},"$loki":71},{"_id":"5c3d65bd3525a329e0c0ad6d","address":"569-C 3rd St Space 4","location":{"type":"Point","coordinates":[-79.983493,35.922796]},"isApproved":true,"items":[],"keys":["Pizza","Italian","Chicken Wings"],"lastUpdated":1547527612490,"name":"Pizza Hut","phone":"(828) 632-4433","price":"$","reviewCount":1,"reviewScore":5,"meta":{"revision":0,"created":1547531150967,"version":0},"$loki":72},{"_id":"5c3d65bd3525a329e0c195e6","address":"1310 Wilkesboro Hwy","location":{"type":"Point","coordinates":[-79.9831929,35.92346]},"isApproved":true,"items":[],"keys":["Hot Dogs","Food Trucks","Caterers"],"lastUpdated":1547527612841,"name":"Wilson’s Hawg n Dawg","phone":"(704) 880-8840","price":"","reviewCount":1,"reviewScore":4,"meta":{"revision":0,"created":1547531150967,"version":0},"$loki":73},{"_id":"5c3d65bd3525a329e0c16669","address":"903 Randolph St","location":{"type":"Point","coordinates":[-79.9824464,35.9249953]},"isApproved":true,"items":[],"keys":["Pizza","Italian","Chicken Wings"],"lastUpdated":1547527612765,"name":"Pizza Hut","phone":"(336) 472-2222","price":"","reviewCount":3,"reviewScore":1,"meta":{"revision":0,"created":1547531150967,"version":0},"$loki":74},{"_id":"5c3d65bd3525a329e0c01e16","address":"2601 Surrett Dr","location":{"type":"Point","coordinates":[-79.9975458,35.9083258]},"isApproved":true,"items":[],"keys":["Barbeque"],"lastUpdated":1547527612260,"name":"Archdale Barbecue","phone":"(336) 431-0194","price":"$","reviewCount":19,"reviewScore":4,"meta":{"revision":0,"created":1547531150967,"version":0},"$loki":75},{"_id":"5c3d65bd3525a329e0c04cc8","address":"1122 Randolph St","location":{"type":"Point","coordinates":[-79.8632834,36.0175027]},"isApproved":true,"items":[],"keys":["Fast Food","Sandwiches"],"lastUpdated":1547527612338,"name":"Subway","phone":"(336) 475-6060","price":"","reviewCount":2,"reviewScore":3,"meta":{"revision":0,"created":1547531150967,"version":0},"$loki":76},{"_id":"5c3d65bd3525a329e0c128a8","address":"220 Cedar Lodge Rd","location":{"type":"Point","coordinates":[-80.0800793,35.8494175]},"isApproved":true,"items":[],"keys":["Coffee & Tea","American (Traditional)","American (New)"],"lastUpdated":1547527612678,"name":"EEZ Oasis Cafe","phone":"(336) 313-6686","price":"","reviewCount":1,"reviewScore":4,"meta":{"revision":0,"created":1547531150967,"version":0},"$loki":77},{"_id":"5c3d65bd3525a329e0c0b065","address":"711 Lexington Ave","location":{"type":"Point","coordinates":[-80.1000904,35.8813012]},"isApproved":true,"items":[],"keys":["American (Traditional)"],"lastUpdated":1547527612497,"name":"West Side Grille","phone":"(336) 475-0186","price":"","reviewCount":1,"reviewScore":1,"meta":{"revision":0,"created":1547531150967,"version":0},"$loki":78}],"idIndex":[1,2,3,4,5,6,7,8,9,10,11,12,13,14,15,16,17,18,19,20,21,22,23,24,25,26,27,28,29,30,31,32,33,34,35,36,37,38,39,40,41,42,43,44,45,46,47,48,49,50,51,52,53,54,55,56,57,58,59,60,61,62,63,64,65,66,67,68,69,70,71,72,73,74,75,76,77,78],"binaryIndices":{},"constraints":null,"uniqueNames":[],"transforms":{},"objType":"restaurants","dirty":true,"cachedIndex":null,"cachedBinaryIndex":null,"cachedData":null,"adaptiveBinaryIndices":true,"transactional":false,"cloneObjects":false,"cloneMethod":"parse-stringify","asyncListeners":false,"disableMeta":false,"disableChangesApi":true,"disableDeltaChangesApi":true,"autoupdate":false,"serializableIndices":true,"ttl":null,"maxId":78,"DynamicViews":[],"events":{"insert":[],"update":[],"pre-insert":[],"pre-update":[],"close":[],"flushbuffer":[],"error":[],"delete":[null],"warning":[null]},"changes":[]}],"databaseVersion":1.5,"engineVersion":1.5,"autosave":false,"autosaveInterval":5000,"autosaveHandle":null,"throttledSaves":true,"options":{"serializationMethod":"normal","destructureDelimiter":"$<\n"},"persistenceMethod":"fs","persistenceAdapter":null,"verbose":false,"events":{"init":[null],"loaded":[],"flushChanges":[],"close":[],"changes":[],"warning":[]},"ENV":"NODEJS"}