{"filename":"-80-34","collections":[{"name":"restaurants","data":[{"_id":"5c3d65bd3525a329e0c080b8","address":"437 Killian Rd","location":{"type":"Point","coordinates":[-79.9426571,34.1338698]},"isApproved":true,"items":[],"keys":["Sports Bars","Burgers","American (Traditional)"],"lastUpdated":1547527612419,"name":"Applebee’s Grill + Bar","phone":"(803) 735-8089","price":"$$","reviewCount":57,"reviewScore":1.5,"meta":{"revision":0,"created":1547531152884,"version":0},"$loki":1},{"_id":"5c3d65bd3525a329e0bff72a","address":"7167 Two Notch Rd","location":{"type":"Point","coordinates":[-79.9383544,34.1327463]},"isApproved":true,"items":[],"keys":["American (Traditional)","Sports Bars"],"lastUpdated":1547527612218,"name":"Baker’s Sports Bar & Grill","phone":"(803) 419-2381","price":"$$","reviewCount":26,"reviewScore":3.5,"meta":{"revision":0,"created":1547531152884,"version":0},"$loki":2},{"_id":"5c3d65bd3525a329e0c028c5","address":"2509 Forest Dr","location":{"type":"Point","coordinates":[-79.934739,34.134057]},"isApproved":true,"items":[],"keys":["Seafood","Chicken Wings","Southern"],"lastUpdated":1547527612285,"name":"Nick’s Gyro’s & Seafood","phone":"(803) 255-0126","price":"$","reviewCount":13,"reviewScore":3.5,"meta":{"revision":0,"created":1547531152884,"version":0},"$loki":3},{"_id":"5c3d65bd3525a329e0c18e73","address":"101 Summer Duck Tr","location":{"type":"Point","coordinates":[-80.064328,34.170892]},"isApproved":true,"items":[],"keys":["American (Traditional)","Cinema","Dinner Theater"],"lastUpdated":1547527612831,"name":"Plates & Plots Dinner Theatre","phone":"(864) 832-7568","price":"$$$","reviewCount":1,"reviewScore":5,"meta":{"revision":0,"created":1547531152884,"version":0},"$loki":4},{"_id":"5c3d65bd3525a329e0c12bc5","address":"","location":{"type":"Point","coordinates":[-80.061729,34.169564]},"isApproved":true,"items":[],"keys":["Food Trucks","Hot Dogs"],"lastUpdated":1547527612680,"name":"The Haute Dog Lady","phone":"(803) 477-1254","price":"$","reviewCount":7,"reviewScore":4.5,"meta":{"revision":0,"created":1547531152884,"version":0},"$loki":5},{"_id":"5c3d65bd3525a329e0c00875","address":"2001 Greene St","location":{"type":"Point","coordinates":[-80.2133533,34.1896402]},"isApproved":true,"items":[],"keys":["Cafes","Southern"],"lastUpdated":1547527612228,"name":"Mr Friendly’s New Southern Cafe","phone":"(803) 254-7828","price":"$$","reviewCount":239,"reviewScore":4.5,"meta":{"revision":0,"created":1547531152884,"version":0},"$loki":6},{"_id":"5c3d65bd3525a329e0c0c504","address":"106 Percival Rd","location":{"type":"Point","coordinates":[-80.2818273,34.1913998]},"isApproved":true,"items":[],"keys":["Chicken Wings"],"lastUpdated":1547527612524,"name":"Wingstop","phone":"(803) 814-1358","price":"$$","reviewCount":20,"reviewScore":3.5,"meta":{"revision":0,"created":1547531152884,"version":0},"$loki":7},{"_id":"5c3d65bd3525a329e0c1b2c4","address":"","location":{"type":"Point","coordinates":[-80.283308,34.192447]},"isApproved":true,"items":[],"keys":["Food Trucks","Pizza"],"lastUpdated":1547527612878,"name":"The Wolf Pizza","phone":"(803) 743-6179","price":"$","reviewCount":6,"reviewScore":5,"meta":{"revision":0,"created":1547531152884,"version":0},"$loki":8},{"_id":"5c3d65bd3525a329e0c07989","address":"405 E Smith St","location":{"type":"Point","coordinates":[-80.2833077,34.1924643]},"isApproved":true,"items":[],"keys":["American (Traditional)"],"lastUpdated":1547527612409,"name":"George’s Drive In Restaurant","phone":"(843) 346-2381","price":"","reviewCount":3,"reviewScore":5,"meta":{"revision":0,"created":1547531152884,"version":0},"$loki":9},{"_id":"5c3d65bd3525a329e0c0eb0c","address":"4840 Forest Dr","location":{"type":"Point","coordinates":[-80.2774213613195,34.1968019881141]},"isApproved":true,"items":[],"keys":["Grocery","Fruits & Veggies","Soup"],"lastUpdated":1547527612581,"name":"The Fresh Market","phone":"(803) 782-9100","price":"$$$","reviewCount":27,"reviewScore":4,"meta":{"revision":0,"created":1547531152884,"version":0},"$loki":10},{"_id":"5c3d65bd3525a329e0c00bc8","address":"91 Clemson Rd","location":{"type":"Point","coordinates":[-80.2769155707347,34.1969572685248]},"isApproved":true,"items":[],"keys":["Fast Food"],"lastUpdated":1547527612230,"name":"Bojangles","phone":"(803) 419-0948","price":"$","reviewCount":6,"reviewScore":3,"meta":{"revision":0,"created":1547531152884,"version":0},"$loki":11},{"_id":"5c3d65bd3525a329e0c0d2c8","address":"933 Gervais St","location":{"type":"Point","coordinates":[-80.2774077,34.1985129]},"isApproved":true,"items":[],"keys":["Soup","Salad","Sandwiches"],"lastUpdated":1547527612545,"name":"Panera Bread","phone":"(803) 799-3060","price":"$","reviewCount":29,"reviewScore":3,"meta":{"revision":0,"created":1547531152884,"version":0},"$loki":12},{"_id":"5c3d65bd3525a329e0c09d59","address":"2303 Devine St","location":{"type":"Point","coordinates":[-80.277009,34.199033]},"isApproved":true,"items":[],"keys":["American (New)","Pubs"],"lastUpdated":1547527612465,"name":"The Black Market Tavern","phone":"(803) 250-1736","price":"","reviewCount":10,"reviewScore":4.5,"meta":{"revision":0,"created":1547531152884,"version":0},"$loki":13},{"_id":"5c3d65bd3525a329e0c0d712","address":"1531 Percival Rd","location":{"type":"Point","coordinates":[-80.308633,34.115144]},"isApproved":true,"items":[],"keys":["Mexican"],"lastUpdated":1547527612554,"name":"Tacos Nayarit","phone":"(803) 814-0727","price":"$","reviewCount":124,"reviewScore":5,"meta":{"revision":0,"created":1547531152884,"version":0},"$loki":14},{"_id":"5c3d65bd3525a329e0c16c00","address":"5200 Monticello Rd","location":{"type":"Point","coordinates":[-79.954595156014,34.0641888986603]},"isApproved":true,"items":[],"keys":["Barbeque","Burgers"],"lastUpdated":1547527612774,"name":"Johnson’s Restaurant","phone":"(803) 735-1622","price":"","reviewCount":4,"reviewScore":5,"meta":{"revision":0,"created":1547531152884,"version":0},"$loki":15}],"idIndex":[1,2,3,4,5,6,7,8,9,10,11,12,13,14,15],"binaryIndices":{},"constraints":null,"uniqueNames":[],"transforms":{},"objType":"restaurants","dirty":true,"cachedIndex":null,"cachedBinaryIndex":null,"cachedData":null,"adaptiveBinaryIndices":true,"transactional":false,"cloneObjects":false,"cloneMethod":"parse-stringify","asyncListeners":false,"disableMeta":false,"disableChangesApi":true,"disableDeltaChangesApi":true,"autoupdate":false,"serializableIndices":true,"ttl":null,"maxId":15,"DynamicViews":[],"events":{"insert":[],"update":[],"pre-insert":[],"pre-update":[],"close":[],"flushbuffer":[],"error":[],"delete":[null],"warning":[null]},"changes":[]}],"databaseVersion":1.5,"engineVersion":1.5,"autosave":false,"autosaveInterval":5000,"autosaveHandle":null,"throttledSaves":true,"options":{"serializationMethod":"normal","destructureDelimiter":"$<\n"},"persistenceMethod":"fs","persistenceAdapter":null,"verbose":false,"events":{"init":[null],"loaded":[],"flushChanges":[],"close":[],"changes":[],"warning":[]},"ENV":"NODEJS"}