{"filename":"-80-25.5","collections":[{"name":"restaurants","data":[{"_id":"5c3d65bd3525a329e0c14c81","address":"309 23rd St","location":{"type":"Point","coordinates":[-80.1269172598808,25.7995873784254]},"isApproved":true,"items":[],"keys":["Mediterranean","French"],"lastUpdated":1547527612729,"name":"Villa Azur","phone":"(305) 763-8688","price":"$$$$","reviewCount":308,"reviewScore":3.5,"meta":{"revision":0,"created":1547531156964,"version":0},"$loki":1},{"_id":"5c3d65bd3525a329e0c11011","address":"1600 Collins Ave","location":{"type":"Point","coordinates":[-80.1261444091797,25.8004283905029]},"isApproved":true,"items":[],"keys":["Spanish","Lounges","Mediterranean"],"lastUpdated":1547527612640,"name":"DECK sixteen","phone":"(305) 695-7400","price":"$$","reviewCount":34,"reviewScore":4.5,"meta":{"revision":0,"created":1547531156964,"version":0},"$loki":2},{"_id":"5c3d65bd3525a329e0c037cc","address":"260 Crandon Blvd","location":{"type":"Point","coordinates":[-80.1282467,25.7998212]},"isApproved":true,"items":[],"keys":["Venezuelan","Hot Dogs"],"lastUpdated":1547527612304,"name":"Doggi’s Arepa Bar","phone":"(786) 485-4355","price":"$$","reviewCount":21,"reviewScore":3.5,"meta":{"revision":0,"created":1547531156964,"version":0},"$loki":3},{"_id":"5c3d65bd3525a329e0c19ebf","address":"200 S Pointe Dr","location":{"type":"Point","coordinates":[-80.1282467,25.7998212]},"isApproved":true,"items":[],"keys":["Italian","Wine Bars"],"lastUpdated":1547527612851,"name":"Cibo Wine Bar South Beach","phone":"(305) 987-6060","price":"$$$","reviewCount":440,"reviewScore":4,"meta":{"revision":0,"created":1547531156964,"version":0},"$loki":4},{"_id":"5c3d65bd3525a329e0c0d2ba","address":"335 S Biscayne Blvd","location":{"type":"Point","coordinates":[-80.1855006,25.7716811]},"isApproved":true,"items":[],"keys":["Italian","Wine Bars"],"lastUpdated":1547527612545,"name":"Il Gabbiano","phone":"(305) 373-0063","price":"$$$$","reviewCount":516,"reviewScore":4,"meta":{"revision":0,"created":1547531156964,"version":0},"$loki":5},{"_id":"5c3d65bd3525a329e0c037b5","address":"100 Chopin Plz","location":{"type":"Point","coordinates":[-80.1853631123726,25.7726278759243]},"isApproved":true,"items":[],"keys":["Steakhouses","Tapas Bars","Cocktail Bars"],"lastUpdated":1547527612304,"name":"Toro Toro","phone":"(305) 372-4710","price":"$$$","reviewCount":845,"reviewScore":4,"meta":{"revision":0,"created":1547531156964,"version":0},"$loki":6},{"_id":"5c3d65bd3525a329e0c045d3","address":"100 Chopin Plz","location":{"type":"Point","coordinates":[-80.185096,25.772098]},"isApproved":true,"items":[],"keys":["American (Traditional)","Cocktail Bars"],"lastUpdated":1547527612328,"name":"Blue Water Cafe","phone":"(305) 577-1000","price":"$$","reviewCount":19,"reviewScore":4.5,"meta":{"revision":0,"created":1547531156964,"version":0},"$loki":7},{"_id":"5c3d65bd3525a329e0c140b6","address":"7418 Biscayne Blvd","location":{"type":"Point","coordinates":[-80.1874879286997,25.7722634240395]},"isApproved":true,"items":[],"keys":["Comfort Food","Sandwiches"],"lastUpdated":1547527612707,"name":"Ms Cheezious","phone":"(305) 989-4019","price":"$$","reviewCount":461,"reviewScore":4,"meta":{"revision":0,"created":1547531156964,"version":0},"$loki":8},{"_id":"5c3d65bd3525a329e0c05fc6","address":"300 S Biscayne Blvd","location":{"type":"Point","coordinates":[-80.1874545,25.7711417]},"isApproved":true,"items":[],"keys":["Coffee & Tea","Juice Bars & Smoothies","Cafes"],"lastUpdated":1547527612368,"name":"JOE & THE JUICE","phone":"","price":"","reviewCount":9,"reviewScore":4.5,"meta":{"revision":0,"created":1547531156964,"version":0},"$loki":9},{"_id":"5c3d65bd3525a329e0c10436","address":"900 S Miami Ave","location":{"type":"Point","coordinates":[-80.1868978130245,25.7712337578869]},"isApproved":true,"items":[],"keys":["American (New)","Juice Bars & Smoothies"],"lastUpdated":1547527612618,"name":"DIRT","phone":"(786) 235-8033","price":"$$","reviewCount":111,"reviewScore":4,"meta":{"revision":0,"created":1547531156964,"version":0},"$loki":10},{"_id":"5c3d65bd3525a329e0c01d6a","address":"6338 NW 4th Ave","location":{"type":"Point","coordinates":[-80.1854025,25.7659866]},"isApproved":true,"items":[],"keys":["Food Trucks","Burgers","Chicken Wings"],"lastUpdated":1547527612259,"name":"JKT’S Wings & Burgers","phone":"(786) 975-3847","price":"$","reviewCount":9,"reviewScore":4.5,"meta":{"revision":0,"created":1547531156964,"version":0},"$loki":11},{"_id":"5c3d65bd3525a329e0c19bbb","address":"134 NE 2nd Ave","location":{"type":"Point","coordinates":[-80.1852026674939,25.7654407159876]},"isApproved":true,"items":[],"keys":["Catalan","Tapas/Small Plates","Breakfast & Brunch"],"lastUpdated":1547527612850,"name":"NIU Kitchen","phone":"(786) 542-5070","price":"$$","reviewCount":337,"reviewScore":4.5,"meta":{"revision":0,"created":1547531156964,"version":0},"$loki":12},{"_id":"5c3d65bd3525a329e0c19baf","address":"1120 15th St","location":{"type":"Point","coordinates":[-80.185392,25.767347]},"isApproved":true,"items":[],"keys":["Italian"],"lastUpdated":1547527612850,"name":"Via Emilia 9","phone":"(786) 216-7150","price":"$$","reviewCount":195,"reviewScore":4,"meta":{"revision":0,"created":1547531156964,"version":0},"$loki":13},{"_id":"5c3d65bd3525a329e0c0b804","address":"690 SW 1st Ct","location":{"type":"Point","coordinates":[-80.1852515,25.7671125]},"isApproved":true,"items":[],"keys":["American (New)","Sports Bars"],"lastUpdated":1547527612505,"name":"American Social","phone":"(305) 223-7004","price":"$$","reviewCount":722,"reviewScore":3.5,"meta":{"revision":0,"created":1547531156964,"version":0},"$loki":14},{"_id":"5c3d65bd3525a329e0c0b8b4","address":"661 Brickell Key Dr","location":{"type":"Point","coordinates":[-80.1856550574303,25.7678418536709]},"isApproved":true,"items":[],"keys":["Japanese","Sushi Bars","Seafood"],"lastUpdated":1547527612507,"name":"NAOE","phone":"(305) 947-6263","price":"$$$$","reviewCount":304,"reviewScore":4.5,"meta":{"revision":0,"created":1547531156964,"version":0},"$loki":15},{"_id":"5c3d65bd3525a329e0c0695c","address":"1629 Alton Rd","location":{"type":"Point","coordinates":[-80.1678598932678,25.7700762235099]},"isApproved":true,"items":[],"keys":["Mediterranean","Turkish","Greek"],"lastUpdated":1547527612379,"name":"Lokum Mediterranean Bar and Grill","phone":"(786) 768-2423","price":"$$","reviewCount":182,"reviewScore":4,"meta":{"revision":0,"created":1547531156964,"version":0},"$loki":16},{"_id":"5c3d65bd3525a329e0c191ee","address":"169 NW 36th St","location":{"type":"Point","coordinates":[-80.1679758,25.7700009]},"isApproved":true,"items":[],"keys":["Venezuelan","Burgers"],"lastUpdated":1547527612833,"name":"Arepa.bar","phone":"(305) 763-4443","price":"$","reviewCount":10,"reviewScore":3.5,"meta":{"revision":0,"created":1547531156964,"version":0},"$loki":17},{"_id":"5c3d65bd3525a329e0c0d8fe","address":"701 S Miami Ave","location":{"type":"Point","coordinates":[-80.1757024994751,25.7779862032911]},"isApproved":true,"items":[],"keys":["Mexican"],"lastUpdated":1547527612555,"name":"Tacology","phone":"(786) 347-5368","price":"$$","reviewCount":749,"reviewScore":3.5,"meta":{"revision":0,"created":1547531156964,"version":0},"$loki":18},{"_id":"5c3d65bd3525a329e0c111e2","address":"333 NE 69th St","location":{"type":"Point","coordinates":[-80.1675971761658,25.7752584448659]},"isApproved":true,"items":[],"keys":["Cafeteria","Cuban"],"lastUpdated":1547527612641,"name":"Bread and Pan Bakery","phone":"(305) 759-4178","price":"","reviewCount":1,"reviewScore":4,"meta":{"revision":0,"created":1547531156964,"version":0},"$loki":19},{"_id":"5c3d65bd3525a329e0c138e2","address":"2200 Asia Way","location":{"type":"Point","coordinates":[-80.1652371,25.773342]},"isApproved":true,"items":[],"keys":["Filipino","Food Stands"],"lastUpdated":1547527612698,"name":"Filipino Food Truck & Mini Mart","phone":"","price":"$","reviewCount":6,"reviewScore":4.5,"meta":{"revision":0,"created":1547531156964,"version":0},"$loki":20},{"_id":"5c3d65bd3525a329e0c0972d","address":"7580 NE 4th Ct","location":{"type":"Point","coordinates":[-80.1451524,25.7608337]},"isApproved":true,"items":[],"keys":["Coffee & Tea","Cafes"],"lastUpdated":1547527612454,"name":"Limited Edition Caffé & Vino Buono","phone":"(305) 531-5055","price":"$$","reviewCount":35,"reviewScore":4,"meta":{"revision":0,"created":1547531156964,"version":0},"$loki":21},{"_id":"5c3d65bd3525a329e0c0271a","address":"","location":{"type":"Point","coordinates":[-80.1484407,25.783312]},"isApproved":true,"items":[],"keys":["Sandwiches","Food Trucks"],"lastUpdated":1547527612284,"name":"Sandwich Girl","phone":"(347) 944-8733","price":"","reviewCount":2,"reviewScore":4.5,"meta":{"revision":0,"created":1547531156964,"version":0},"$loki":22},{"_id":"5c3d65bd3525a329e0c18fd0","address":"40 Island Ave","location":{"type":"Point","coordinates":[-80.1490693883259,25.7921991274797]},"isApproved":true,"items":[],"keys":["Mediterranean"],"lastUpdated":1547527612832,"name":"Lido Bayside Grill","phone":"(786) 245-0880","price":"$$$","reviewCount":282,"reviewScore":3,"meta":{"revision":0,"created":1547531156964,"version":0},"$loki":23},{"_id":"5c3d65bd3525a329e0c00774","address":"447 Espanola Way","location":{"type":"Point","coordinates":[-80.1441449,25.793243]},"isApproved":true,"items":[],"keys":["Seafood","Italian","Salad"],"lastUpdated":1547527612228,"name":"Mare Mio Restaurant","phone":"(305) 397-8950","price":"$$","reviewCount":203,"reviewScore":4,"meta":{"revision":0,"created":1547531156964,"version":0},"$loki":24},{"_id":"5c3d65bd3525a329e0c04ac6","address":"1701 Sunset Harbour Dr","location":{"type":"Point","coordinates":[-80.1440189,25.7922192]},"isApproved":true,"items":[],"keys":["Bakeries","Coffee & Tea","Sandwiches"],"lastUpdated":1547527612331,"name":"MAK organics for everyday","phone":"(305) 308-5607","price":"","reviewCount":4,"reviewScore":5,"meta":{"revision":0,"created":1547531156964,"version":0},"$loki":25},{"_id":"5c3d65bd3525a329e0c07286","address":"910 West Ave","location":{"type":"Point","coordinates":[-80.1440141,25.7921363]},"isApproved":true,"items":[],"keys":["Sushi Bars","Poke","Fast Food"],"lastUpdated":1547527612399,"name":"Wasabi Juans","phone":"(786) 216-7262","price":"","reviewCount":2,"reviewScore":2,"meta":{"revision":0,"created":1547531156964,"version":0},"$loki":26},{"_id":"5c3d65bd3525a329e0c1a4a1","address":"1834 Bay Rd","location":{"type":"Point","coordinates":[-80.1438599,25.7942589]},"isApproved":true,"items":[],"keys":["American (New)","Vegetarian","Juice Bars & Smoothies"],"lastUpdated":1547527612859,"name":"DIRT","phone":"(786) 453-2488","price":"$$","reviewCount":73,"reviewScore":4.5,"meta":{"revision":0,"created":1547531156964,"version":0},"$loki":27},{"_id":"5c3d65bd3525a329e0c18e54","address":"1845 Bay Rd","location":{"type":"Point","coordinates":[-80.1435599000039,25.7943098517953]},"isApproved":true,"items":[],"keys":["Cafes","Breakfast & Brunch","Sandwiches"],"lastUpdated":1547527612831,"name":"VITTA Cafe","phone":"(786) 864-2860","price":"$$","reviewCount":7,"reviewScore":5,"meta":{"revision":0,"created":1547531156964,"version":0},"$loki":28},{"_id":"5c3d65bd3525a329e0c06035","address":"1131 Washington Ave","location":{"type":"Point","coordinates":[-80.1439659051198,25.794148]},"isApproved":true,"items":[],"keys":["Mediterranean","Greek","Seafood"],"lastUpdated":1547527612368,"name":"Poseidon Greek Restaurant & Outdoor Lounge","phone":"(305) 534-4434","price":"$$","reviewCount":759,"reviewScore":4.5,"meta":{"revision":0,"created":1547531156964,"version":0},"$loki":29},{"_id":"5c3d65bd3525a329e0c0da3d","address":"1424 20th St","location":{"type":"Point","coordinates":[-80.1441512,25.7937387]},"isApproved":true,"items":[],"keys":["Sushi Bars","Japanese","Asian Fusion"],"lastUpdated":1547527612555,"name":"Pubbelly Sushi - Miami Beach","phone":"(305) 531-9282","price":"$$$","reviewCount":458,"reviewScore":4,"meta":{"revision":0,"created":1547531156964,"version":0},"$loki":30},{"_id":"5c3d65bd3525a329e0c1055d","address":"1685 Collins Ave","location":{"type":"Point","coordinates":[-80.142902,25.7934099]},"isApproved":true,"items":[],"keys":["Sushi Bars"],"lastUpdated":1547527612618,"name":"Umi Sushi & Sake Bar","phone":"(305) 674-5752","price":"$$$","reviewCount":31,"reviewScore":4.5,"meta":{"revision":0,"created":1547531156964,"version":0},"$loki":31},{"_id":"5c3d65bd3525a329e0c110bf","address":"140 NE 39th St","location":{"type":"Point","coordinates":[-80.142902,25.7934098]},"isApproved":true,"items":[],"keys":["Sushi Bars","Japanese","Peruvian"],"lastUpdated":1547527612641,"name":"ITAMAE","phone":"","price":"$$","reviewCount":34,"reviewScore":5,"meta":{"revision":0,"created":1547531156964,"version":0},"$loki":32},{"_id":"5c3d65bd3525a329e0c0a670","address":"701 S Miami Ave","location":{"type":"Point","coordinates":[-80.140889,25.795297]},"isApproved":true,"items":[],"keys":["Cinema","American (Traditional)","Bars"],"lastUpdated":1547527612481,"name":"CMX Cinemas Brickell Dine-In","phone":"(786) 329-4543","price":"","reviewCount":247,"reviewScore":3,"meta":{"revision":0,"created":1547531156964,"version":0},"$loki":33},{"_id":"5c3d65bd3525a329e0c0db41","address":"NE 4th Ct","location":{"type":"Point","coordinates":[-80.1358842997236,25.7956272665717]},"isApproved":true,"items":[],"keys":["Barbeque","Caterers"],"lastUpdated":1547527612556,"name":"James BBQ","phone":"(786) 493-0941","price":"$$","reviewCount":3,"reviewScore":5,"meta":{"revision":0,"created":1547531156964,"version":0},"$loki":34},{"_id":"5c3d65bd3525a329e0c1a9d7","address":"70 SW 7th St","location":{"type":"Point","coordinates":[-80.1358146,25.7923106]},"isApproved":true,"items":[],"keys":["Italian","Mediterranean"],"lastUpdated":1547527612868,"name":"Casa Tua Cucina","phone":"(305) 755-0320","price":"$$","reviewCount":188,"reviewScore":4,"meta":{"revision":0,"created":1547531156964,"version":0},"$loki":35},{"_id":"5c3d65bd3525a329e0c11e06","address":"551 Lincoln Rd","location":{"type":"Point","coordinates":[-80.1339607629667,25.791019911613]},"isApproved":true,"items":[],"keys":["Spanish","Salad","Seafood"],"lastUpdated":1547527612661,"name":"Tapelia","phone":"(786) 522-0623","price":"$$","reviewCount":234,"reviewScore":3,"meta":{"revision":0,"created":1547531156964,"version":0},"$loki":36},{"_id":"5c3d65bd3525a329e0c18630","address":"1116 Lincoln Rd","location":{"type":"Point","coordinates":[-80.1344352,25.790566]},"isApproved":true,"items":[],"keys":["Argentine","Steakhouses"],"lastUpdated":1547527612815,"name":"Baires Grill","phone":"(305) 538-1116","price":"$$$","reviewCount":228,"reviewScore":4,"meta":{"revision":0,"created":1547531156964,"version":0},"$loki":37},{"_id":"5c3d65bd3525a329e0c0163c","address":"140 NE 39th St","location":{"type":"Point","coordinates":[-80.1328440761143,25.790668220385]},"isApproved":true,"items":[],"keys":["Tacos","Seafood"],"lastUpdated":1547527612250,"name":"HotLime Craft Tacos & Ceviches","phone":"(786) 444-9115","price":"","reviewCount":4,"reviewScore":4,"meta":{"revision":0,"created":1547531156964,"version":0},"$loki":38},{"_id":"5c3d65bd3525a329e0c15ddb","address":"1490 NW 3rd Ave","location":{"type":"Point","coordinates":[-80.1329570263624,25.7904855900547]},"isApproved":true,"items":[],"keys":["Burgers","Sandwiches","Fast Food"],"lastUpdated":1547527612755,"name":"Two Guys Restaurant","phone":"(305) 374-1141","price":"$$","reviewCount":3,"reviewScore":4.5,"meta":{"revision":0,"created":1547531156964,"version":0},"$loki":39},{"_id":"5c3d65bd3525a329e0c17187","address":"1501 Collins Ave","location":{"type":"Point","coordinates":[-80.1319341,25.7893628]},"isApproved":true,"items":[],"keys":["Mexican","Sports Bars"],"lastUpdated":1547527612782,"name":"Tequila Chica’s","phone":"(305) 531-7010","price":"$$","reviewCount":245,"reviewScore":2.5,"meta":{"revision":0,"created":1547531156964,"version":0},"$loki":40},{"_id":"5c3d65bd3525a329e0c12050","address":"120 NW 24th St","location":{"type":"Point","coordinates":[-80.132021,25.788956]},"isApproved":true,"items":[],"keys":["Breweries","Sports Bars","Gastropubs"],"lastUpdated":1547527612663,"name":"J Wakefield Brewing","phone":"(786) 254-7779","price":"$$","reviewCount":295,"reviewScore":4.5,"meta":{"revision":0,"created":1547531156964,"version":0},"$loki":41},{"_id":"5c3d65bd3525a329e0c0ad07","address":"232 5th St","location":{"type":"Point","coordinates":[-80.132085,25.788254]},"isApproved":true,"items":[],"keys":["Sushi Bars","Asian Fusion","Poke"],"lastUpdated":1547527612490,"name":"Yugo Sushi Burritos and Poke","phone":"(305) 533-1288","price":"$$","reviewCount":378,"reviewScore":4,"meta":{"revision":0,"created":1547531156964,"version":0},"$loki":42},{"_id":"5c3d65bd3525a329e0c0aa57","address":"732 41st St","location":{"type":"Point","coordinates":[-80.1348041276474,25.7908704189797]},"isApproved":true,"items":[],"keys":["Wine Bars","Italian"],"lastUpdated":1547527612488,"name":"Cafe Avanti Italian Restaurant","phone":"(305) 538-4400","price":"$$","reviewCount":148,"reviewScore":4,"meta":{"revision":0,"created":1547531156964,"version":0},"$loki":43},{"_id":"5c3d65bd3525a329e0c0875b","address":"209 11th St","location":{"type":"Point","coordinates":[-80.1348564,25.7909571]},"isApproved":true,"items":[],"keys":["Restaurants"],"lastUpdated":1547527612428,"name":"Fresco’s Restaurant","phone":"(305) 538-0019","price":"","reviewCount":1,"reviewScore":5,"meta":{"revision":0,"created":1547531156964,"version":0},"$loki":44},{"_id":"5c3d65bd3525a329e0c14ffd","address":"4600 NE 2nd Ave","location":{"type":"Point","coordinates":[-80.1354475,25.7907688]},"isApproved":true,"items":[],"keys":["Breakfast & Brunch","Vegetarian","Coffee & Tea"],"lastUpdated":1547527612736,"name":"Lemoni Cafe","phone":"(305) 571-5080","price":"$$","reviewCount":419,"reviewScore":4,"meta":{"revision":0,"created":1547531156964,"version":0},"$loki":45},{"_id":"5c3d65bd3525a329e0c0409a","address":"2022 NW 1st Ct","location":{"type":"Point","coordinates":[-80.1354846,25.7904634]},"isApproved":true,"items":[],"keys":["Diners","Venues & Event Spaces"],"lastUpdated":1547527612320,"name":"Miami Supercar Rooms","phone":"(305) 363-2020","price":"$$$$","reviewCount":6,"reviewScore":4,"meta":{"revision":0,"created":1547531156964,"version":0},"$loki":46},{"_id":"5c3d65bd3525a329e0c160d4","address":"1035 West Ave","location":{"type":"Point","coordinates":[-80.1361747,25.7907304]},"isApproved":true,"items":[],"keys":["Brazilian"],"lastUpdated":1547527612757,"name":"Boteco","phone":"","price":"","reviewCount":1,"reviewScore":5,"meta":{"revision":0,"created":1547531156964,"version":0},"$loki":47},{"_id":"5c3d65bd3525a329e0c050f1","address":"1250 Ocean Dr","location":{"type":"Point","coordinates":[-80.1359728093168,25.7907078060969]},"isApproved":true,"items":[],"keys":["American (Traditional)"],"lastUpdated":1547527612340,"name":"The Carlyle Cafe","phone":"(305) 531-3238","price":"$$","reviewCount":448,"reviewScore":2,"meta":{"revision":0,"created":1547531156964,"version":0},"$loki":48},{"_id":"5c3d65bd3525a329e0c05420","address":"809 Lincoln Rd","location":{"type":"Point","coordinates":[-80.136801,25.790747]},"isApproved":true,"items":[],"keys":["Argentine","American (Traditional)","Tapas Bars"],"lastUpdated":1547527612347,"name":"Maya’s Grill","phone":"(305) 538-0058","price":"$$","reviewCount":571,"reviewScore":3,"meta":{"revision":0,"created":1547531156964,"version":0},"$loki":49},{"_id":"5c3d65bd3525a329e0c089bb","address":"4041 Collins Ave","location":{"type":"Point","coordinates":[-80.136886,25.79085]},"isApproved":true,"items":[],"keys":["Southern","American (New)","Comfort Food"],"lastUpdated":1547527612429,"name":"Bird & Bone","phone":"(305) 424-1234","price":"$$","reviewCount":246,"reviewScore":4,"meta":{"revision":0,"created":1547531156964,"version":0},"$loki":50},{"_id":"5c3d65bd3525a329e0c0c5b1","address":"336 21st St","location":{"type":"Point","coordinates":[-80.1372321,25.7902794]},"isApproved":true,"items":[],"keys":["Japanese","Sushi Bars","Cocktail Bars"],"lastUpdated":1547527612524,"name":"Blue Ribbon Sushi Bar & Grill - South Beach","phone":"(305) 800-0404","price":"$$$","reviewCount":105,"reviewScore":4.5,"meta":{"revision":0,"created":1547531156964,"version":0},"$loki":51},{"_id":"5c3d65bd3525a329e0c084cf","address":"1104 Lincoln Rd","location":{"type":"Point","coordinates":[-80.139376,25.7902522]},"isApproved":true,"items":[],"keys":["Sushi Bars"],"lastUpdated":1547527612426,"name":"Doraku Sushi","phone":"(305) 695-8383","price":"$$","reviewCount":950,"reviewScore":4,"meta":{"revision":0,"created":1547531156964,"version":0},"$loki":52},{"_id":"5c3d65bd3525a329e0c062af","address":"1144 Ocean Dr","location":{"type":"Point","coordinates":[-80.1397212,25.7903017]},"isApproved":true,"items":[],"keys":["Mexican","Cocktail Bars","Sandwiches"],"lastUpdated":1547527612369,"name":"Down N Dirty Tacos and Tequila Bar","phone":"(305) 535-3500","price":"$$","reviewCount":151,"reviewScore":2.5,"meta":{"revision":0,"created":1547531156964,"version":0},"$loki":53},{"_id":"5c3d65bd3525a329e0c19606","address":"3201 Collins Ave","location":{"type":"Point","coordinates":[-80.1400065422058,25.7908979568949]},"isApproved":true,"items":[],"keys":["Breakfast & Brunch","Diners","Coffee & Tea"],"lastUpdated":1547527612841,"name":"Veranda","phone":"(786) 655-5600","price":"","reviewCount":6,"reviewScore":4.5,"meta":{"revision":0,"created":1547531156964,"version":0},"$loki":54},{"_id":"5c3d65bd3525a329e0c12d96","address":"901 Brickell Plz","location":{"type":"Point","coordinates":[-80.138311,25.790858]},"isApproved":true,"items":[],"keys":["Burgers","Latin American","Breakfast & Brunch"],"lastUpdated":1547527612681,"name":"Pepito’s Plaza Brickell","phone":"(305) 456-3742","price":"$$","reviewCount":38,"reviewScore":4,"meta":{"revision":0,"created":1547531156964,"version":0},"$loki":55},{"_id":"5c3d65bd3525a329e0c08765","address":"915 Lincoln Rd","location":{"type":"Point","coordinates":[-80.1379889,25.7907045]},"isApproved":true,"items":[],"keys":["Steakhouses"],"lastUpdated":1547527612428,"name":"Meat Market","phone":"(305) 532-0088","price":"$$$","reviewCount":615,"reviewScore":4,"meta":{"revision":0,"created":1547531156964,"version":0},"$loki":56},{"_id":"5c3d65bd3525a329e0c05c27","address":"927 Lincoln Rd","location":{"type":"Point","coordinates":[-80.1383399658653,25.7906072169159]},"isApproved":true,"items":[],"keys":["American (New)","Cafes"],"lastUpdated":1547527612356,"name":"The Café at Books & Books","phone":"(305) 695-8898","price":"$$","reviewCount":255,"reviewScore":4,"meta":{"revision":0,"created":1547531156964,"version":0},"$loki":57},{"_id":"5c3d65bd3525a329e0c0fce7","address":"942 Lincoln Rd","location":{"type":"Point","coordinates":[-80.138664210693,25.790388041612]},"isApproved":true,"items":[],"keys":["American (New)","Pubs","Beer, Wine & Spirits"],"lastUpdated":1547527612607,"name":"Finnegan’s Road","phone":"(305) 538-7997","price":"$$","reviewCount":172,"reviewScore":2.5,"meta":{"revision":0,"created":1547531156964,"version":0},"$loki":58},{"_id":"5c3d65bd3525a329e0c156ce","address":"1534 Alton Rd","location":{"type":"Point","coordinates":[-80.1382282,25.7901506]},"isApproved":true,"items":[],"keys":["Juice Bars & Smoothies","Salad","Breakfast & Brunch"],"lastUpdated":1547527612746,"name":"Apple A Day Cafe","phone":"(305) 538-4569","price":"$$","reviewCount":261,"reviewScore":4,"meta":{"revision":0,"created":1547531156964,"version":0},"$loki":59},{"_id":"5c3d65bd3525a329e0c1af51","address":"638 S Miami Ave","location":{"type":"Point","coordinates":[-80.137994,25.790283]},"isApproved":true,"items":[],"keys":["Sushi Bars","Thai","Japanese"],"lastUpdated":1547527612876,"name":"Bonding","phone":"(786) 409-4796","price":"$$","reviewCount":420,"reviewScore":4,"meta":{"revision":0,"created":1547531156964,"version":0},"$loki":60},{"_id":"5c3d65bd3525a329e0c10c70","address":"2341 Collins Ave","location":{"type":"Point","coordinates":[-80.1390831,25.7917344]},"isApproved":true,"items":[],"keys":["Sushi Bars","American (New)","Sandwiches"],"lastUpdated":1547527612633,"name":"The SandBox","phone":"(305) 604-1000","price":"$$$$","reviewCount":80,"reviewScore":3.5,"meta":{"revision":0,"created":1547531156964,"version":0},"$loki":61},{"_id":"5c3d65bd3525a329e0c09cfb","address":"35 NE 26th St","location":{"type":"Point","coordinates":[-80.13966,25.791581]},"isApproved":true,"items":[],"keys":["Italian","Seafood"],"lastUpdated":1547527612465,"name":"Dōma","phone":"(786) 953-6946","price":"","reviewCount":14,"reviewScore":4.5,"meta":{"revision":0,"created":1547531156964,"version":0},"$loki":62},{"_id":"5c3d65bd3525a329e0bff997","address":"1448 Washington Ave","location":{"type":"Point","coordinates":[-80.1409037,25.7929483]},"isApproved":true,"items":[],"keys":["Sushi Bars","Japanese"],"lastUpdated":1547527612219,"name":"Moshi Moshi","phone":"(305) 531-4520","price":"$$","reviewCount":648,"reviewScore":4,"meta":{"revision":0,"created":1547531156964,"version":0},"$loki":63},{"_id":"5c3d65bd3525a329e0c0770c","address":"63 NW 9th St","location":{"type":"Point","coordinates":[-80.140918,25.79319]},"isApproved":true,"items":[],"keys":["Cafes","Salad","Soup"],"lastUpdated":1547527612402,"name":"Mina Bistro","phone":"(305) 381-5624","price":"$","reviewCount":54,"reviewScore":4.5,"meta":{"revision":0,"created":1547531156964,"version":0},"$loki":64},{"_id":"5c3d65bd3525a329e0c02cd6","address":"1111 Collins Ave","location":{"type":"Point","coordinates":[-80.1422583,25.7906464]},"isApproved":true,"items":[],"keys":["Mexican","Breakfast & Brunch","Cocktail Bars"],"lastUpdated":1547527612293,"name":"Naked Taco","phone":"(305) 534-8455","price":"$$","reviewCount":1188,"reviewScore":4,"meta":{"revision":0,"created":1547531156964,"version":0},"$loki":65},{"_id":"5c3d65bd3525a329e0c0b6d3","address":"1229 Lincoln Rd","location":{"type":"Point","coordinates":[-80.1420021,25.7906171]},"isApproved":true,"items":[],"keys":["Argentine","Tapas/Small Plates","Breakfast & Brunch"],"lastUpdated":1547527612500,"name":"Panizza Bistro","phone":"(305) 695-8800","price":"$$","reviewCount":135,"reviewScore":4,"meta":{"revision":0,"created":1547531156964,"version":0},"$loki":66},{"_id":"5c3d65bd3525a329e0c0f1ae","address":"","location":{"type":"Point","coordinates":[-80.140154,25.7912697]},"isApproved":true,"items":[],"keys":["Food Trucks","Puerto Rican","Sandwiches"],"lastUpdated":1547527612591,"name":"El Rincon del Coqui - Food Truck","phone":"(305) 724-3917","price":"$","reviewCount":38,"reviewScore":4.5,"meta":{"revision":0,"created":1547531156964,"version":0},"$loki":67},{"_id":"5c3d65bd3525a329e0c05209","address":"1664 Lenox Ave","location":{"type":"Point","coordinates":[-80.1402441,25.7911509]},"isApproved":true,"items":[],"keys":["Japanese","Peruvian"],"lastUpdated":1547527612346,"name":"Chotto Matte","phone":"(305) 690-0743","price":"$$","reviewCount":103,"reviewScore":3.5,"meta":{"revision":0,"created":1547531156964,"version":0},"$loki":68},{"_id":"5c3d65bd3525a329e0c02666","address":"1111 Lincoln Rd","location":{"type":"Point","coordinates":[-80.140362,25.79068]},"isApproved":true,"items":[],"keys":["Asian Fusion","French"],"lastUpdated":1547527612284,"name":"Juvia","phone":"(305) 763-8272","price":"$$$$","reviewCount":947,"reviewScore":3.5,"meta":{"revision":0,"created":1547531156964,"version":0},"$loki":69},{"_id":"5c3d65bd3525a329e0c1b142","address":"157 Collins Ave","location":{"type":"Point","coordinates":[-80.1403828271389,25.7903667987927]},"isApproved":true,"items":[],"keys":["Pizza","Diners"],"lastUpdated":1547527612877,"name":"Big Pink","phone":"(305) 532-4700","price":"$$","reviewCount":1618,"reviewScore":3.5,"meta":{"revision":0,"created":1547531156964,"version":0},"$loki":70},{"_id":"5c3d65bd3525a329e0c11a1a","address":"1035 N Miami Ave","location":{"type":"Point","coordinates":[-80.1407099630432,25.790233783424]},"isApproved":true,"items":[],"keys":["Cocktail Bars","Beer Bar","Sandwiches"],"lastUpdated":1547527612651,"name":"The Corner","phone":"(305) 961-7887","price":"$$","reviewCount":230,"reviewScore":4,"meta":{"revision":0,"created":1547531156964,"version":0},"$loki":71},{"_id":"5c3d65bd3525a329e0bff4ad","address":"139 NE 3rd Ave","location":{"type":"Point","coordinates":[-80.1409972711639,25.7907879210589]},"isApproved":true,"items":[],"keys":["Italian"],"lastUpdated":1547527612216,"name":"u’ Mast","phone":"(305) 305-9210","price":"$$","reviewCount":74,"reviewScore":4.5,"meta":{"revision":0,"created":1547531156964,"version":0},"$loki":72},{"_id":"5c3d65bd3525a329e0c0ca41","address":"850 Commerce St","location":{"type":"Point","coordinates":[-80.1411676034331,25.790187332617]},"isApproved":true,"items":[],"keys":["Vegan","Vegetarian","Breakfast & Brunch"],"lastUpdated":1547527612532,"name":"Planta South Beach","phone":"(305) 397-8513","price":"$$$","reviewCount":262,"reviewScore":4,"meta":{"revision":0,"created":1547531156964,"version":0},"$loki":73},{"_id":"5c3d65bd3525a329e0c0851f","address":"106 E Pembroke Rd","location":{"type":"Point","coordinates":[-80.1400841558197,25.7890458685996]},"isApproved":true,"items":[],"keys":["Pool Halls","Restaurants","Bowling"],"lastUpdated":1547527612427,"name":"Holiday Bowling Center","phone":"(954) 458-3111","price":"$","reviewCount":81,"reviewScore":4,"meta":{"revision":0,"created":1547531156964,"version":0},"$loki":74},{"_id":"5c3d65bd3525a329e0c0615f","address":"940 Ocean Dr","location":{"type":"Point","coordinates":[-80.140366,25.7889726]},"isApproved":true,"items":[],"keys":["Cuban","Latin American"],"lastUpdated":1547527612368,"name":"Havana 1957 Cuban Cuisine Breakwater Hotel","phone":"(305) 534-3589","price":"","reviewCount":4,"reviewScore":2.5,"meta":{"revision":0,"created":1547531156964,"version":0},"$loki":75},{"_id":"5c3d65bd3525a329e0c03139","address":"1220 16th St","location":{"type":"Point","coordinates":[-80.1416061,25.7886732]},"isApproved":true,"items":[],"keys":["Bars","Tacos"],"lastUpdated":1547527612296,"name":"Bodega","phone":"(305) 704-2145","price":"$$","reviewCount":1564,"reviewScore":4,"meta":{"revision":0,"created":1547531156964,"version":0},"$loki":76},{"_id":"5c3d65bd3525a329e0bff83f","address":"1542 Alton Rd","location":{"type":"Point","coordinates":[-80.1416753,25.7880449]},"isApproved":true,"items":[],"keys":["American (New)","Sandwiches","Seafood"],"lastUpdated":1547527612218,"name":"Jimmy’z Kitchen","phone":"(305) 534-8216","price":"$$","reviewCount":276,"reviewScore":4,"meta":{"revision":0,"created":1547531156964,"version":0},"$loki":77},{"_id":"5c3d65bd3525a329e0c0c318","address":"944 Washington Ave","location":{"type":"Point","coordinates":[-80.1414825278946,25.7879311659816]},"isApproved":true,"items":[],"keys":["Breakfast & Brunch","American (Traditional)","Diners"],"lastUpdated":1547527612518,"name":"Alex’s Kitchen","phone":"(786) 320-0328","price":"$","reviewCount":7,"reviewScore":3,"meta":{"revision":0,"created":1547531156964,"version":0},"$loki":78},{"_id":"5c3d65bd3525a329e0c03bea","address":"1427 West Ave","location":{"type":"Point","coordinates":[-80.1420079,25.7861449]},"isApproved":true,"items":[],"keys":["American (New)"],"lastUpdated":1547527612312,"name":"Barton G. The Restaurant","phone":"(305) 672-8881","price":"$$$$","reviewCount":1087,"reviewScore":3.5,"meta":{"revision":0,"created":1547531156964,"version":0},"$loki":79},{"_id":"5c3d65bd3525a329e0c17e2c","address":"1180 S America Way","location":{"type":"Point","coordinates":[-80.1408939,25.7865319]},"isApproved":true,"items":[],"keys":["Cafes","American (Traditional)"],"lastUpdated":1547527612801,"name":"Seaman’s Cafe","phone":"(305) 374-4722","price":"$","reviewCount":6,"reviewScore":3,"meta":{"revision":0,"created":1547531156964,"version":0},"$loki":80},{"_id":"5c3d65bd3525a329e0c18d2a","address":"1211 Lincoln Rd","location":{"type":"Point","coordinates":[-80.1413483,25.7861161]},"isApproved":true,"items":[],"keys":["Mexican","Tex-Mex"],"lastUpdated":1547527612825,"name":"Huahua’s Taqueria","phone":"(305) 534-8226","price":"$$","reviewCount":701,"reviewScore":4,"meta":{"revision":0,"created":1547531156964,"version":0},"$loki":81},{"_id":"5c3d65bd3525a329e0c119c8","address":"560 Washington Ave","location":{"type":"Point","coordinates":[-80.1406559,25.7864616]},"isApproved":true,"items":[],"keys":["Mediterranean","Turkish"],"lastUpdated":1547527612651,"name":"Babylon Mediterranean Kitchen & Bar","phone":"(786) 216-7230","price":"$$","reviewCount":428,"reviewScore":4.5,"meta":{"revision":0,"created":1547531156964,"version":0},"$loki":82},{"_id":"5c3d65bd3525a329e0c0d218","address":"1427 Alton Rd","location":{"type":"Point","coordinates":[-80.1403506,25.7872213]},"isApproved":true,"items":[],"keys":["Chicken Shop","American (Traditional)"],"lastUpdated":1547527612545,"name":"Whichicken Rotisserie","phone":"(786) 620-2295","price":"","reviewCount":3,"reviewScore":5,"meta":{"revision":0,"created":1547531156964,"version":0},"$loki":83},{"_id":"5c3d65bd3525a329e0c0234e","address":"1540 Alton Rd","location":{"type":"Point","coordinates":[-80.141178,25.788251]},"isApproved":true,"items":[],"keys":["Chinese"],"lastUpdated":1547527612276,"name":"China Moon","phone":"(305) 532-8758","price":"$$","reviewCount":46,"reviewScore":3,"meta":{"revision":0,"created":1547531156964,"version":0},"$loki":84},{"_id":"5c3d65bd3525a329e0c199d9","address":"700 Ocean Dr","location":{"type":"Point","coordinates":[-80.1413973,25.7886648]},"isApproved":true,"items":[],"keys":["Cafes","Breakfast & Brunch","Cocktail Bars"],"lastUpdated":1547527612848,"name":"Craft Cafe","phone":"(305) 531-1667","price":"$$","reviewCount":23,"reviewScore":4,"meta":{"revision":0,"created":1547531156964,"version":0},"$loki":85},{"_id":"5c3d65bd3525a329e0c0d293","address":"31 SE 5th St","location":{"type":"Point","coordinates":[-80.1412831857389,25.7844497366387]},"isApproved":true,"items":[],"keys":["Colombian","American (New)","Desserts"],"lastUpdated":1547527612545,"name":"El Cielo by Juan Manuel Barrientos","phone":"(305) 755-8840","price":"$$$$","reviewCount":143,"reviewScore":4,"meta":{"revision":0,"created":1547531156964,"version":0},"$loki":86},{"_id":"5c3d65bd3525a329e0c05d68","address":"2500 Biscayne Blvd","location":{"type":"Point","coordinates":[-80.1412791,25.7845794]},"isApproved":true,"items":[],"keys":["Mediterranean"],"lastUpdated":1547527612361,"name":"Rice Mediterranean Kitchen","phone":"(305) 705-6090","price":"","reviewCount":7,"reviewScore":4.5,"meta":{"revision":0,"created":1547531156964,"version":0},"$loki":87},{"_id":"5c3d65bd3525a329e0c17bab","address":"2201 Collins Ave","location":{"type":"Point","coordinates":[-80.1418771,25.7836202]},"isApproved":true,"items":[],"keys":["Chinese"],"lastUpdated":1547527612800,"name":"Mr. Chow","phone":"(305) 695-1695","price":"$$$$","reviewCount":500,"reviewScore":2.5,"meta":{"revision":0,"created":1547531156964,"version":0},"$loki":88},{"_id":"5c3d65bd3525a329e0c103db","address":"1100 West Ave","location":{"type":"Point","coordinates":[-80.1428147,25.7817857]},"isApproved":true,"items":[],"keys":["American (New)","Breakfast & Brunch","Cafes"],"lastUpdated":1547527612617,"name":"Mondrian Caffè","phone":"(305) 514-1940","price":"$$","reviewCount":24,"reviewScore":2.5,"meta":{"revision":0,"created":1547531156964,"version":0},"$loki":89},{"_id":"5c3d65bd3525a329e0c06ece","address":"21 NW Miami Ct","location":{"type":"Point","coordinates":[-80.1423353,25.7821541]},"isApproved":true,"items":[],"keys":["French","Sandwiches","Breakfast & Brunch"],"lastUpdated":1547527612388,"name":"Cane A Sucre","phone":"(305) 377-4722","price":"$$","reviewCount":79,"reviewScore":4,"meta":{"revision":0,"created":1547531156964,"version":0},"$loki":90},{"_id":"5c3d65bd3525a329e0c0b76b","address":"1080 Alton Rd","location":{"type":"Point","coordinates":[-80.1412356,25.7815874]},"isApproved":true,"items":[],"keys":["Asian Fusion","Dim Sum","Japanese"],"lastUpdated":1547527612505,"name":"Tanuki","phone":"(305) 615-1055","price":"$$$","reviewCount":266,"reviewScore":4,"meta":{"revision":0,"created":1547531156964,"version":0},"$loki":91},{"_id":"5c3d65bd3525a329e0c0e23b","address":"1930 Bay Rd","location":{"type":"Point","coordinates":[-80.1412338,25.7813106]},"isApproved":true,"items":[],"keys":["Italian","Pizza"],"lastUpdated":1547527612565,"name":"Lucali","phone":"(305) 695-4441","price":"$$","reviewCount":431,"reviewScore":4,"meta":{"revision":0,"created":1547531156964,"version":0},"$loki":92},{"_id":"5c3d65bd3525a329e0c0ab0e","address":"2407 NW 2nd Ave","location":{"type":"Point","coordinates":[-80.1418553,25.781263]},"isApproved":true,"items":[],"keys":["Food Trucks","Mexican"],"lastUpdated":1547527612489,"name":"Twice Butter","phone":"(305) 776-0079","price":"$$","reviewCount":31,"reviewScore":5,"meta":{"revision":0,"created":1547531156964,"version":0},"$loki":93},{"_id":"5c3d65bd3525a329e0c06ba3","address":"4740 NE 2nd Ave","location":{"type":"Point","coordinates":[-80.142612978816,25.7794999838298]},"isApproved":true,"items":[],"keys":["Asian Fusion","Sushi Bars","Japanese"],"lastUpdated":1547527612385,"name":"Shokudo","phone":"(305) 758-7782","price":"$$","reviewCount":273,"reviewScore":4,"meta":{"revision":0,"created":1547531156964,"version":0},"$loki":94},{"_id":"5c3d65bd3525a329e0c066de","address":"3470 N Miami Ave","location":{"type":"Point","coordinates":[-80.1417244,25.7798361]},"isApproved":true,"items":[],"keys":["Breakfast & Brunch","American (New)"],"lastUpdated":1547527612378,"name":"Mason Eatery","phone":"(786) 618-5150","price":"$$","reviewCount":82,"reviewScore":4.5,"meta":{"revision":0,"created":1547531156964,"version":0},"$loki":95},{"_id":"5c3d65bd3525a329e0c01353","address":"432 W 41st St","location":{"type":"Point","coordinates":[-80.1419289681229,25.7794062163974]},"isApproved":true,"items":[],"keys":["American (Traditional)","Wine Bars"],"lastUpdated":1547527612248,"name":"The Forge","phone":"(305) 538-8533","price":"$$$$","reviewCount":760,"reviewScore":4,"meta":{"revision":0,"created":1547531156964,"version":0},"$loki":96},{"_id":"5c3d65bd3525a329e0c03c89","address":"820 Alton Rd","location":{"type":"Point","coordinates":[-80.1412243,25.778578]},"isApproved":true,"items":[],"keys":["Italian","Cocktail Bars"],"lastUpdated":1547527612312,"name":"Macchialina Taverna Rustica","phone":"(305) 534-2124","price":"$$$","reviewCount":437,"reviewScore":4,"meta":{"revision":0,"created":1547531156964,"version":0},"$loki":97},{"_id":"5c3d65bd3525a329e0c17f36","address":"1701 Collins Ave","location":{"type":"Point","coordinates":[-80.1412359748863,25.7793806020434]},"isApproved":true,"items":[],"keys":["Pubs","Dance Clubs","Delis"],"lastUpdated":1547527612802,"name":"SLS Miami Pool Party","phone":"(305) 902-4734","price":"","reviewCount":1,"reviewScore":5,"meta":{"revision":0,"created":1547531156964,"version":0},"$loki":98},{"_id":"5c3d65bd3525a329e0c0f469","address":"926 Alton Rd","location":{"type":"Point","coordinates":[-80.1410321,25.77978]},"isApproved":true,"items":[],"keys":["Salad","Empanadas"],"lastUpdated":1547527612592,"name":"GoGo Fresh Food","phone":"(305) 673-3137","price":"$","reviewCount":526,"reviewScore":4.5,"meta":{"revision":0,"created":1547531156964,"version":0},"$loki":99},{"_id":"5c3d65bd3525a329e0c16429","address":"401 Biscayne Blvd","location":{"type":"Point","coordinates":[-80.1406547600071,25.7794217368869]},"isApproved":true,"items":[],"keys":["Seafood","Southern","American (Traditional)"],"lastUpdated":1547527612764,"name":"Bubba Gump Shrimp","phone":"(305) 379-8866","price":"$$","reviewCount":330,"reviewScore":3,"meta":{"revision":0,"created":1547531156964,"version":0},"$loki":100},{"_id":"5c3d65bd3525a329e0c0e796","address":"232 12th St","location":{"type":"Point","coordinates":[-80.1372594,25.7770406]},"isApproved":true,"items":[],"keys":["Indian"],"lastUpdated":1547527612574,"name":"Bombay Grill","phone":"(305) 534-3996","price":"$$","reviewCount":134,"reviewScore":3,"meta":{"revision":0,"created":1547531156964,"version":0},"$loki":101},{"_id":"5c3d65bd3525a329e0c1b461","address":"764 Washington Ave","location":{"type":"Point","coordinates":[-80.1335049,25.778307]},"isApproved":true,"items":[],"keys":["Burgers","American (New)","Diners"],"lastUpdated":1547527612885,"name":"Top Burger","phone":"(305) 763-8336","price":"$","reviewCount":231,"reviewScore":3.5,"meta":{"revision":0,"created":1547531156964,"version":0},"$loki":102},{"_id":"5c3d65bd3525a329e0c07cf5","address":"751 Washington Ave","location":{"type":"Point","coordinates":[-80.1331629,25.7780791]},"isApproved":true,"items":[],"keys":["Mediterranean","Halal","Lebanese"],"lastUpdated":1547527612411,"name":"Habibi Diner","phone":"(305) 535-1339","price":"$$","reviewCount":180,"reviewScore":4,"meta":{"revision":0,"created":1547531156964,"version":0},"$loki":103},{"_id":"5c3d65bd3525a329e0bff81d","address":"123 SE  2nd Ave","location":{"type":"Point","coordinates":[-80.1337324533729,25.7779222306573]},"isApproved":true,"items":[],"keys":["Cafes","Sandwiches"],"lastUpdated":1547527612218,"name":"Sette Cafe","phone":"(305) 908-2929","price":"$$","reviewCount":78,"reviewScore":4,"meta":{"revision":0,"created":1547531156964,"version":0},"$loki":104},{"_id":"5c3d65bd3525a329e0c18251","address":"860 Collins Ave","location":{"type":"Point","coordinates":[-80.133675,25.777484]},"isApproved":true,"items":[],"keys":["Sandwiches","American (New)","Breakfast & Brunch"],"lastUpdated":1547527612809,"name":"Bacon Bitch","phone":"(305) 900-7371","price":"$$","reviewCount":337,"reviewScore":4,"meta":{"revision":0,"created":1547531156964,"version":0},"$loki":105},{"_id":"5c3d65bd3525a329e0c0aa49","address":"56 NW 29th St","location":{"type":"Point","coordinates":[-80.1336433,25.7776363]},"isApproved":true,"items":[],"keys":["Food Trucks","Mexican"],"lastUpdated":1547527612488,"name":"The Lone Wolfe - Food Truck","phone":"(814) 882-7224","price":"$","reviewCount":32,"reviewScore":4.5,"meta":{"revision":0,"created":1547531156964,"version":0},"$loki":106},{"_id":"5c3d65bd3525a329e0c0c0d9","address":"710 Washington Ave","location":{"type":"Point","coordinates":[-80.1336433,25.7776363]},"isApproved":true,"items":[],"keys":["Caribbean","Lounges"],"lastUpdated":1547527612516,"name":"Choka’s Caribbean Restaurant & Lounge","phone":"(305) 432-7477","price":"$$","reviewCount":103,"reviewScore":3.5,"meta":{"revision":0,"created":1547531156964,"version":0},"$loki":107},{"_id":"5c3d65bd3525a329e0c14db7","address":"710 Washington Ave","location":{"type":"Point","coordinates":[-80.1336433,25.7776363]},"isApproved":true,"items":[],"keys":["Burgers","Gelato","Sandwiches"],"lastUpdated":1547527612730,"name":"Gusto Giusto","phone":"(305) 397-8937","price":"$","reviewCount":1,"reviewScore":5,"meta":{"revision":0,"created":1547531156964,"version":0},"$loki":108},{"_id":"5c3d65bd3525a329e0c0ed24","address":"927 Lincoln Rd","location":{"type":"Point","coordinates":[-80.13357,25.77785]},"isApproved":true,"items":[],"keys":["Breakfast & Brunch","American (New)","Gastropubs"],"lastUpdated":1547527612582,"name":"Aura at Books and Books","phone":"(305) 695-8898","price":"","reviewCount":4,"reviewScore":2.5,"meta":{"revision":0,"created":1547531156964,"version":0},"$loki":109},{"_id":"5c3d65bd3525a329e0c092da","address":"161 SE 1st","location":{"type":"Point","coordinates":[-80.1326741,25.7770929]},"isApproved":true,"items":[],"keys":["Poke","Hawaiian","Seafood"],"lastUpdated":1547527612452,"name":"Crazy Poke Downtown","phone":"","price":"","reviewCount":11,"reviewScore":4.5,"meta":{"revision":0,"created":1547531156964,"version":0},"$loki":110},{"_id":"5c3d65bd3525a329e0c056c4","address":"650 Ocean Dr","location":{"type":"Point","coordinates":[-80.1317999,25.7765207]},"isApproved":true,"items":[],"keys":["Restaurants"],"lastUpdated":1547527612348,"name":"Casa Blanca","phone":"(305) 532-1081","price":"","reviewCount":1,"reviewScore":4,"meta":{"revision":0,"created":1547531156964,"version":0},"$loki":111},{"_id":"5c3d65bd3525a329e0c0ef14","address":"660 Ocean Dr","location":{"type":"Point","coordinates":[-80.1317581,25.7766646]},"isApproved":true,"items":[],"keys":["American (New)"],"lastUpdated":1547527612583,"name":"On Ocean 7 Cafe","phone":"(305) 455-3270","price":"$$","reviewCount":190,"reviewScore":2.5,"meta":{"revision":0,"created":1547531156964,"version":0},"$loki":112},{"_id":"5c3d65bd3525a329e0c0fa0d","address":"1423 Washington Ave","location":{"type":"Point","coordinates":[-80.1318235,25.7770121]},"isApproved":true,"items":[],"keys":["Themed Cafes"],"lastUpdated":1547527612601,"name":"Cat Cafe","phone":"","price":"","reviewCount":4,"reviewScore":5,"meta":{"revision":0,"created":1547531156964,"version":0},"$loki":113},{"_id":"5c3d65bd3525a329e0c1349a","address":"5650 NE 2nd Ave","location":{"type":"Point","coordinates":[-80.1318235,25.7770121]},"isApproved":true,"items":[],"keys":["Juice Bars & Smoothies","Burgers","Beer Bar"],"lastUpdated":1547527612690,"name":"Craft Food & Beer","phone":"(786) 391-1563","price":"$","reviewCount":58,"reviewScore":4.5,"meta":{"revision":0,"created":1547531156964,"version":0},"$loki":114},{"_id":"5c3d65bd3525a329e0c0ecf3","address":"1330 Ocean Dr","location":{"type":"Point","coordinates":[-80.1324996,25.7784533]},"isApproved":true,"items":[],"keys":["Seafood","Soul Food","Breakfast & Brunch"],"lastUpdated":1547527612582,"name":"The Venue","phone":"(305) 763-8347","price":"$$","reviewCount":2,"reviewScore":4.5,"meta":{"revision":0,"created":1547531156964,"version":0},"$loki":115},{"_id":"5c3d65bd3525a329e0c0e1ee","address":"825 A Washington Ave","location":{"type":"Point","coordinates":[-80.1330862379296,25.7786188428491]},"isApproved":true,"items":[],"keys":["Seafood","Poke","Beer Bar"],"lastUpdated":1547527612565,"name":"Plenty poke & crudo bar","phone":"(305) 763-8244","price":"$$","reviewCount":39,"reviewScore":4.5,"meta":{"revision":0,"created":1547531156964,"version":0},"$loki":116},{"_id":"5c3d65bd3525a329e0c054a7","address":"423 Washington Ave","location":{"type":"Point","coordinates":[-80.1330117,25.7788183]},"isApproved":true,"items":[],"keys":["Tapas Bars","Tapas/Small Plates","Spanish"],"lastUpdated":1547527612347,"name":"Vino Tinto","phone":"(305) 763-8126","price":"","reviewCount":10,"reviewScore":4,"meta":{"revision":0,"created":1547531156964,"version":0},"$loki":117},{"_id":"5c3d65bd3525a329e0c1a717","address":"281 S Pompano Pkwy","location":{"type":"Point","coordinates":[-80.132955,25.779154]},"isApproved":true,"items":[],"keys":["Performing Arts","Mediterranean","Middle Eastern"],"lastUpdated":1547527612866,"name":"La Vie Lebanese Restaurant","phone":"(954) 210-9818","price":"$$","reviewCount":597,"reviewScore":4.5,"meta":{"revision":0,"created":1547531156964,"version":0},"$loki":118},{"_id":"5c3d65bd3525a329e0c091b4","address":"1440 Washington Ave","location":{"type":"Point","coordinates":[-80.13286,25.7792268]},"isApproved":true,"items":[],"keys":["Mexican"],"lastUpdated":1547527612451,"name":"Oh! Mexico","phone":"(305) 532-0490","price":"$$","reviewCount":689,"reviewScore":3.5,"meta":{"revision":0,"created":1547531156964,"version":0},"$loki":119},{"_id":"5c3d65bd3525a329e0c161f5","address":"4312 NE 2nd Ave","location":{"type":"Point","coordinates":[-80.1323252,25.7792647]},"isApproved":true,"items":[],"keys":["Mediterranean","Greek","Turkish"],"lastUpdated":1547527612763,"name":"Mandolin Aegean Bistro","phone":"(305) 749-9140","price":"$$","reviewCount":1202,"reviewScore":4,"meta":{"revision":0,"created":1547531156964,"version":0},"$loki":120},{"_id":"5c3d65bd3525a329e0c1b304","address":"860 Collins Ave","location":{"type":"Point","coordinates":[-80.132100340029,25.7790894247467]},"isApproved":true,"items":[],"keys":["Breakfast & Brunch"],"lastUpdated":1547527612878,"name":"Bacon Bitch","phone":"(305) 432-7444","price":"","reviewCount":1,"reviewScore":5,"meta":{"revision":0,"created":1547531156964,"version":0},"$loki":121},{"_id":"5c3d65bd3525a329e0c0e078","address":"165 NW 23rd St","location":{"type":"Point","coordinates":[-80.1319667,25.7793516]},"isApproved":true,"items":[],"keys":["Butcher","Bars","American (New)"],"lastUpdated":1547527612564,"name":"The Butcher Shop","phone":"(305) 846-9120","price":"$$","reviewCount":876,"reviewScore":3.5,"meta":{"revision":0,"created":1547531156964,"version":0},"$loki":122},{"_id":"5c3d65bd3525a329e0c0648f","address":"714 NW 22nd St","location":{"type":"Point","coordinates":[-80.1319169998169,25.7800008474499]},"isApproved":true,"items":[],"keys":["Latin American"],"lastUpdated":1547527612371,"name":"El Cortijo Cafe","phone":"(305) 324-0707","price":"$","reviewCount":3,"reviewScore":4.5,"meta":{"revision":0,"created":1547531156964,"version":0},"$loki":123},{"_id":"5c3d65bd3525a329e0c0704c","address":"1359 Washington Ave","location":{"type":"Point","coordinates":[-80.1329218,25.7794348]},"isApproved":true,"items":[],"keys":["Fast Food"],"lastUpdated":1547527612389,"name":"Krispy Krunchy Chicken","phone":"(305) 538-8355","price":"$","reviewCount":95,"reviewScore":4,"meta":{"revision":0,"created":1547531156964,"version":0},"$loki":124},{"_id":"5c3d65bd3525a329e0c0d1ac","address":"127 SE 2nd Ave","location":{"type":"Point","coordinates":[-80.1333284,25.7802929]},"isApproved":true,"items":[],"keys":["Peruvian","Seafood"],"lastUpdated":1547527612545,"name":"La Granja","phone":"(305) 416-4142","price":"$$","reviewCount":232,"reviewScore":3.5,"meta":{"revision":0,"created":1547531156964,"version":0},"$loki":125},{"_id":"5c3d65bd3525a329e0c053a0","address":"40 South Pointe Dr","location":{"type":"Point","coordinates":[-80.1324961,25.7814582]},"isApproved":true,"items":[],"keys":["Seafood"],"lastUpdated":1547527612346,"name":"The Lobster Shack","phone":"(305) 763-8230","price":"$$","reviewCount":193,"reviewScore":4.5,"meta":{"revision":0,"created":1547531156964,"version":0},"$loki":126},{"_id":"5c3d65bd3525a329e0c0e088","address":"1058 Collins Ave","location":{"type":"Point","coordinates":[-80.1317363,25.7816718]},"isApproved":true,"items":[],"keys":["Cuban"],"lastUpdated":1547527612564,"name":"Abuela’s Cuban Kitchen","phone":"(786) 216-7756","price":"$$","reviewCount":44,"reviewScore":3.5,"meta":{"revision":0,"created":1547531156964,"version":0},"$loki":127},{"_id":"5c3d65bd3525a329e0c05386","address":"7601 Biscayne Blvd","location":{"type":"Point","coordinates":[-80.1322597,25.7817989]},"isApproved":true,"items":[],"keys":["Coffee & Tea","Wraps","Sandwiches"],"lastUpdated":1547527612346,"name":"La Social","phone":"(786) 542-5922","price":"$$","reviewCount":54,"reviewScore":4.5,"meta":{"revision":0,"created":1547531156964,"version":0},"$loki":128},{"_id":"5c3d65bd3525a329e0c07bc7","address":"97 NW 25th St","location":{"type":"Point","coordinates":[-80.1318087,25.7819872]},"isApproved":true,"items":[],"keys":["Italian","Pizza"],"lastUpdated":1547527612410,"name":"Baccano","phone":"(305) 857-5722","price":"$$","reviewCount":207,"reviewScore":4,"meta":{"revision":0,"created":1547531156964,"version":0},"$loki":129},{"_id":"5c3d65bd3525a329e0c0572a","address":"2727 Indian Creek Dr","location":{"type":"Point","coordinates":[-80.1318167,25.7818776]},"isApproved":true,"items":[],"keys":["American (New)","Breakfast & Brunch","Cocktail Bars"],"lastUpdated":1547527612348,"name":"27 Restaurant & Bar","phone":"(786) 384-7720","price":"$$","reviewCount":465,"reviewScore":4,"meta":{"revision":0,"created":1547531156964,"version":0},"$loki":130},{"_id":"5c3d65bd3525a329e0c068e2","address":"1137 Washington Ave","location":{"type":"Point","coordinates":[-80.131998,25.7825129]},"isApproved":true,"items":[],"keys":["Thai"],"lastUpdated":1547527612379,"name":"Thai House South Beach","phone":"(305) 531-4841","price":"$$","reviewCount":361,"reviewScore":3.5,"meta":{"revision":0,"created":1547531156964,"version":0},"$loki":131},{"_id":"5c3d65bd3525a329e0c1964a","address":"1850 Collins Ave","location":{"type":"Point","coordinates":[-80.1320339,25.782498]},"isApproved":true,"items":[],"keys":["Bars","Cuban","Cafes"],"lastUpdated":1547527612841,"name":"Moreno’s Cuba","phone":"(305) 497-2341","price":"$$","reviewCount":894,"reviewScore":4,"meta":{"revision":0,"created":1547531156964,"version":0},"$loki":132},{"_id":"5c3d65bd3525a329e0c15555","address":"5582 NE 4th Ct","location":{"type":"Point","coordinates":[-80.132029,25.7828464]},"isApproved":true,"items":[],"keys":["Restaurants","Lounges"],"lastUpdated":1547527612745,"name":"55th Street Station","phone":"(305) 759-8227","price":"","reviewCount":1,"reviewScore":5,"meta":{"revision":0,"created":1547531156964,"version":0},"$loki":133},{"_id":"5c3d65bd3525a329e0c15f53","address":"105 NE 24th St","location":{"type":"Point","coordinates":[-80.1321902,25.7828163]},"isApproved":true,"items":[],"keys":["Vegan","Kosher","Gluten-Free"],"lastUpdated":1547527612756,"name":"Plant Miami","phone":"(305) 814-5365","price":"$$$","reviewCount":112,"reviewScore":4.5,"meta":{"revision":0,"created":1547531156964,"version":0},"$loki":134},{"_id":"5c3d65bd3525a329e0c08409","address":"1040 Lincoln Rd","location":{"type":"Point","coordinates":[-80.1324517059605,25.7832567993431]},"isApproved":true,"items":[],"keys":["Italian","Cafes","Cocktail Bars"],"lastUpdated":1547527612421,"name":"Segafredo L’Originale","phone":"(305) 673-0047","price":"$$","reviewCount":258,"reviewScore":4,"meta":{"revision":0,"created":1547531156964,"version":0},"$loki":135},{"_id":"5c3d65bd3525a329e0c03d24","address":"2220 NE 2nd Ave","location":{"type":"Point","coordinates":[-80.132566,25.7833123]},"isApproved":true,"items":[],"keys":["Food Trucks","Seafood"],"lastUpdated":1547527612313,"name":"Arrecife Food Truck","phone":"(305) 780-3413","price":"","reviewCount":1,"reviewScore":5,"meta":{"revision":0,"created":1547531156964,"version":0},"$loki":136},{"_id":"5c3d65bd3525a329e0c1893c","address":"1255 Washington Ave","location":{"type":"Point","coordinates":[-80.1323065906763,25.7836582718475]},"isApproved":true,"items":[],"keys":["Argentine","Italian","American (Traditional)"],"lastUpdated":1547527612823,"name":"La Parrilla Liberty","phone":"(305) 532-7599","price":"$$","reviewCount":57,"reviewScore":4,"meta":{"revision":0,"created":1547531156964,"version":0},"$loki":137},{"_id":"5c3d65bd3525a329e0c02765","address":"26 SW 8th St","location":{"type":"Point","coordinates":[-80.1321156605103,25.7835873234637]},"isApproved":true,"items":[],"keys":["Sushi Bars"],"lastUpdated":1547527612284,"name":"Sushiato","phone":"(786) 536-6184","price":"$$$","reviewCount":33,"reviewScore":4.5,"meta":{"revision":0,"created":1547531156964,"version":0},"$loki":138},{"_id":"5c3d65bd3525a329e0c14792","address":"5825 Collins Ave","location":{"type":"Point","coordinates":[-80.1318563,25.7835664]},"isApproved":true,"items":[],"keys":["Venues & Event Spaces","Seafood","Sandwiches"],"lastUpdated":1547527612721,"name":"Oli Cafe","phone":"(305) 868-2259","price":"$","reviewCount":16,"reviewScore":4.5,"meta":{"revision":0,"created":1547531156964,"version":0},"$loki":139},{"_id":"5c3d65bd3525a329e0c068be","address":"117 SE 3rd Ave","location":{"type":"Point","coordinates":[-80.1320484973532,25.7837858412813]},"isApproved":true,"items":[],"keys":["Burgers","Salad","Hot Dogs"],"lastUpdated":1547527612379,"name":"BurBowl","phone":"(786) 558-4244","price":"$","reviewCount":221,"reviewScore":3.5,"meta":{"revision":0,"created":1547531156964,"version":0},"$loki":140},{"_id":"5c3d65bd3525a329e0c1858e","address":"200 NW 54th St","location":{"type":"Point","coordinates":[-80.1323766,25.7840689]},"isApproved":true,"items":[],"keys":["Seafood","Caribbean"],"lastUpdated":1547527612815,"name":"Chef Creole Seasoned Kitchen","phone":"(305) 754-2223","price":"$$","reviewCount":180,"reviewScore":4,"meta":{"revision":0,"created":1547531156964,"version":0},"$loki":141},{"_id":"5c3d65bd3525a329e0c13111","address":"1265 Washington Ave","location":{"type":"Point","coordinates":[-80.132037,25.784223]},"isApproved":true,"items":[],"keys":["Pubs","Sports Bars","Irish"],"lastUpdated":1547527612688,"name":"Playwright Irish Pub","phone":"(305) 534-0667","price":"$$","reviewCount":190,"reviewScore":4,"meta":{"revision":0,"created":1547531156964,"version":0},"$loki":142},{"_id":"5c3d65bd3525a329e0c07ea1","address":"48 E Flagler St","location":{"type":"Point","coordinates":[-80.1318235,25.7845136]},"isApproved":true,"items":[],"keys":["Caribbean"],"lastUpdated":1547527612417,"name":"Jamaica Corner","phone":"(786) 558-5213","price":"","reviewCount":4,"reviewScore":5,"meta":{"revision":0,"created":1547531156964,"version":0},"$loki":143},{"_id":"5c3d65bd3525a329e0c05e5c","address":"1680 Michigan Ave","location":{"type":"Point","coordinates":[-80.1321910512831,25.785095949813]},"isApproved":true,"items":[],"keys":["Pizza"],"lastUpdated":1547527612362,"name":"Mister O1- South Beach","phone":"(305) 397-8189","price":"$$","reviewCount":650,"reviewScore":4.5,"meta":{"revision":0,"created":1547531156964,"version":0},"$loki":144},{"_id":"5c3d65bd3525a329e0c0f43d","address":"140 NE 39th St","location":{"type":"Point","coordinates":[-80.1322877,25.7850197]},"isApproved":true,"items":[],"keys":["American (New)"],"lastUpdated":1547527612592,"name":"St. Roch Market Miami","phone":"(786) 542-8977","price":"$$","reviewCount":142,"reviewScore":4.5,"meta":{"revision":0,"created":1547531156964,"version":0},"$loki":145},{"_id":"5c3d65bd3525a329e0c16f3f","address":"1242 Washington Ave","location":{"type":"Point","coordinates":[-80.132442,25.783813]},"isApproved":true,"items":[],"keys":["Burgers","Hot Dogs","American (New)"],"lastUpdated":1547527612781,"name":"BurgerFi","phone":"(305) 534-0340","price":"$$","reviewCount":306,"reviewScore":3.5,"meta":{"revision":0,"created":1547531156964,"version":0},"$loki":146},{"_id":"5c3d65bd3525a329e0c0e9e4","address":"516 Espanola Way","location":{"type":"Point","coordinates":[-80.1334156,25.786748]},"isApproved":true,"items":[],"keys":["French","Creperies"],"lastUpdated":1547527612581,"name":"A La Folie Café","phone":"(305) 538-4484","price":"$$","reviewCount":563,"reviewScore":4,"meta":{"revision":0,"created":1547531156964,"version":0},"$loki":147},{"_id":"5c3d65bd3525a329e0c19c51","address":"6301 NW 6th Ave","location":{"type":"Point","coordinates":[-80.1337533608128,25.7869850625889]},"isApproved":true,"items":[],"keys":["Caribbean"],"lastUpdated":1547527612850,"name":"Bahamian Pot Restaurant","phone":"(305) 759-3408","price":"","reviewCount":7,"reviewScore":4.5,"meta":{"revision":0,"created":1547531156964,"version":0},"$loki":148},{"_id":"5c3d65bd3525a329e0c183d5","address":"Carnival Breeze Cruise Ship","location":{"type":"Point","coordinates":[-80.1318051,25.7852397]},"isApproved":true,"items":[],"keys":["American (Traditional)"],"lastUpdated":1547527612814,"name":"Guys Burger Joint","phone":"","price":"$","reviewCount":5,"reviewScore":4,"meta":{"revision":0,"created":1547531156964,"version":0},"$loki":149},{"_id":"5c3d65bd3525a329e0c1909f","address":"1435 Alton Rd","location":{"type":"Point","coordinates":[-80.131931,25.7871868]},"isApproved":true,"items":[],"keys":["Indian"],"lastUpdated":1547527612832,"name":"Andaz Miami Beach","phone":"(305) 397-8846","price":"","reviewCount":11,"reviewScore":4.5,"meta":{"revision":0,"created":1547531156964,"version":0},"$loki":150},{"_id":"5c3d65bd3525a329e0c17e92","address":"445 Lincoln Rd","location":{"type":"Point","coordinates":[-80.131961,25.7871542]},"isApproved":true,"items":[],"keys":["Lounges","Hookah Bars","Mediterranean"],"lastUpdated":1547527612802,"name":"D’Vine","phone":"(305) 674-8525","price":"$$","reviewCount":338,"reviewScore":3,"meta":{"revision":0,"created":1547531156964,"version":0},"$loki":151},{"_id":"5c3d65bd3525a329e0c012d2","address":"1701 Collins Ave","location":{"type":"Point","coordinates":[-80.1319563,25.7870912]},"isApproved":true,"items":[],"keys":["Sushi Bars","Japanese","Venues & Event Spaces"],"lastUpdated":1547527612240,"name":"Katsuya South Beach","phone":"(305) 455-2995","price":"$$$","reviewCount":459,"reviewScore":4,"meta":{"revision":0,"created":1547531156964,"version":0},"$loki":152},{"_id":"5c3d65bd3525a329e0c097cf","address":"642 6th St","location":{"type":"Point","coordinates":[-80.1319582600495,25.7870366676539]},"isApproved":true,"items":[],"keys":["Mexican"],"lastUpdated":1547527612461,"name":"Dulce Vida Mexican Restaurant","phone":"(305) 397-8765","price":"","reviewCount":15,"reviewScore":5,"meta":{"revision":0,"created":1547531156964,"version":0},"$loki":153},{"_id":"5c3d65bd3525a329e0c08502","address":"223 NW 23rd St","location":{"type":"Point","coordinates":[-80.1322378590703,25.7868089411882]},"isApproved":true,"items":[],"keys":["American (New)"],"lastUpdated":1547527612427,"name":"Alter Restaurant","phone":"(305) 573-5996","price":"$$$","reviewCount":307,"reviewScore":4,"meta":{"revision":0,"created":1547531156964,"version":0},"$loki":154},{"_id":"5c3d65bd3525a329e0c01ed7","address":"455 Grand Bay Dr.","location":{"type":"Point","coordinates":[-80.1322342,25.7868154]},"isApproved":true,"items":[],"keys":["American (New)","Breakfast & Brunch","Cocktail Bars"],"lastUpdated":1547527612260,"name":"Lightkeepers","phone":"(305) 365-4156","price":"$$$","reviewCount":50,"reviewScore":4,"meta":{"revision":0,"created":1547531156964,"version":0},"$loki":155},{"_id":"5c3d65bd3525a329e0c044bd","address":"1627 Collins Ave","location":{"type":"Point","coordinates":[-80.1324847,25.7868233]},"isApproved":true,"items":[],"keys":["Pizza","Italian"],"lastUpdated":1547527612322,"name":"Pizza Bar","phone":"(305) 672-6880","price":"$","reviewCount":575,"reviewScore":3.5,"meta":{"revision":0,"created":1547531156964,"version":0},"$loki":156},{"_id":"5c3d65bd3525a329e0c0fb30","address":"448 Espanola Way","location":{"type":"Point","coordinates":[-80.1327508,25.786804]},"isApproved":true,"items":[],"keys":["Spanish","Tapas Bars","Bars"],"lastUpdated":1547527612601,"name":"Tapas Y Tintos","phone":"(305) 538-8272","price":"$$","reviewCount":460,"reviewScore":3.5,"meta":{"revision":0,"created":1547531156964,"version":0},"$loki":157},{"_id":"5c3d65bd3525a329e0c1958a","address":"445 Española Way","location":{"type":"Point","coordinates":[-80.1328225321019,25.7869900052522]},"isApproved":true,"items":[],"keys":["Burgers"],"lastUpdated":1547527612840,"name":"Burger Yard","phone":"(305) 397-8619","price":"","reviewCount":1,"reviewScore":4,"meta":{"revision":0,"created":1547531156964,"version":0},"$loki":158},{"_id":"5c3d65bd3525a329e0c01e21","address":"101 Washington Ave","location":{"type":"Point","coordinates":[-80.1328262,25.7870429]},"isApproved":true,"items":[],"keys":["American (New)","Seafood"],"lastUpdated":1547527612260,"name":"Stubborn Seed","phone":"(786) 322-5211","price":"$$$$","reviewCount":206,"reviewScore":4.5,"meta":{"revision":0,"created":1547531156964,"version":0},"$loki":159},{"_id":"5c3d65bd3525a329e0c07714","address":"","location":{"type":"Point","coordinates":[-80.1324639,25.7870292]},"isApproved":true,"items":[],"keys":["Food Trucks","Peruvian"],"lastUpdated":1547527612402,"name":"Piscopk","phone":"(305) 215-9500","price":"","reviewCount":1,"reviewScore":5,"meta":{"revision":0,"created":1547531156964,"version":0},"$loki":160},{"_id":"5c3d65bd3525a329e0c05ac6","address":"5599 Biscayne Blvd","location":{"type":"Point","coordinates":[-80.1320484,25.7877499]},"isApproved":true,"items":[],"keys":["Italian"],"lastUpdated":1547527612356,"name":"Baiocco","phone":"(305) 759-1007","price":"$$$","reviewCount":48,"reviewScore":4.5,"meta":{"revision":0,"created":1547531156964,"version":0},"$loki":161},{"_id":"5c3d65bd3525a329e0c1ae54","address":"1035 N Miami Ave","location":{"type":"Point","coordinates":[-80.132186,25.7877383]},"isApproved":true,"items":[],"keys":["French","American (New)","Comfort Food"],"lastUpdated":1547527612876,"name":"Fooq’s","phone":"(786) 536-2749","price":"$$","reviewCount":395,"reviewScore":4,"meta":{"revision":0,"created":1547531156964,"version":0},"$loki":162},{"_id":"5c3d65bd3525a329e0c07636","address":"1131 Collins Ave","location":{"type":"Point","coordinates":[-80.1323253661394,25.7876774725974]},"isApproved":true,"items":[],"keys":["Hookah Bars","Cocktail Bars","Mediterranean"],"lastUpdated":1547527612401,"name":"Rakija Lounge","phone":"(305) 487-2710","price":"$$","reviewCount":162,"reviewScore":3.5,"meta":{"revision":0,"created":1547531156964,"version":0},"$loki":163},{"_id":"5c3d65bd3525a329e0c04c20","address":"56 NW 29th St","location":{"type":"Point","coordinates":[-80.1320671846144,25.7874672254612]},"isApproved":true,"items":[],"keys":["Mexican","Food Trucks"],"lastUpdated":1547527612337,"name":"Pasilla Tacos","phone":"(561) 403-6025","price":"","reviewCount":19,"reviewScore":4,"meta":{"revision":0,"created":1547531156964,"version":0},"$loki":164},{"_id":"5c3d65bd3525a329e0c06684","address":"1500 Washington Ave","location":{"type":"Point","coordinates":[-80.1319488106053,25.7876737913742]},"isApproved":true,"items":[],"keys":["Burgers","Fast Food"],"lastUpdated":1547527612378,"name":"Five Guys","phone":"(305) 538-3807","price":"$","reviewCount":184,"reviewScore":3.5,"meta":{"revision":0,"created":1547531156964,"version":0},"$loki":165},{"_id":"5c3d65bd3525a329e0c1890b","address":"2216 Park Ave","location":{"type":"Point","coordinates":[-80.131998,25.7873614]},"isApproved":true,"items":[],"keys":["Seafood","Latin American","Venues & Event Spaces"],"lastUpdated":1547527612822,"name":"OLA","phone":"(305) 695-9125","price":"$$$","reviewCount":816,"reviewScore":4.5,"meta":{"revision":0,"created":1547531156964,"version":0},"$loki":166},{"_id":"5c3d65bd3525a329e0c08057","address":"919 Alton Rd","location":{"type":"Point","coordinates":[-80.1320341,25.7880196]},"isApproved":true,"items":[],"keys":["Coffee & Tea","Cuban","Breakfast & Brunch"],"lastUpdated":1547527612419,"name":"David’s Cafe Cafecito","phone":"(305) 534-8736","price":"$$","reviewCount":115,"reviewScore":3.5,"meta":{"revision":0,"created":1547531156964,"version":0},"$loki":167},{"_id":"5c3d65bd3525a329e0c01942","address":"801 S Pointe Dr","location":{"type":"Point","coordinates":[-80.1315566,25.7879277]},"isApproved":true,"items":[],"keys":["Italian","Seafood","Asian Fusion"],"lastUpdated":1547527612251,"name":"Mira Five Stars","phone":"(305) 340-1735","price":"$$$$","reviewCount":21,"reviewScore":4,"meta":{"revision":0,"created":1547531156964,"version":0},"$loki":168},{"_id":"5c3d65bd3525a329e0c08a60","address":"350 NE 24th St","location":{"type":"Point","coordinates":[-80.1315073,25.7876596]},"isApproved":true,"items":[],"keys":["French","Desserts","Seafood"],"lastUpdated":1547527612430,"name":"C Si Bon","phone":"(786) 615-4820","price":"$$","reviewCount":35,"reviewScore":5,"meta":{"revision":0,"created":1547531156964,"version":0},"$loki":169},{"_id":"5c3d65bd3525a329e0c1b134","address":"4441 Collins Ave","location":{"type":"Point","coordinates":[-80.1308614,25.7871012]},"isApproved":true,"items":[],"keys":["American (New)"],"lastUpdated":1547527612877,"name":"Vida","phone":"(305) 674-4730","price":"$$$","reviewCount":117,"reviewScore":3,"meta":{"revision":0,"created":1547531156964,"version":0},"$loki":170},{"_id":"5c3d65bd3525a329e0c11c4c","address":"1800 Bay Rd","location":{"type":"Point","coordinates":[-80.1303308,25.7865371]},"isApproved":true,"items":[],"keys":["Coffee & Tea","Juice Bars & Smoothies","Cafes"],"lastUpdated":1547527612660,"name":"Dr Smood - Sunset Harbour","phone":"(786) 334-4420","price":"$$$","reviewCount":23,"reviewScore":4,"meta":{"revision":0,"created":1547531156964,"version":0},"$loki":171},{"_id":"5c3d65bd3525a329e0c12c37","address":"112 W Flagler St","location":{"type":"Point","coordinates":[-80.1304277,25.7865226]},"isApproved":true,"items":[],"keys":["Cuban"],"lastUpdated":1547527612680,"name":"Cacique Restaurant","phone":"(305) 372-3323","price":"$","reviewCount":21,"reviewScore":3.5,"meta":{"revision":0,"created":1547531156964,"version":0},"$loki":172},{"_id":"5c3d65bd3525a329e0c06e8e","address":"901 Brickell Bay Dr","location":{"type":"Point","coordinates":[-80.1312662,25.7867889]},"isApproved":true,"items":[],"keys":["Argentine","American (New)","Wine Bars"],"lastUpdated":1547527612387,"name":"Lol On the Bay","phone":"(786) 803-8580","price":"$$","reviewCount":15,"reviewScore":4.5,"meta":{"revision":0,"created":1547531156964,"version":0},"$loki":173},{"_id":"5c3d65bd3525a329e0c0d36e","address":"418 Meridian Ave","location":{"type":"Point","coordinates":[-80.1310166,25.7868143]},"isApproved":true,"items":[],"keys":["Cafes"],"lastUpdated":1547527612546,"name":"The Food Marchand","phone":"(305) 763-8934","price":"$$","reviewCount":4,"reviewScore":5,"meta":{"revision":0,"created":1547531156964,"version":0},"$loki":174},{"_id":"5c3d65bd3525a329e0c11460","address":"","location":{"type":"Point","coordinates":[-80.1315634,25.787171]},"isApproved":true,"items":[],"keys":["Italian","Food Trucks"],"lastUpdated":1547527612643,"name":"Cucina Bambina","phone":"(305) 494-0279","price":"","reviewCount":11,"reviewScore":5,"meta":{"revision":0,"created":1547531156964,"version":0},"$loki":175},{"_id":"5c3d65bd3525a329e0c11505","address":"49 SW 11th St","location":{"type":"Point","coordinates":[-80.1315672,25.787067]},"isApproved":true,"items":[],"keys":["Sushi Bars","Peruvian","Bars"],"lastUpdated":1547527612643,"name":"SuViche Brickell","phone":"(305) 960-7097","price":"$$","reviewCount":394,"reviewScore":4,"meta":{"revision":0,"created":1547531156964,"version":0},"$loki":176},{"_id":"5c3d65bd3525a329e0c0dac3","address":"1701 Collins Ave","location":{"type":"Point","coordinates":[-80.1316122338176,25.7862525584966]},"isApproved":true,"items":[],"keys":["Tapas/Small Plates","Spanish","Venues & Event Spaces"],"lastUpdated":1547527612556,"name":"The Bazaar By José Andrés","phone":"(305) 455-2999","price":"$$$$","reviewCount":709,"reviewScore":4,"meta":{"revision":0,"created":1547531156964,"version":0},"$loki":177},{"_id":"5c3d65bd3525a329e0c03fac","address":"1410 Ocean Dr","location":{"type":"Point","coordinates":[-80.1314584,25.7855513]},"isApproved":true,"items":[],"keys":["Cuban","Bars"],"lastUpdated":1547527612319,"name":"Havana 1957","phone":"(305) 763-8671","price":"$$","reviewCount":584,"reviewScore":4,"meta":{"revision":0,"created":1547531156964,"version":0},"$loki":178},{"_id":"5c3d65bd3525a329e0c120cc","address":"1255 W Ave","location":{"type":"Point","coordinates":[-80.13163,25.785189]},"isApproved":true,"items":[],"keys":["Bars","Breakfast & Brunch"],"lastUpdated":1547527612663,"name":"Bikini Cafe & Beer Garden","phone":"(305) 397-8148","price":"","reviewCount":5,"reviewScore":3,"meta":{"revision":0,"created":1547531156964,"version":0},"$loki":179},{"_id":"5c3d65bd3525a329e0c08f55","address":"1360 Collins Ave","location":{"type":"Point","coordinates":[-80.1313001,25.7852098]},"isApproved":true,"items":[],"keys":["American (New)","Breakfast & Brunch","Waffles"],"lastUpdated":1547527612438,"name":"FL Cafe","phone":"(305) 763-8007","price":"$$","reviewCount":220,"reviewScore":4,"meta":{"revision":0,"created":1547531156964,"version":0},"$loki":180},{"_id":"5c3d65bd3525a329e0c00bb9","address":"270 E Flagler St","location":{"type":"Point","coordinates":[-80.130515,25.7854308]},"isApproved":true,"items":[],"keys":["Juice Bars & Smoothies","Comfort Food","Beer Bar"],"lastUpdated":1547527612230,"name":"Jar + Fork","phone":"(305) 364-5643","price":"$$","reviewCount":242,"reviewScore":4.5,"meta":{"revision":0,"created":1547531156964,"version":0},"$loki":181},{"_id":"5c3d65bd3525a329e0c0accc","address":"1414 Brickell Ave","location":{"type":"Point","coordinates":[-80.129935,25.78588]},"isApproved":true,"items":[],"keys":["Italian","Wine Bars","Pizza"],"lastUpdated":1547527612490,"name":"La Stampa","phone":"(786) 310-7590","price":"","reviewCount":8,"reviewScore":3.5,"meta":{"revision":0,"created":1547531156964,"version":0},"$loki":182},{"_id":"5c3d65bd3525a329e0c149c8","address":"30 NE 3rd Ave","location":{"type":"Point","coordinates":[-80.1300786,25.7853316]},"isApproved":true,"items":[],"keys":["Breakfast & Brunch","Brazilian","Italian"],"lastUpdated":1547527612728,"name":"Freshealthy","phone":"(786) 534-8280","price":"","reviewCount":15,"reviewScore":4.5,"meta":{"revision":0,"created":1547531156964,"version":0},"$loki":183},{"_id":"5c3d65bd3525a329e0c0517c","address":"1450 Washington Ave","location":{"type":"Point","coordinates":[-80.1298392960016,25.7854852124998]},"isApproved":true,"items":[],"keys":["Italian"],"lastUpdated":1547527612340,"name":"Pane & Vino","phone":"(305) 535-9027","price":"$$","reviewCount":835,"reviewScore":4.5,"meta":{"revision":0,"created":1547531156964,"version":0},"$loki":184},{"_id":"5c3d65bd3525a329e0c0c845","address":"1144 Ocean Dr","location":{"type":"Point","coordinates":[-80.1294151693583,25.7870190557308]},"isApproved":true,"items":[],"keys":["Sports Bars","American (New)"],"lastUpdated":1547527612526,"name":"Wild’n Out","phone":"(305) 535-3500","price":"","reviewCount":32,"reviewScore":3,"meta":{"revision":0,"created":1547531156964,"version":0},"$loki":185},{"_id":"5c3d65bd3525a329e0c11e7b","address":"1440 Ocean Dr","location":{"type":"Point","coordinates":[-80.1298171,25.786481]},"isApproved":true,"items":[],"keys":["Seafood","Steakhouses","Sushi Bars"],"lastUpdated":1547527612662,"name":"LT Steak & Seafood","phone":"(305) 673-0044","price":"$$$","reviewCount":107,"reviewScore":4,"meta":{"revision":0,"created":1547531156964,"version":0},"$loki":186},{"_id":"5c3d65bd3525a329e0c08f4b","address":"20 W Flagler St","location":{"type":"Point","coordinates":[-80.1297932,25.7871279]},"isApproved":true,"items":[],"keys":["Seafood"],"lastUpdated":1547527612438,"name":"PEZ","phone":"(305) 570-3440","price":"","reviewCount":25,"reviewScore":5,"meta":{"revision":0,"created":1547531156964,"version":0},"$loki":187},{"_id":"5c3d65bd3525a329e0c1346c","address":"1501 Collins Ave","location":{"type":"Point","coordinates":[-80.130155,25.787798]},"isApproved":true,"items":[],"keys":["Steakhouses","American (New)","Bars"],"lastUpdated":1547527612690,"name":"Quality Meats - Miami Beach","phone":"(305) 340-3333","price":"$$$","reviewCount":467,"reviewScore":4,"meta":{"revision":0,"created":1547531156964,"version":0},"$loki":188},{"_id":"5c3d65bd3525a329e0c0f454","address":"1518 Washington Ave","location":{"type":"Point","coordinates":[-80.129432135725,25.7878223331169]},"isApproved":true,"items":[],"keys":["Japanese","Sushi Bars"],"lastUpdated":1547527612592,"name":"Sushi Express","phone":"(305) 531-6068","price":"$","reviewCount":430,"reviewScore":4,"meta":{"revision":0,"created":1547531156964,"version":0},"$loki":189},{"_id":"5c3d65bd3525a329e0c07ad9","address":"NE 2nd Ave","location":{"type":"Point","coordinates":[-80.1301460713148,25.783019810915]},"isApproved":true,"items":[],"keys":["Seafood","Barbeque","Food Stands"],"lastUpdated":1547527612410,"name":"The Ultimate Grill & BBQ","phone":"","price":"","reviewCount":1,"reviewScore":5,"meta":{"revision":0,"created":1547531156964,"version":0},"$loki":190},{"_id":"5c3d65bd3525a329e0c18708","address":"Port Of Miami","location":{"type":"Point","coordinates":[-80.1300781,25.7847161]},"isApproved":true,"items":[],"keys":["American (Traditional)"],"lastUpdated":1547527612821,"name":"Norwegian Cruise Line - Epic","phone":"(800) 352-8088","price":"$$$$","reviewCount":40,"reviewScore":2.5,"meta":{"revision":0,"created":1547531156964,"version":0},"$loki":191},{"_id":"5c3d65bd3525a329e0c00f84","address":"312 NW 24th St","location":{"type":"Point","coordinates":[-80.130166,25.7845837]},"isApproved":true,"items":[],"keys":["Poke","Hawaiian","Seafood"],"lastUpdated":1547527612238,"name":"Crazy Poke","phone":"(786) 401-7542","price":"$$","reviewCount":140,"reviewScore":4.5,"meta":{"revision":0,"created":1547531156964,"version":0},"$loki":192},{"_id":"5c3d65bd3525a329e0c1a36b","address":"220 21st St","location":{"type":"Point","coordinates":[-80.1302815,25.7837828]},"isApproved":true,"items":[],"keys":["French","Wine Bars","Mediterranean"],"lastUpdated":1547527612858,"name":"Bagatelle","phone":"(305) 704-3900","price":"$$$","reviewCount":150,"reviewScore":3,"meta":{"revision":0,"created":1547531156964,"version":0},"$loki":193},{"_id":"5c3d65bd3525a329e0c04d24","address":"200 Crandon Blvd","location":{"type":"Point","coordinates":[-80.1303187,25.7835649]},"isApproved":true,"items":[],"keys":["Japanese","Thai"],"lastUpdated":1547527612338,"name":"Origin Asian Bistro & Sushi","phone":"(305) 365-1260","price":"$$","reviewCount":74,"reviewScore":3.5,"meta":{"revision":0,"created":1547531156964,"version":0},"$loki":194},{"_id":"5c3d65bd3525a329e0c0e4db","address":"10 Village Green Way","location":{"type":"Point","coordinates":[-80.1305804,25.7850007]},"isApproved":true,"items":[],"keys":["Cafes"],"lastUpdated":1547527612573,"name":"The Corner Coffee and Pantry","phone":"(786) 420-2666","price":"$","reviewCount":18,"reviewScore":4,"meta":{"revision":0,"created":1547531156964,"version":0},"$loki":195},{"_id":"5c3d65bd3525a329e0c1a7eb","address":"12 NW 1st St","location":{"type":"Point","coordinates":[-80.1313001,25.7843865]},"isApproved":true,"items":[],"keys":["Coffee & Tea","Breakfast & Brunch","Sandwiches"],"lastUpdated":1547527612867,"name":"Atlantis Cafe","phone":"(305) 381-9871","price":"$","reviewCount":86,"reviewScore":5,"meta":{"revision":0,"created":1547531156964,"version":0},"$loki":196},{"_id":"5c3d65bd3525a329e0c15d69","address":"146 Biscayne Blvd","location":{"type":"Point","coordinates":[-80.131196,25.7849051]},"isApproved":true,"items":[],"keys":["American (New)","Gastropubs","Breakfast & Brunch"],"lastUpdated":1547527612755,"name":"Biscayne Tavern","phone":"(305) 307-8300","price":"$$","reviewCount":283,"reviewScore":3.5,"meta":{"revision":0,"created":1547531156964,"version":0},"$loki":197},{"_id":"5c3d65bd3525a329e0c180de","address":"1228 Collins Ave","location":{"type":"Point","coordinates":[-80.1314528,25.7834135]},"isApproved":true,"items":[],"keys":["Italian"],"lastUpdated":1547527612808,"name":"Spiga","phone":"(305) 534-0079","price":"$$$","reviewCount":234,"reviewScore":4,"meta":{"revision":0,"created":1547531156964,"version":0},"$loki":198},{"_id":"5c3d65bd3525a329e0c10c53","address":"2891 Collins Ave","location":{"type":"Point","coordinates":[-80.131499,25.78301]},"isApproved":true,"items":[],"keys":["Cuban","Cafes"],"lastUpdated":1547527612633,"name":"Tropical Beach Cafe","phone":"(305) 538-0359","price":"$","reviewCount":433,"reviewScore":3.5,"meta":{"revision":0,"created":1547531156964,"version":0},"$loki":199},{"_id":"5c3d65bd3525a329e0c1054e","address":"110 Washington Ave CU9","location":{"type":"Point","coordinates":[-80.130332,25.783351]},"isApproved":true,"items":[],"keys":["Sandwiches","Breakfast & Brunch","Fast Food"],"lastUpdated":1547527612618,"name":"Sandwich Qbano","phone":"(305) 535-3031","price":"$","reviewCount":52,"reviewScore":4,"meta":{"revision":0,"created":1547531156964,"version":0},"$loki":200},{"_id":"5c3d65bd3525a329e0c0847c","address":"1144 Ocean Ave","location":{"type":"Point","coordinates":[-80.1305055,25.7824889]},"isApproved":true,"items":[],"keys":["Desserts","Candy Stores","American (Traditional)"],"lastUpdated":1547527612426,"name":"Sugar Factory","phone":"(917) 327-8096","price":"$$$","reviewCount":974,"reviewScore":2.5,"meta":{"revision":0,"created":1547531156964,"version":0},"$loki":201},{"_id":"5c3d65bd3525a329e0c12062","address":"220 Nw 137th Ave","location":{"type":"Point","coordinates":[-80.130515,25.7825034]},"isApproved":true,"items":[],"keys":["Tacos","Food Trucks"],"lastUpdated":1547527612663,"name":"Los Jalapeños Taqueria","phone":"(678) 936-9276","price":"","reviewCount":7,"reviewScore":4,"meta":{"revision":0,"created":1547531156964,"version":0},"$loki":202},{"_id":"5c3d65bd3525a329e0c0be6f","address":"56 NW 29th St","location":{"type":"Point","coordinates":[-80.130476,25.782529]},"isApproved":true,"items":[],"keys":["Food Trucks","Caribbean"],"lastUpdated":1547527612515,"name":"Food Dude","phone":"(754) 208-8050","price":"$$","reviewCount":27,"reviewScore":4.5,"meta":{"revision":0,"created":1547531156964,"version":0},"$loki":203},{"_id":"5c3d65bd3525a329e0c187c7","address":"2700 N Miami Ave","location":{"type":"Point","coordinates":[-80.1303572365247,25.7822790408482]},"isApproved":true,"items":[],"keys":["Latin American","Seafood","Bars"],"lastUpdated":1547527612821,"name":"Jimmy’z Kitchen Wynwood","phone":"(305) 573-1505","price":"$$","reviewCount":606,"reviewScore":4,"meta":{"revision":0,"created":1547531156964,"version":0},"$loki":204},{"_id":"5c3d65bd3525a329e0c084ee","address":"1104 S Miami Ave","location":{"type":"Point","coordinates":[-80.1308639,25.7823442]},"isApproved":true,"items":[],"keys":["Japanese","Sushi Bars","Tapas/Small Plates"],"lastUpdated":1547527612427,"name":"Yuzi Yakitori","phone":"(786) 257-1198","price":"$$","reviewCount":60,"reviewScore":4.5,"meta":{"revision":0,"created":1547531156964,"version":0},"$loki":205},{"_id":"5c3d65bd3525a329e0c1012c","address":"337 NW 25th St","location":{"type":"Point","coordinates":[-80.1312129,25.7819105]},"isApproved":true,"items":[],"keys":["Pubs","Burgers","American (Traditional)"],"lastUpdated":1547527612610,"name":"Growler USA - Wynwood","phone":"(305) 960-7862","price":"","reviewCount":9,"reviewScore":5,"meta":{"revision":0,"created":1547531156964,"version":0},"$loki":206},{"_id":"5c3d65bd3525a329e0c1361e","address":"1901 Collins Ave","location":{"type":"Point","coordinates":[-80.1312845,25.7818801]},"isApproved":true,"items":[],"keys":["Mexican"],"lastUpdated":1547527612696,"name":"Diez y Seis","phone":"(305) 695-3226","price":"$$","reviewCount":52,"reviewScore":4,"meta":{"revision":0,"created":1547531156964,"version":0},"$loki":207},{"_id":"5c3d65bd3525a329e0c04465","address":"272 NE 1st St","location":{"type":"Point","coordinates":[-80.131201,25.781604]},"isApproved":true,"items":[],"keys":["Filipino","Asian Fusion","Japanese"],"lastUpdated":1547527612322,"name":"Aklan Buffet And Sushi","phone":"(786) 250-7133","price":"","reviewCount":13,"reviewScore":5,"meta":{"revision":0,"created":1547531156964,"version":0},"$loki":208},{"_id":"5c3d65bd3525a329e0c19bc5","address":"601 S Miami Ave","location":{"type":"Point","coordinates":[-80.1311528,25.7815975]},"isApproved":true,"items":[],"keys":["Italian","Bars","Food Court"],"lastUpdated":1547527612850,"name":"La Centrale","phone":"(305) 720-2401","price":"$$","reviewCount":349,"reviewScore":3.5,"meta":{"revision":0,"created":1547531156964,"version":0},"$loki":209},{"_id":"5c3d65bd3525a329e0c12054","address":"1052 Ocean Dr","location":{"type":"Point","coordinates":[-80.1306894,25.7813205]},"isApproved":true,"items":[],"keys":["Gay Bars","Breakfast & Brunch","Dance Clubs"],"lastUpdated":1547527612663,"name":"Palace Bar","phone":"(305) 531-7234","price":"$$","reviewCount":117,"reviewScore":4.5,"meta":{"revision":0,"created":1547531156964,"version":0},"$loki":210},{"_id":"5c3d65bd3525a329e0c16daa","address":"4141 NE 2nd Ave","location":{"type":"Point","coordinates":[-80.1307767,25.7809721]},"isApproved":true,"items":[],"keys":["Bakeries","Italian","Sandwiches"],"lastUpdated":1547527612780,"name":"Mercato","phone":"(786) 332-3772","price":"$$","reviewCount":27,"reviewScore":4,"meta":{"revision":0,"created":1547531156964,"version":0},"$loki":211},{"_id":"5c3d65bd3525a329e0c169d7","address":"2626 NE 2nd Ave","location":{"type":"Point","coordinates":[-80.1307774,25.7819046]},"isApproved":true,"items":[],"keys":["Mediterranean","Arabian"],"lastUpdated":1547527612773,"name":"Mr Baba","phone":"(305) 799-1015","price":"$$","reviewCount":17,"reviewScore":4,"meta":{"revision":0,"created":1547531156964,"version":0},"$loki":212},{"_id":"5c3d65bd3525a329e0c15797","address":"278 NW 36th St","location":{"type":"Point","coordinates":[-80.1310602,25.7800019]},"isApproved":true,"items":[],"keys":["Latin American","Puerto Rican","Breakfast & Brunch"],"lastUpdated":1547527612746,"name":"El Bajareque Restaurant","phone":"(305) 576-5170","price":"$","reviewCount":166,"reviewScore":4,"meta":{"revision":0,"created":1547531156964,"version":0},"$loki":213},{"_id":"5c3d65bd3525a329e0c19111","address":"245 NE 14th St","location":{"type":"Point","coordinates":[-80.1310602,25.7800019]},"isApproved":true,"items":[],"keys":["Pizza","Italian"],"lastUpdated":1547527612832,"name":"New York Pizza & Restaurant","phone":"(786) 717-5582","price":"$","reviewCount":34,"reviewScore":4.5,"meta":{"revision":0,"created":1547531156964,"version":0},"$loki":214},{"_id":"5c3d65bd3525a329e0c188c6","address":"712 Crandon Blvd","location":{"type":"Point","coordinates":[-80.1310384,25.7803435]},"isApproved":true,"items":[],"keys":["Pizza"],"lastUpdated":1547527612822,"name":"Sir Pizza","phone":"(305) 361-5701","price":"$$","reviewCount":87,"reviewScore":3.5,"meta":{"revision":0,"created":1547531156964,"version":0},"$loki":215},{"_id":"5c3d65bd3525a329e0c1ad4f","address":"315 S Biscayne Blvd","location":{"type":"Point","coordinates":[-80.13166,25.7797111]},"isApproved":true,"items":[],"keys":["Steakhouses","American (Traditional)"],"lastUpdated":1547527612875,"name":"Wolfgang’s Steakhouse","phone":"(305) 487-7130","price":"$$$","reviewCount":190,"reviewScore":3.5,"meta":{"revision":0,"created":1547531156964,"version":0},"$loki":216},{"_id":"5c3d65bd3525a329e0c10db8","address":"900 Ocean Dr","location":{"type":"Point","coordinates":[-80.1312129,25.7794405]},"isApproved":true,"items":[],"keys":["Dance Clubs","American (Traditional)","Bars"],"lastUpdated":1547527612633,"name":"Mango’s Tropical Cafe","phone":"(305) 673-4422","price":"$$","reviewCount":1394,"reviewScore":3.5,"meta":{"revision":0,"created":1547531156964,"version":0},"$loki":217},{"_id":"5c3d65bd3525a329e0c0661d","address":"3530 Biscayne Blvd","location":{"type":"Point","coordinates":[-80.131299,25.778746]},"isApproved":true,"items":[],"keys":["Greek"],"lastUpdated":1547527612377,"name":"Eat Greek Souvlaki","phone":"(305) 456-2799","price":"","reviewCount":22,"reviewScore":4,"meta":{"revision":0,"created":1547531156964,"version":0},"$loki":218},{"_id":"5c3d65bd3525a329e0c10c7e","address":"1600 Collins Ave","location":{"type":"Point","coordinates":[-80.131103,25.778525]},"isApproved":true,"items":[],"keys":["Juice Bars & Smoothies","Cafes","Coffee & Tea"],"lastUpdated":1547527612633,"name":"JOE & THE JUICE","phone":"","price":"$$","reviewCount":123,"reviewScore":4,"meta":{"revision":0,"created":1547531156964,"version":0},"$loki":219},{"_id":"5c3d65bd3525a329e0c05972","address":"758 Washington Ave","location":{"type":"Point","coordinates":[-80.1312347,25.7789617]},"isApproved":true,"items":[],"keys":["Soul Food"],"lastUpdated":1547527612355,"name":"The Licking","phone":"","price":"","reviewCount":4,"reviewScore":2.5,"meta":{"revision":0,"created":1547531156964,"version":0},"$loki":220},{"_id":"5c3d65bd3525a329e0c0777b","address":"860 Ocean Dr","location":{"type":"Point","coordinates":[-80.1312331,25.7790905]},"isApproved":true,"items":[],"keys":["American (New)"],"lastUpdated":1547527612402,"name":"Icon On Ocean","phone":"(305) 532-5812","price":"$$","reviewCount":90,"reviewScore":3.5,"meta":{"revision":0,"created":1547531156964,"version":0},"$loki":221},{"_id":"5c3d65bd3525a329e0c07e37","address":"860 Ocean Dr","location":{"type":"Point","coordinates":[-80.1311699891625,25.7791215469652]},"isApproved":true,"items":[],"keys":["Bakeries","Grocery","Delis"],"lastUpdated":1547527612417,"name":"Jonathas Fresh Market","phone":"(305) 397-8600","price":"","reviewCount":1,"reviewScore":5,"meta":{"revision":0,"created":1547531156964,"version":0},"$loki":222},{"_id":"5c3d65bd3525a329e0c0c7c4","address":"913 Brickell Ave","location":{"type":"Point","coordinates":[-80.1314528,25.7781532]},"isApproved":true,"items":[],"keys":["Grocery","Sandwiches","Burgers"],"lastUpdated":1547527612526,"name":"The Plaza Market","phone":"(786) 801-2418","price":"$$","reviewCount":21,"reviewScore":4,"meta":{"revision":0,"created":1547531156964,"version":0},"$loki":223},{"_id":"5c3d65bd3525a329e0c15d7c","address":"2711 NE 2nd Ave","location":{"type":"Point","coordinates":[-80.1313741,25.7784217]},"isApproved":true,"items":[],"keys":["Mediterranean","Asian Fusion","Burgers"],"lastUpdated":1547527612755,"name":"NOA Cafe","phone":"(305) 573-2557","price":"$$","reviewCount":244,"reviewScore":4.5,"meta":{"revision":0,"created":1547531156964,"version":0},"$loki":224},{"_id":"5c3d65bd3525a329e0c0eafb","address":"270 Biscayne Blvd Way","location":{"type":"Point","coordinates":[-80.1314874,25.777862]},"isApproved":true,"items":[],"keys":["Japanese"],"lastUpdated":1547527612581,"name":"Zuma","phone":"(305) 577-0277","price":"$$$$","reviewCount":1146,"reviewScore":4,"meta":{"revision":0,"created":1547531156964,"version":0},"$loki":225},{"_id":"5c3d65bd3525a329e0c0fd2b","address":"114 SW North River Dr","location":{"type":"Point","coordinates":[-80.1314746,25.7777202]},"isApproved":true,"items":[],"keys":["Barbeque"],"lastUpdated":1547527612608,"name":"King Of Racks BBQ","phone":"(305) 910-6523","price":"","reviewCount":6,"reviewScore":4,"meta":{"revision":0,"created":1547531156964,"version":0},"$loki":226},{"_id":"5c3d65bd3525a329e0c10b90","address":"1629 Collins Ave","location":{"type":"Point","coordinates":[-80.1314352007698,25.7771305325288]},"isApproved":true,"items":[],"keys":["Bakeries","French","Cafes"],"lastUpdated":1547527612632,"name":"La Provence Cafe & Bakery","phone":"(305) 538-2406","price":"$$","reviewCount":125,"reviewScore":3.5,"meta":{"revision":0,"created":1547531156964,"version":0},"$loki":227},{"_id":"5c3d65bd3525a329e0c075c4","address":"3930 NE 2nd Ave","location":{"type":"Point","coordinates":[-80.129221,25.789182]},"isApproved":true,"items":[],"keys":["Bakeries","Sandwiches","Coffee & Tea"],"lastUpdated":1547527612401,"name":"Crumb on Parchment","phone":"(305) 572-9444","price":"$$","reviewCount":176,"reviewScore":4,"meta":{"revision":0,"created":1547531156964,"version":0},"$loki":228},{"_id":"5c3d65bd3525a329e0c0abcb","address":"1450 Washington Ave","location":{"type":"Point","coordinates":[-80.129221,25.789182]},"isApproved":true,"items":[],"keys":["Restaurants"],"lastUpdated":1547527612490,"name":"Matarello’s","phone":"","price":"","reviewCount":3,"reviewScore":4.5,"meta":{"revision":0,"created":1547531156964,"version":0},"$loki":229},{"_id":"5c3d65bd3525a329e0c02731","address":"168 NW 26th St","location":{"type":"Point","coordinates":[-80.1294270721148,25.7886086035362]},"isApproved":true,"items":[],"keys":["Food Trucks","Burgers"],"lastUpdated":1547527612284,"name":"305 Degrees Burgers Bar","phone":"(786) 547-4880","price":"$$","reviewCount":7,"reviewScore":4.5,"meta":{"revision":0,"created":1547531156964,"version":0},"$loki":230},{"_id":"5c3d65bd3525a329e0bff7d2","address":"700 Ocean Dr","location":{"type":"Point","coordinates":[-80.129870341279,25.7882903496245]},"isApproved":true,"items":[],"keys":["Seafood","Cocktail Bars"],"lastUpdated":1547527612218,"name":"A Fish Called Avalon","phone":"(305) 532-1727","price":"$$$","reviewCount":580,"reviewScore":4.5,"meta":{"revision":0,"created":1547531156964,"version":0},"$loki":231},{"_id":"5c3d65bd3525a329e0c04698","address":"1 SE 3rd Ave","location":{"type":"Point","coordinates":[-80.129938,25.788308]},"isApproved":true,"items":[],"keys":["Delis","Sandwiches"],"lastUpdated":1547527612329,"name":"Premo’s Deli","phone":"(305) 373-2332","price":"$","reviewCount":55,"reviewScore":4,"meta":{"revision":0,"created":1547531156964,"version":0},"$loki":232},{"_id":"5c3d65bd3525a329e0c0b62d","address":"154 SE 1st Ave","location":{"type":"Point","coordinates":[-80.1316780473468,25.7881706147584]},"isApproved":true,"items":[],"keys":["Mediterranean","Italian","Wine Bars"],"lastUpdated":1547527612499,"name":"Alloy Bistro Gourmet","phone":"(786) 773-2742","price":"$$","reviewCount":192,"reviewScore":4.5,"meta":{"revision":0,"created":1547531156964,"version":0},"$loki":233},{"_id":"5c3d65bd3525a329e0c183af","address":"668 NW 5th St","location":{"type":"Point","coordinates":[-80.1314753261339,25.7882373673246]},"isApproved":true,"items":[],"keys":["Italian","Pizza"],"lastUpdated":1547527612814,"name":"CRUST","phone":"(305) 371-7065","price":"$$","reviewCount":717,"reviewScore":4.5,"meta":{"revision":0,"created":1547531156964,"version":0},"$loki":234},{"_id":"5c3d65bd3525a329e0c1075d","address":"91 SE 2nd St","location":{"type":"Point","coordinates":[-80.1306908,25.7894249]},"isApproved":true,"items":[],"keys":["Sandwiches","Peruvian","Sports Bars"],"lastUpdated":1547527612619,"name":"Station 28","phone":"(305) 905-0328","price":"$","reviewCount":126,"reviewScore":4.5,"meta":{"revision":0,"created":1547531156964,"version":0},"$loki":235},{"_id":"5c3d65bd3525a329e0c1afc3","address":"429 Espanola Way","location":{"type":"Point","coordinates":[-80.1306908,25.7894248]},"isApproved":true,"items":[],"keys":["Italian"],"lastUpdated":1547527612876,"name":"Hosteria Romana","phone":"(305) 532-4299","price":"$$$","reviewCount":455,"reviewScore":3.5,"meta":{"revision":0,"created":1547531156964,"version":0},"$loki":236},{"_id":"5c3d65bd3525a329e0c13ea0","address":"1677 Collins Ave","location":{"type":"Point","coordinates":[-80.1316304399506,25.7895893203493]},"isApproved":true,"items":[],"keys":["Mediterranean","Breakfast & Brunch","Modern European"],"lastUpdated":1547527612706,"name":"Tamara’s Bistro","phone":"(305) 532-2311","price":"$$","reviewCount":19,"reviewScore":3.5,"meta":{"revision":0,"created":1547531156964,"version":0},"$loki":237},{"_id":"5c3d65bd3525a329e0c00c02","address":"7232 Biscayne Blvd","location":{"type":"Point","coordinates":[-80.1312505,25.7904117]},"isApproved":true,"items":[],"keys":["Sushi Bars","Japanese"],"lastUpdated":1547527612230,"name":"Moshi Moshi","phone":"(305) 751-2114","price":"$$","reviewCount":412,"reviewScore":4,"meta":{"revision":0,"created":1547531156964,"version":0},"$loki":238},{"_id":"5c3d65bd3525a329e0c14bb4","address":"330 Lincoln Rd","location":{"type":"Point","coordinates":[-80.1313873,25.7903387]},"isApproved":true,"items":[],"keys":["Tacos"],"lastUpdated":1547527612729,"name":"Chismosa Taqueria","phone":"(305) 538-0500","price":"$","reviewCount":2,"reviewScore":2,"meta":{"revision":0,"created":1547531156964,"version":0},"$loki":239},{"_id":"5c3d65bd3525a329e0c14986","address":"","location":{"type":"Point","coordinates":[-80.1300455,25.790654]},"isApproved":true,"items":[],"keys":["Food Stands"],"lastUpdated":1547527612728,"name":"Colombian Cravings","phone":"(305) 401-4017","price":"","reviewCount":1,"reviewScore":5,"meta":{"revision":0,"created":1547531156964,"version":0},"$loki":240},{"_id":"5c3d65bd3525a329e0c0e3f2","address":"","location":{"type":"Point","coordinates":[-80.1299426,25.7902999]},"isApproved":true,"items":[],"keys":["Food Trucks","Mexican"],"lastUpdated":1547527612572,"name":"Box of Chacos","phone":"(954) 648-6535","price":"$$","reviewCount":39,"reviewScore":4.5,"meta":{"revision":0,"created":1547531156964,"version":0},"$loki":241},{"_id":"5c3d65bd3525a329e0c11cc3","address":"90 Alton Rd","location":{"type":"Point","coordinates":[-80.1298923,25.7903073]},"isApproved":true,"items":[],"keys":["Italian","Pizza"],"lastUpdated":1547527612660,"name":"Italian Bistro","phone":"(305) 673-7303","price":"$$","reviewCount":5,"reviewScore":4,"meta":{"revision":0,"created":1547531156964,"version":0},"$loki":242},{"_id":"5c3d65bd3525a329e0c1b20a","address":"","location":{"type":"Point","coordinates":[-80.1290786,25.7911123]},"isApproved":true,"items":[],"keys":["Sandwiches","Food Trucks"],"lastUpdated":1547527612877,"name":"Ms. Cheezious","phone":"(305) 989-4019","price":"$","reviewCount":200,"reviewScore":4,"meta":{"revision":0,"created":1547531156964,"version":0},"$loki":243},{"_id":"5c3d65bd3525a329e0c19f8b","address":"275 NE 18th St","location":{"type":"Point","coordinates":[-80.128938,25.791181]},"isApproved":true,"items":[],"keys":["Chicken Shop","Salad","Wraps"],"lastUpdated":1547527612851,"name":"Natural Chicken Grill","phone":"(305) 377-8400","price":"$","reviewCount":147,"reviewScore":4,"meta":{"revision":0,"created":1547531156964,"version":0},"$loki":244},{"_id":"5c3d65bd3525a329e0c0636f","address":"2451 NW 5th Ave","location":{"type":"Point","coordinates":[-80.1290319,25.7920992]},"isApproved":true,"items":[],"keys":["Greek","Mediterranean","Bars"],"lastUpdated":1547527612369,"name":"Wynwood 5th Gyros","phone":"(305) 299-5004","price":"$","reviewCount":17,"reviewScore":4,"meta":{"revision":0,"created":1547531156964,"version":0},"$loki":245},{"_id":"5c3d65bd3525a329e0c003cb","address":"1650 James Ave","location":{"type":"Point","coordinates":[-80.1290319,25.7921036]},"isApproved":true,"items":[],"keys":["Creperies"],"lastUpdated":1547527612226,"name":"Mangez A Pop - Up Creperie","phone":"(954) 557-1860","price":"$","reviewCount":9,"reviewScore":5,"meta":{"revision":0,"created":1547531156964,"version":0},"$loki":246},{"_id":"5c3d65bd3525a329e0c04430","address":"3925 Collins Ave","location":{"type":"Point","coordinates":[-80.1292674099521,25.7918819812705]},"isApproved":true,"items":[],"keys":["Pizza","Seafood","Italian"],"lastUpdated":1547527612322,"name":"Donna Mare","phone":"(305) 538-3373","price":"","reviewCount":29,"reviewScore":4.5,"meta":{"revision":0,"created":1547531156964,"version":0},"$loki":247},{"_id":"5c3d65bd3525a329e0c16e3c","address":"1690 Collins Ave","location":{"type":"Point","coordinates":[-80.1300788,25.7921705]},"isApproved":true,"items":[],"keys":["Italian"],"lastUpdated":1547527612780,"name":"Dolce Italian","phone":"(786) 975-2550","price":"$$$","reviewCount":358,"reviewScore":4,"meta":{"revision":0,"created":1547531156964,"version":0},"$loki":248},{"_id":"5c3d65bd3525a329e0c01b06","address":"177 Southwest 7th St","location":{"type":"Point","coordinates":[-80.130990321582,25.7910164350025]},"isApproved":true,"items":[],"keys":["Argentine","Wine Bars","Steakhouses"],"lastUpdated":1547527612258,"name":"Graziano’s in Brickell","phone":"(305) 860-1426","price":"$$","reviewCount":160,"reviewScore":4,"meta":{"revision":0,"created":1547531156964,"version":0},"$loki":249},{"_id":"5c3d65bd3525a329e0c0ca5c","address":"1659 Washington Ave","location":{"type":"Point","coordinates":[-80.1316823756637,25.7911639123165]},"isApproved":true,"items":[],"keys":["Cuban"],"lastUpdated":1547527612532,"name":"Bella Cuba","phone":"(305) 672-7466","price":"$$","reviewCount":277,"reviewScore":4,"meta":{"revision":0,"created":1547531156964,"version":0},"$loki":250},{"_id":"5c3d65bd3525a329e0c079c3","address":"521 SW 8th St","location":{"type":"Point","coordinates":[-80.1310384,25.7915041]},"isApproved":true,"items":[],"keys":["Mexican"],"lastUpdated":1547527612409,"name":"Los Altos","phone":"","price":"","reviewCount":6,"reviewScore":4.5,"meta":{"revision":0,"created":1547531156964,"version":0},"$loki":251},{"_id":"5c3d65bd3525a329e0c03baf","address":"1701 James Ave","location":{"type":"Point","coordinates":[-80.1305973529816,25.7924633]},"isApproved":true,"items":[],"keys":["French","Mediterranean"],"lastUpdated":1547527612312,"name":"Pied à Terre","phone":"(305) 531-4533","price":"$$$$","reviewCount":106,"reviewScore":4.5,"meta":{"revision":0,"created":1547531156964,"version":0},"$loki":252},{"_id":"5c3d65bd3525a329e0bffad4","address":"1111 Lincoln Rd","location":{"type":"Point","coordinates":[-80.1311474,25.7924949]},"isApproved":true,"items":[],"keys":["Mexican"],"lastUpdated":1547527612220,"name":"Rosa Mexicano","phone":"(305) 695-1005","price":"$$","reviewCount":457,"reviewScore":3.5,"meta":{"revision":0,"created":1547531156964,"version":0},"$loki":253},{"_id":"5c3d65bd3525a329e0c1a2cd","address":"1458 Ocean Dr","location":{"type":"Point","coordinates":[-80.1298709727996,25.7936399348719]},