{"filename":"-80.75-27.5","collections":[{"name":"restaurants","data":[{"_id":"5c3d65bd3525a329e0c114f8","address":"1706 NW 4th St","location":{"type":"Point","coordinates":[-80.8488486707211,27.2470152343439]},"isApproved":true,"items":[],"keys":["Mexican","Food Trucks"],"lastUpdated":1547527612643,"name":"Taqueria Yanez","phone":"(863) 484-3675","price":"","reviewCount":2,"reviewScore":4.5,"meta":{"revision":0,"created":1547531151478,"version":0},"$loki":1},{"_id":"5c3d65bd3525a329e0c14a4c","address":"301 SW Park St","location":{"type":"Point","coordinates":[-80.8324591,27.2429607]},"isApproved":true,"items":[],"keys":["Barbeque","Chicken Wings"],"lastUpdated":1547527612728,"name":"Zippys","phone":"(863) 763-1399","price":"","reviewCount":1,"reviewScore":3,"meta":{"revision":0,"created":1547531151478,"version":0},"$loki":2},{"_id":"5c3d65bd3525a329e0c0c47f","address":"107 NW 6th Ave","location":{"type":"Point","coordinates":[-80.8358326,27.2444569]},"isApproved":true,"items":[],"keys":["Mexican","Latin American","Salad"],"lastUpdated":1547527612524,"name":"Los Cocos Mexican Restaurant","phone":"(863) 467-0922","price":"$$","reviewCount":29,"reviewScore":3,"meta":{"revision":0,"created":1547531151478,"version":0},"$loki":3},{"_id":"5c3d65bd3525a329e0c0a363","address":"201 SW St Lucie Ave","location":{"type":"Point","coordinates":[-80.8370436,27.2438991]},"isApproved":true,"items":[],"keys":["Seafood","Wine Bars","Live/Raw Food"],"lastUpdated":1547527612474,"name":"Riverwalk Cafe & Oyster Bar","phone":"(772) 221-1511","price":"$$$","reviewCount":151,"reviewScore":4.5,"meta":{"revision":0,"created":1547531151478,"version":0},"$loki":4},{"_id":"5c3d65bd3525a329e0c06909","address":"3754 SE Ocean Blvd","location":{"type":"Point","coordinates":[-80.8359937,27.2430044]},"isApproved":true,"items":[],"keys":["Seafood","American (Traditional)"],"lastUpdated":1547527612379,"name":"Prawnbroker Grill","phone":"(772) 288-1222","price":"$$","reviewCount":50,"reviewScore":3,"meta":{"revision":0,"created":1547531151478,"version":0},"$loki":5},{"_id":"5c3d65bd3525a329e0c0ef86","address":"47 SW Flagler Ave","location":{"type":"Point","coordinates":[-80.835288,27.242841]},"isApproved":true,"items":[],"keys":["Salad","American (Traditional)","Seafood"],"lastUpdated":1547527612589,"name":"The Gafford","phone":"(772) 221-9517","price":"$$$","reviewCount":125,"reviewScore":4,"meta":{"revision":0,"created":1547531151478,"version":0},"$loki":6},{"_id":"5c3d65bd3525a329e0c12eeb","address":"511 SW Park St","location":{"type":"Point","coordinates":[-80.8349893,27.2429676]},"isApproved":true,"items":[],"keys":["Diners"],"lastUpdated":1547527612687,"name":"Gladys’restaurant","phone":"(863) 763-9985","price":"$","reviewCount":9,"reviewScore":3.5,"meta":{"revision":0,"created":1547531151478,"version":0},"$loki":7},{"_id":"5c3d65bd3525a329e0c07c91","address":"207 SW 5th Ave","location":{"type":"Point","coordinates":[-80.8342648,27.2415202]},"isApproved":true,"items":[],"keys":["Mexican"],"lastUpdated":1547527612411,"name":"Santa Fe 2","phone":"(863) 467-6006","price":"","reviewCount":2,"reviewScore":4.5,"meta":{"revision":0,"created":1547531151478,"version":0},"$loki":8},{"_id":"5c3d65bd3525a329e0c13f32","address":"2101 S Parrott Ave","location":{"type":"Point","coordinates":[-80.8279175,27.2215841]},"isApproved":true,"items":[],"keys":["Sandwiches","Fast Food"],"lastUpdated":1547527612706,"name":"Subway","phone":"(863) 467-7827","price":"","reviewCount":1,"reviewScore":4,"meta":{"revision":0,"created":1547531151478,"version":0},"$loki":9},{"_id":"5c3d65bd3525a329e0c027ee","address":"2105 S Parrott Ave","location":{"type":"Point","coordinates":[-80.8293449,27.2232713]},"isApproved":true,"items":[],"keys":["Pizza"],"lastUpdated":1547527612285,"name":"Little Caesars","phone":"","price":"","reviewCount":1,"reviewScore":5,"meta":{"revision":0,"created":1547531151478,"version":0},"$loki":10},{"_id":"5c3d65bd3525a329e0c0c1d5","address":"2800 NW 20th Trl","location":{"type":"Point","coordinates":[-80.8314936,27.2116226]},"isApproved":true,"items":[],"keys":["American (New)","Breakfast & Brunch","Sandwiches"],"lastUpdated":1547527612517,"name":"The Landing Strip Café","phone":"(863) 467-6828","price":"$","reviewCount":26,"reviewScore":4,"meta":{"revision":0,"created":1547531151478,"version":0},"$loki":11},{"_id":"5c3d65bd3525a329e0c18940","address":"3399 US Highway 441 S","location":{"type":"Point","coordinates":[-80.8315292,27.2118731]},"isApproved":true,"items":[],"keys":["Chinese"],"lastUpdated":1547527612823,"name":"King House Chinese Restaurant","phone":"(863) 357-7777","price":"$$","reviewCount":10,"reviewScore":2.5,"meta":{"revision":0,"created":1547531151478,"version":0},"$loki":12},{"_id":"5c3d65bd3525a329e0c14246","address":"3498 US Highway 441 S","location":{"type":"Point","coordinates":[-80.830269,27.20835]},"isApproved":true,"items":[],"keys":["Tex-Mex","Fast Food","Mexican"],"lastUpdated":1547527612713,"name":"Taco Bell","phone":"(863) 467-4444","price":"","reviewCount":5,"reviewScore":4,"meta":{"revision":0,"created":1547531151478,"version":0},"$loki":13},{"_id":"5c3d65bd3525a329e0c082ac","address":"3551 US Highway 441 S","location":{"type":"Point","coordinates":[-80.8317238,27.2105428]},"isApproved":true,"items":[],"keys":["Bakeries","Florists","Delis"],"lastUpdated":1547527612420,"name":"Publix Super Markets","phone":"(863) 763-3500","price":"$","reviewCount":8,"reviewScore":4.5,"meta":{"revision":0,"created":1547531151478,"version":0},"$loki":14},{"_id":"5c3d65bd3525a329e0c13436","address":"4151 US Hwy 441 S","location":{"type":"Point","coordinates":[-80.8304001,27.2059739]},"isApproved":true,"items":[],"keys":["Burgers","Fast Food","Coffee & Tea"],"lastUpdated":1547527612690,"name":"McDonald’s","phone":"(863) 763-5856","price":"$","reviewCount":4,"reviewScore":3,"meta":{"revision":0,"created":1547531151478,"version":0},"$loki":15},{"_id":"5c3d65bd3525a329e0c04362","address":"1759 S Parrott Ave","location":{"type":"Point","coordinates":[-80.82928,27.2266133]},"isApproved":true,"items":[],"keys":["American (Traditional)","Breakfast & Brunch"],"lastUpdated":1547527612321,"name":"Pogey’s Family Restaurant","phone":"(863) 763-7222","price":"$","reviewCount":22,"reviewScore":4,"meta":{"revision":0,"created":1547531151478,"version":0},"$loki":16},{"_id":"5c3d65bd3525a329e0c1501b","address":"1700 S Parrott Ave","location":{"type":"Point","coordinates":[-80.83021,27.2273345]},"isApproved":true,"items":[],"keys":["Pizza","Chicken Wings","Sandwiches"],"lastUpdated":1547527612736,"name":"Domino’s Pizza","phone":"(863) 763-5565","price":"","reviewCount":5,"reviewScore":2.5,"meta":{"revision":0,"created":1547531151478,"version":0},"$loki":17},{"_id":"5c3d65bd3525a329e0c15844","address":"301 N Parrott Ave","location":{"type":"Point","coordinates":[-80.8303869,27.2290224]},"isApproved":true,"items":[],"keys":["Seafood","American (New)"],"lastUpdated":1547527612747,"name":"Tin Fish","phone":"(863) 357-0722","price":"$$","reviewCount":100,"reviewScore":4,"meta":{"revision":0,"created":1547531151478,"version":0},"$loki":18},{"_id":"5c3d65bd3525a329e0c06deb","address":"700 S Parrott Ave","location":{"type":"Point","coordinates":[-80.8302965,27.2367185]},"isApproved":true,"items":[],"keys":["Buffets"],"lastUpdated":1547527612387,"name":"Golden Corral","phone":"(863) 763-6649","price":"$$","reviewCount":10,"reviewScore":3,"meta":{"revision":0,"created":1547531151478,"version":0},"$loki":19},{"_id":"5c3d65bd3525a329e0c0fa25","address":"909 S Parrott Ave","location":{"type":"Point","coordinates":[-80.8292718,27.2344527]},"isApproved":true,"items":[],"keys":["Mexican","American (Traditional)","Diners"],"lastUpdated":1547527612601,"name":"Mom’s Kitchen","phone":"(863) 763-7553","price":"$","reviewCount":23,"reviewScore":3.5,"meta":{"revision":0,"created":1547531151478,"version":0},"$loki":20},{"_id":"5c3d65bd3525a329e0c0e4e5","address":"417 S Parrott Ave","location":{"type":"Point","coordinates":[-80.82943,27.23927]},"isApproved":true,"items":[],"keys":["Fast Food","Sandwiches"],"lastUpdated":1547527612573,"name":"Arbys","phone":"(863) 623-5765","price":"","reviewCount":3,"reviewScore":2.5,"meta":{"revision":0,"created":1547531151478,"version":0},"$loki":21},{"_id":"5c3d65bd3525a329e0c013ed","address":"104 SE 6th St","location":{"type":"Point","coordinates":[-80.8290637,27.238246]},"isApproved":true,"items":[],"keys":["Chinese"],"lastUpdated":1547527612249,"name":"Chen Chinese Restaurant","phone":"(863) 467-2688","price":"$$","reviewCount":8,"reviewScore":2.5,"meta":{"revision":0,"created":1547531151478,"version":0},"$loki":22},{"_id":"5c3d65bd3525a329e0c02173","address":"395 NW Dixie Hwy","location":{"type":"Point","coordinates":[-80.8301018,27.2416906]},"isApproved":true,"items":[],"keys":["Hot Dogs"],"lastUpdated":1547527612275,"name":"Frank N’ Stein Etc","phone":"(772) 692-9594","price":"$","reviewCount":26,"reviewScore":4,"meta":{"revision":0,"created":1547531151478,"version":0},"$loki":23},{"_id":"5c3d65bd3525a329e0c0293c","address":"107 SW Park St","location":{"type":"Point","coordinates":[-80.8304655,27.2429585]},"isApproved":true,"items":[],"keys":["Pizza"],"lastUpdated":1547527612285,"name":"Joey’s Supreme Pizza","phone":"(863) 763-8383","price":"$","reviewCount":24,"reviewScore":3.5,"meta":{"revision":0,"created":1547531151478,"version":0},"$loki":24},{"_id":"5c3d65bd3525a329e0c0492b","address":"515 SW Park St","location":{"type":"Point","coordinates":[-80.8302817,27.2460603]},"isApproved":true,"items":[],"keys":["Bakeries","Delis","American (New)"],"lastUpdated":1547527612330,"name":"Nutmeg’s Cafe","phone":"(863) 763-2233","price":"$","reviewCount":30,"reviewScore":4.5,"meta":{"revision":0,"created":1547531151478,"version":0},"$loki":25},{"_id":"5c3d65bd3525a329e0c0583e","address":"604 NE Park St","location":{"type":"Point","coordinates":[-80.8236959,27.2433767]},"isApproved":true,"items":[],"keys":["Burgers"],"lastUpdated":1547527612349,"name":"Burger King","phone":"(863) 763-5900","price":"$","reviewCount":2,"reviewScore":1,"meta":{"revision":0,"created":1547531151478,"version":0},"$loki":26},{"_id":"5c3d65bd3525a329e0c1710d","address":"151 NW 36th St","location":{"type":"Point","coordinates":[-80.822459,27.244922]},"isApproved":true,"items":[],"keys":["Mexican","Tex-Mex"],"lastUpdated":1547527612782,"name":"Rio Bravo","phone":"(863) 467-6655","price":"$$","reviewCount":13,"reviewScore":4.5,"meta":{"revision":0,"created":1547531151478,"version":0},"$loki":27},{"_id":"5c3d65bd3525a329e0c0b4fd","address":"1210 Hwy 70 E","location":{"type":"Point","coordinates":[-80.8171465,27.2433198]},"isApproved":true,"items":[],"keys":["Sports Bars","Burgers","American (Traditional)"],"lastUpdated":1547527612499,"name":"Applebee’s Grill + Bar","phone":"(863) 357-0141","price":"$$","reviewCount":16,"reviewScore":2.5,"meta":{"revision":0,"created":1547531151478,"version":0},"$loki":28},{"_id":"5c3d65bd3525a329e0c03a23","address":"822 NW Park St","location":{"type":"Point","coordinates":[-80.820572,27.243226]},"isApproved":true,"items":[],"keys":["Chicken Wings","Fast Food"],"lastUpdated":1547527612311,"name":"Popeyes Louisiana Kitchen","phone":"(863) 467-8891","price":"$","reviewCount":5,"reviewScore":3.5,"meta":{"revision":0,"created":1547531151478,"version":0},"$loki":29},{"_id":"5c3d65bd3525a329e0c03a6d","address":"117 SE 8th Dr","location":{"type":"Point","coordinates":[-80.821106,27.242766]},"isApproved":true,"items":[],"keys":["American (Traditional)","Chicken Wings"],"lastUpdated":1547527612311,"name":"Zippy’s Zesty Wings","phone":"(863) 763-1399","price":"$$","reviewCount":12,"reviewScore":3.5,"meta":{"revision":0,"created":1547531151478,"version":0},"$loki":30},{"_id":"5c3d65bd3525a329e0c0e93c","address":"1111 S Parrott Ave","location":{"type":"Point","coordinates":[-80.8537040846214,27.2523149848839]},"isApproved":true,"items":[],"keys":["Greek","American (Traditional)"],"lastUpdated":1547527612580,"name":"Lakeside Grill","phone":"(863) 357-4745","price":"$$","reviewCount":30,"reviewScore":4.5,"meta":{"revision":0,"created":1547531151478,"version":0},"$loki":31},{"_id":"5c3d65bd3525a329e0c07fee","address":"1055 US Hwy 98 N","location":{"type":"Point","coordinates":[-80.8298522569334,27.2785642745224]},"isApproved":true,"items":[],"keys":["American (Traditional)","Burgers"],"lastUpdated":1547527612418,"name":"Okeechobee Livestock Market Restaurant","phone":"(863) 467-0285","price":"","reviewCount":3,"reviewScore":5,"meta":{"revision":0,"created":1547531151478,"version":0},"$loki":32},{"_id":"5c3d65bd3525a329e0c09290","address":"101 SE Ocean Blvd","location":{"type":"Point","coordinates":[-80.8549386262894,27.2654972812079]},"isApproved":true,"items":[],"keys":["Seafood","Barbeque"],"lastUpdated":1547527612452,"name":"Stuart’s Fish and Pig","phone":"(772) 266-9404","price":"$$","reviewCount":91,"reviewScore":4.5,"meta":{"revision":0,"created":1547531151478,"version":0},"$loki":33},{"_id":"5c3d65bd3525a329e0c1a934","address":"4825 US Hwy 441 S","location":{"type":"Point","coordinates":[-80.8642247,27.2639943]},"isApproved":true,"items":[],"keys":["Sports Bars","American (Traditional)"],"lastUpdated":1547527612867,"name":"Lunker’s Sports Grill","phone":"(863) 763-1900","price":"$$","reviewCount":30,"reviewScore":2.5,"meta":{"revision":0,"created":1547531151478,"version":0},"$loki":34},{"_id":"5c3d65bd3525a329e0c0c9e4","address":"8797 20th St","location":{"type":"Point","coordinates":[-80.8202725871787,27.599218011011]},"isApproved":true,"items":[],"keys":["Sports Bars","American (Traditional)"],"lastUpdated":1547527612532,"name":"JJ’s Sports Bar & Grille","phone":"(772) 567-8321","price":"$$","reviewCount":16,"reviewScore":3,"meta":{"revision":0,"created":1547531151478,"version":0},"$loki":35},{"_id":"5c3d65bd3525a329e0c018c0","address":"2045 13th Ave","location":{"type":"Point","coordinates":[-80.823436,27.602344]},"isApproved":true,"items":[],"keys":["Hawaiian","Polynesian"],"lastUpdated":1547527612251,"name":"Ono Luau","phone":"(772) 999-2657","price":"","reviewCount":17,"reviewScore":4.5,"meta":{"revision":0,"created":1547531151478,"version":0},"$loki":36},{"_id":"5c3d65bd3525a329e0c0ea68","address":"Florida Turnpike Milepost 184","location":{"type":"Point","coordinates":[-80.8233047,27.6024287]},"isApproved":true,"items":[],"keys":["Pizza"],"lastUpdated":1547527612581,"name":"Villa Pizza","phone":"(863) 763-4302","price":"$","reviewCount":7,"reviewScore":2,"meta":{"revision":0,"created":1547531151478,"version":0},"$loki":37},{"_id":"5c3d65bd3525a329e0c16977","address":"13600 US-1","location":{"type":"Point","coordinates":[-80.8232,27.6024]},"isApproved":true,"items":[],"keys":["Barbeque"],"lastUpdated":1547527612772,"name":"Woody’s Bar-B-Q","phone":"(772) 581-5767","price":"$$","reviewCount":42,"reviewScore":4,"meta":{"revision":0,"created":1547531151478,"version":0},"$loki":38},{"_id":"5c3d65bd3525a329e0c110b7","address":"184 Florida&#39;s Turnpike","location":{"type":"Point","coordinates":[-80.8223481,27.6011974]},"isApproved":true,"items":[],"keys":["Food Court"],"lastUpdated":1547527612640,"name":"Villa Italian Kitchen","phone":"(863) 763-4302","price":"","reviewCount":2,"reviewScore":2.5,"meta":{"revision":0,"created":1547531151478,"version":0},"$loki":39},{"_id":"5c3d65bd3525a329e0c16eeb","address":"3051 State Rd 60","location":{"type":"Point","coordinates":[-80.9001919,27.6980852]},"isApproved":true,"items":[],"keys":["Sandwiches","Fast Food"],"lastUpdated":1547527612781,"name":"Subway","phone":"(407) 436-1224","price":"","reviewCount":2,"reviewScore":4,"meta":{"revision":0,"created":1547531151478,"version":0},"$loki":40},{"_id":"5c3d65bd3525a329e0c09765","address":"Florida&#39;s Turnpike","location":{"type":"Point","coordinates":[-80.4459292,27.6421142]},"isApproved":true,"items":[],"keys":["Sandwiches","Fast Food","Burgers"],"lastUpdated":1547527612461,"name":"Nathan’s Famous","phone":"","price":"$","reviewCount":12,"reviewScore":2.5,"meta":{"revision":0,"created":1547531151478,"version":0},"$loki":41},{"_id":"5c3d65bd3525a329e0c17ec4","address":"5445 20th St","location":{"type":"Point","coordinates":[-80.4452231,27.6417876]},"isApproved":true,"items":[],"keys":["Pizza","Chicken Wings","Sandwiches"],"lastUpdated":1547527612802,"name":"Domino’s Pizza","phone":"(772) 794-4561","price":"","reviewCount":3,"reviewScore":3,"meta":{"revision":0,"created":1547531151478,"version":0},"$loki":42},{"_id":"5c3d65bd3525a329e0c14599","address":"40 43rd Ave","location":{"type":"Point","coordinates":[-80.4299795,27.6023533]},"isApproved":true,"items":[],"keys":["Delis","Desserts","Soup"],"lastUpdated":1547527612715,"name":"Evas Polish Kitchen","phone":"(772) 978-4200","price":"$$","reviewCount":36,"reviewScore":4.5,"meta":{"revision":0,"created":1547531151478,"version":0},"$loki":43},{"_id":"5c3d65bd3525a329e0c1ac04","address":"1275 US Hwy 1","location":{"type":"Point","coordinates":[-80.427814,27.638115]},"isApproved":true,"items":[],"keys":["Chinese"],"lastUpdated":1547527612869,"name":"Number 1 Wok","phone":"(772) 794-2901","price":"$","reviewCount":13,"reviewScore":2.5,"meta":{"revision":0,"created":1547531151478,"version":0},"$loki":44},{"_id":"5c3d65bd3525a329e0c00d36","address":"6200 20th St","location":{"type":"Point","coordinates":[-80.4274,27.6387]},"isApproved":true,"items":[],"keys":["Pizza"],"lastUpdated":1547527612236,"name":"Villa Pizza","phone":"(772) 567-9780","price":"$","reviewCount":6,"reviewScore":3,"meta":{"revision":0,"created":1547531151478,"version":0},"$loki":45},{"_id":"5c3d65bd3525a329e0c19107","address":"8909 20th St","location":{"type":"Point","coordinates":[-80.4289022,27.6392617]},"isApproved":true,"items":[],"keys":["American (Traditional)"],"lastUpdated":1547527612832,"name":"Country Pride","phone":"","price":"$$","reviewCount":14,"reviewScore":4,"meta":{"revision":0,"created":1547531151478,"version":0},"$loki":46},{"_id":"5c3d65bd3525a329e0c0f204","address":"4211 20st","location":{"type":"Point","coordinates":[-80.4296685,27.6382979]},"isApproved":true,"items":[],"keys":["Chicken Wings","Southern"],"lastUpdated":1547527612591,"name":"Phatz Chick n Shack","phone":"(772) 925-0336","price":"$","reviewCount":19,"reviewScore":4,"meta":{"revision":0,"created":1547531151478,"version":0},"$loki":47},{"_id":"5c3d65bd3525a329e0c10748","address":"7510 Red Grange Blvd","location":{"type":"Point","coordinates":[-80.4298812,27.6375417]},"isApproved":true,"items":[],"keys":["American (Traditional)","Sandwiches"],"lastUpdated":1547527612619,"name":"19th Hole Bar & Grill","phone":"(863) 692-2116","price":"","reviewCount":2,"reviewScore":4,"meta":{"revision":0,"created":1547531151478,"version":0},"$loki":48},{"_id":"5c3d65bd3525a329e0c0724e","address":"1965 43rd Ave","location":{"type":"Point","coordinates":[-80.430612,27.6378029]},"isApproved":true,"items":[],"keys":["Chinese"],"lastUpdated":1547527612398,"name":"Szechuan Palace","phone":"(772) 562-7726","price":"$$","reviewCount":41,"reviewScore":3,"meta":{"revision":0,"created":1547531151478,"version":0},"$loki":49},{"_id":"5c3d65bd3525a329e0c127fd","address":"5335 20th St","location":{"type":"Point","coordinates":[-80.4299461,27.6390127]},"isApproved":true,"items":[],"keys":["Burgers","Sports Bars","American (Traditional)"],"lastUpdated":1547527612672,"name":"Applebee’s Grill + Bar","phone":"(772) 978-0551","price":"$$","reviewCount":27,"reviewScore":2.5,"meta":{"revision":0,"created":1547531151478,"version":0},"$loki":50},{"_id":"5c3d65bd3525a329e0c08c07","address":"5001 20th Street","location":{"type":"Point","coordinates":[-80.4379858,27.6381581]},"isApproved":true,"items":[],"keys":["Barbeque","American (New)"],"lastUpdated":1547527612436,"name":"Sonny’s BBQ","phone":"(772) 770-4190","price":"$$","reviewCount":78,"reviewScore":3.5,"meta":{"revision":0,"created":1547531151478,"version":0},"$loki":51},{"_id":"5c3d65bd3525a329e0c08c64","address":"9623 N US Hwy 1","location":{"type":"Point","coordinates":[-80.4408074,27.638245]},"isApproved":true,"items":[],"keys":["Chinese"],"lastUpdated":1547527612436,"name":"Bamboo Court","phone":"(772) 388-1850","price":"$","reviewCount":11,"reviewScore":3,"meta":{"revision":0,"created":1547531151478,"version":0},"$loki":52},{"_id":"5c3d65bd3525a329e0c03d89","address":"1850 US Hwy 1","location":{"type":"Point","coordinates":[-80.4427819,27.6372]},"isApproved":true,"items":[],"keys":["Buffets"],"lastUpdated":1547527612313,"name":"Chef Lin’s Asia Buffet","phone":"(772) 778-6989","price":"$$","reviewCount":58,"reviewScore":3,"meta":{"revision":0,"created":1547531151478,"version":0},"$loki":53},{"_id":"5c3d65bd3525a329e0c04280","address":"532 21st St","location":{"type":"Point","coordinates":[-80.4414384,27.6380788]},"isApproved":true,"items":[],"keys":["Chinese"],"lastUpdated":1547527612321,"name":"Bamboo Court","phone":"(772) 569-1008","price":"$","reviewCount":19,"reviewScore":3.5,"meta":{"revision":0,"created":1547531151478,"version":0},"$loki":54},{"_id":"5c3d65bd3525a329e0c197a1","address":"2150 58th Ave","location":{"type":"Point","coordinates":[-80.4414384,27.6380788]},"isApproved":true,"items":[],"keys":["Italian","Chicken Wings","Pizza"],"lastUpdated":1547527612841,"name":"Hungry Howie’s Pizza & Subs","phone":"(772) 257-7300","price":"","reviewCount":3,"reviewScore":3.5,"meta":{"revision":0,"created":1547531151478,"version":0},"$loki":55},{"_id":"5c3d65bd3525a329e0c00e94","address":"962 14th Ln","location":{"type":"Point","coordinates":[-80.4471839,27.63549]},"isApproved":true,"items":[],"keys":["Japanese","Sushi Bars"],"lastUpdated":1547527612237,"name":"Izziban Sushi","phone":"(772) 569-8883","price":"$$","reviewCount":47,"reviewScore":4,"meta":{"revision":0,"created":1547531151478,"version":0},"$loki":56},{"_id":"5c3d65bd3525a329e0c15967","address":"8909 20th St","location":{"type":"Point","coordinates":[-80.44609,27.63572]},"isApproved":true,"items":[],"keys":["Chicken Wings","Fast Food"],"lastUpdated":1547527612747,"name":"Popeyes Louisiana Kitchen","phone":"(772) 562-1791","price":"","reviewCount":5,"reviewScore":2.5,"meta":{"revision":0,"created":1547531151478,"version":0},"$loki":57},{"_id":"5c3d65bd3525a329e0c062c2","address":"5855  20th St","location":{"type":"Point","coordinates":[-80.4465299,27.6414044]},"isApproved":true,"items":[],"keys":["Mexican","Fast Food"],"lastUpdated":1547527612369,"name":"Chipotle Mexican Grill","phone":"(772) 907-0635","price":"$$","reviewCount":31,"reviewScore":3,"meta":{"revision":0,"created":1547531151478,"version":0},"$loki":58},{"_id":"5c3d65bd3525a329e0bff880","address":"1226 US Hwy 1","location":{"type":"Point","coordinates":[-80.4465491,27.6412773]},"isApproved":true,"items":[],"keys":["Bagels","Coffee & Tea","Breakfast & Brunch"],"lastUpdated":1547527612219,"name":"Einstein Bros Bagels","phone":"(772) 257-6039","price":"$","reviewCount":23,"reviewScore":3.5,"meta":{"revision":0,"created":1547531151478,"version":0},"$loki":59},{"_id":"5c3d65bd3525a329e0c15014","address":"1928 US Hwy 1","location":{"type":"Point","coordinates":[-80.4460097,27.6392688]},"isApproved":true,"items":[],"keys":["Fast Food","Burgers"],"lastUpdated":1547527612736,"name":"Burger King","phone":"(772) 567-5031","price":"$","reviewCount":7,"reviewScore":2.5,"meta":{"revision":0,"created":1547531151478,"version":0},"$loki":60},{"_id":"5c3d65bd3525a329e0c0390b","address":"1979 14th Ave","location":{"type":"Point","coordinates":[-80.4493172,27.6395323]},"isApproved":true,"items":[],"keys":["Tapas/Small Plates","Sandwiches","Tapas Bars"],"lastUpdated":1547527612310,"name":"Jake’s Place","phone":"(772) 492-9042","price":"","reviewCount":1,"reviewScore":2,"meta":{"revision":0,"created":1547531151478,"version":0},"$loki":61},{"_id":"5c3d65bd3525a329e0bffcfd","address":"2190 45th St","location":{"type":"Point","coordinates":[-80.4482714831829,27.6382551093118]},"isApproved":true,"items":[],"keys":["Sandwiches","Fast Food"],"lastUpdated":1547527612221,"name":"Subway","phone":"(772) 569-8386","price":"$","reviewCount":1,"reviewScore":3,"meta":{"revision":0,"created":1547531151478,"version":0},"$loki":62},{"_id":"5c3d65bd3525a329e0c11ff1","address":"1436 Old Dixie Hwy","location":{"type":"Point","coordinates":[-80.447854,27.638288]},"isApproved":true,"items":[],"keys":["Restaurants"],"lastUpdated":1547527612662,"name":"Old Dixie Diner","phone":"(772) 562-9945","price":"$","reviewCount":4,"reviewScore":4,"meta":{"revision":0,"created":1547531151478,"version":0},"$loki":63},{"_id":"5c3d65bd3525a329e0c1197f","address":"5935 20th St","location":{"type":"Point","coordinates":[-80.4493464,27.6364628]},"isApproved":true,"items":[],"keys":["Mexican","Gluten-Free","Tapas/Small Plates"],"lastUpdated":1547527612651,"name":"Chronic Tacos","phone":"(772) 978-0055","price":"","reviewCount":19,"reviewScore":4.5,"meta":{"revision":0,"created":1547531151478,"version":0},"$loki":64},{"_id":"5c3d65bd3525a329e0c04d8d","address":"4809 Highway A1A","location":{"type":"Point","coordinates":[-80.4513070732355,27.6383341163707]},"isApproved":true,"items":[],"keys":["Pizza","Italian"],"lastUpdated":1547527612338,"name":"Italian Grill Pizza and Market","phone":"(772) 999-5550","price":"","reviewCount":1,"reviewScore":5,"meta":{"revision":0,"created":1547531151478,"version":0},"$loki":65},{"_id":"5c3d65bd3525a329e0c0eb63","address":"5959 20th St","location":{"type":"Point","coordinates":[-80.450255,27.638872]},"isApproved":true,"items":[],"keys":["Japanese","Steakhouses","Sushi Bars"],"lastUpdated":1547527612581,"name":"Fujiyama Japanese Steakhouse","phone":"(772) 564-8628","price":"$$","reviewCount":59,"reviewScore":3.5,"meta":{"revision":0,"created":1547531151478,"version":0},"$loki":66},{"_id":"5c3d65bd3525a329e0c02c8f","address":"5995 20th St","location":{"type":"Point","coordinates":[-80.4501038,27.6382497]},"isApproved":true,"items":[],"keys":["Italian","Salad"],"lastUpdated":1547527612293,"name":"Olive Garden Italian Restaurant","phone":"(772) 567-3223","price":"$$","reviewCount":30,"reviewScore":3.5,"meta":{"revision":0,"created":1547531151478,"version":0},"$loki":67},{"_id":"5c3d65bd3525a329e0c1982b","address":"1809 U.S. Highway 1","location":{"type":"Point","coordinates":[-80.4493623,27.6395824]},"isApproved":true,"items":[],"keys":["Mexican","Tex-Mex","Fast Food"],"lastUpdated":1547527612842,"name":"Taco Bell","phone":"(772) 589-0170","price":"","reviewCount":9,"reviewScore":1,"meta":{"revision":0,"created":1547531151478,"version":0},"$loki":68},{"_id":"5c3d65bd3525a329e0c144d2","address":"1601 US-1","location":{"type":"Point","coordinates":[-80.4533951729536,27.6396436]},"isApproved":true,"items":[],"keys":["Pizza","Italian"],"lastUpdated":1547527612714,"name":"Vittorio’s Pizzeria & Restaurant","phone":"(772) 569-3473","price":"$$","reviewCount":20,"reviewScore":3.5,"meta":{"revision":0,"created":1547531151478,"version":0},"$loki":69},{"_id":"5c3d65bd3525a329e0c14cce","address":"6040 Elon Ln","location":{"type":"Point","coordinates":[-80.454104,27.641099]},"isApproved":true,"items":[],"keys":["Steakhouses"],"lastUpdated":1547527612729,"name":"Outback Steakhouse","phone":"(772) 567-5222","price":"$$","reviewCount":80,"reviewScore":2.5,"meta":{"revision":0,"created":1547531151478,"version":0},"$loki":70},{"_id":"5c3d65bd3525a329e0c05cd9","address":"755 8th St","location":{"type":"Point","coordinates":[-80.454688,27.639638]},"isApproved":true,"items":[],"keys":["Pizza","Chicken Wings","Sandwiches"],"lastUpdated":1547527612357,"name":"Domino’s Pizza","phone":"(772) 778-3030","price":"$","reviewCount":7,"reviewScore":3,"meta":{"revision":0,"created":1547531151478,"version":0},"$loki":71},{"_id":"5c3d65bd3525a329e0c17617","address":"8195 20th St","location":{"type":"Point","coordinates":[-80.4952519,27.638452]},"isApproved":true,"items":[],"keys":["Delis"],"lastUpdated":1547527612791,"name":"82nd Avenue Deli","phone":"(772) 770-9994","price":"$","reviewCount":11,"reviewScore":4.5,"meta":{"revision":0,"created":1547531151478,"version":0},"$loki":72},{"_id":"5c3d65bd3525a329e0c11d2a","address":"1430 16th St","location":{"type":"Point","coordinates":[-80.4645042,27.6391789]},"isApproved":true,"items":[],"keys":["American (New)"],"lastUpdated":1547527612660,"name":"Wes’ Backyard BBQ and Grill","phone":"(772) 925-0223","price":"","reviewCount":13,"reviewScore":4,"meta":{"revision":0,"created":1547531151478,"version":0},"$loki":73},{"_id":"5c3d65bd3525a329e0c10f32","address":"30 Royal Palm Pointe","location":{"type":"Point","coordinates":[-80.4601167,27.6421642]},"isApproved":true,"items":[],"keys":["Seafood"],"lastUpdated":1547527612640,"name":"Mr Manatee’s Casual Grille","phone":"(772) 569-9151","price":"$$","reviewCount":112,"reviewScore":3,"meta":{"revision":0,"created":1547531151478,"version":0},"$loki":74},{"_id":"5c3d65bd3525a329e0c033bb","address":"1820 58th Ave","location":{"type":"Point","coordinates":[-80.458972,27.642916]},"isApproved":true,"items":[],"keys":["Pizza"],"lastUpdated":1547527612302,"name":"Marco’s Pizza","phone":"(772) 978-9998","price":"$$","reviewCount":16,"reviewScore":4,"meta":{"revision":0,"created":1547531151478,"version":0},"$loki":75},{"_id":"5c3d65bd3525a329e0c0ab0f","address":"4040 20th St","location":{"type":"Point","coordinates":[-80.458866,27.642923]},"isApproved":true,"items":[],"keys":["Fast Food","Chicken Wings","Chicken Shop"],"lastUpdated":1547527612489,"name":"KFC","phone":"(772) 569-3830","price":"$","reviewCount":8,"reviewScore":3.5,"meta":{"revision":0,"created":1547531151478,"version":0},"$loki":76},{"_id":"5c3d65bd3525a329e0c03add","address":"930 Village Square","location":{"type":"Point","coordinates":[-80.458988,27.642503]},"isApproved":true,"items":[],"keys":["Comfort Food","Sports Bars"],"lastUpdated":1547527612312,"name":"Village Tavern of Sebastian","phone":"(772) 918-3353","price":"$$","reviewCount":10,"reviewScore":5,"meta":{"revision":0,"created":1547531151478,"version":0},"$loki":77},{"_id":"5c3d65bd3525a329e0c01c97","address":"7850 Roseland Road","location":{"type":"Point","coordinates":[-80.5227438,27.6394756]},"isApproved":true,"items":[],"keys":["Burgers","Fast Food"],"lastUpdated":1547527612259,"name":"Checkers","phone":"(772) 589-7661","price":"$","reviewCount":8,"reviewScore":2,"meta":{"revision":0,"created":1547531151478,"version":0},"$loki":78},{"_id":"5c3d65bd3525a329e0c0f30b","address":"11632 Us Hwy 1","location":{"type":"Point","coordinates":[-80.5194041,27.6384825]},"isApproved":true,"items":[],"keys":["Breakfast & Brunch"],"lastUpdated":1547527612591,"name":"Hen House Eatery","phone":"(772) 228-8907","price":"","reviewCount":17,"reviewScore":4,"meta":{"revision":0,"created":1547531151478,"version":0},"$loki":79},{"_id":"5c3d65bd3525a329e0c12c5c","address":"6020 Elon Ln","location":{"type":"Point","coordinates":[-80.5211900174618,27.6386985]},"isApproved":true,"items":[],"keys":["Fast Food"],"lastUpdated":1547527612680,"name":"Chick-fil-A","phone":"(772) 567-0222","price":"$","reviewCount":14,"reviewScore":4,"meta":{"revision":0,"created":1547531151478,"version":0},"$loki":80},{"_id":"5c3d65bd3525a329e0c097c5","address":"1760 94th Dr","location":{"type":"Point","coordinates":[-80.5137879,27.6399552]},"isApproved":true,"items":[],"keys":["Sandwiches","Fast Food"],"lastUpdated":1547527612461,"name":"Subway","phone":"(772) 794-3411","price":"","reviewCount":1,"reviewScore":2,"meta":{"revision":0,"created":1547531151478,"version":0},"$loki":81},{"_id":"5c3d65bd3525a329e0c0e8b1","address":"2180 58th Ave","location":{"type":"Point","coordinates":[-80.511015,27.638042]},"isApproved":true,"items":[],"keys":["Italian","Wine Bars","Seafood"],"lastUpdated":1547527612575,"name":"Italian Grill","phone":"(772) 567-6640","price":"$$","reviewCount":96,"reviewScore":4,"meta":{"revision":0,"created":1547531151478,"version":0},"$loki":82},{"_id":"5c3d65bd3525a329e0c00431","address":"6200 20th St","location":{"type":"Point","coordinates":[-80.511199,27.63816]},"isApproved":true,"items":[],"keys":["Fast Food"],"lastUpdated":1547527612226,"name":"Chick-fil-A","phone":"(772) 978-4343","price":"$","reviewCount":12,"reviewScore":3,"meta":{"revision":0,"created":1547531151478,"version":0},"$loki":83},{"_id":"5c3d65bd3525a329e0c18128","address":"5555 20th St","location":{"type":"Point","coordinates":[-80.5114139,27.6374455]},"isApproved":true,"items":[],"keys":["Sandwiches","Fast Food"],"lastUpdated":1547527612809,"name":"Subway","phone":"(772) 778-4866","price":"","reviewCount":1,"reviewScore":5,"meta":{"revision":0,"created":1547531151478,"version":0},"$loki":84},{"_id":"5c3d65bd3525a329e0c01ac8","address":"8418 20th St","location":{"type":"Point","coordinates":[-80.5005017,27.6402547]},"isApproved":true,"items":[],"keys":["Pizza","Italian"],"lastUpdated":1547527612257,"name":"Davila’s Pizza","phone":"(772) 569-1711","price":"$$","reviewCount":14,"reviewScore":3.5,"meta":{"revision":0,"created":1547531151478,"version":0},"$loki":85},{"_id":"5c3d65bd3525a329e0c0eec0","address":"2205 14th Ave","location":{"type":"Point","coordinates":[-80.5065896089517,27.6398562784626]},"isApproved":true,"items":[],"keys":["American (New)"],"lastUpdated":1547527612583,"name":"Beach Bum Bagel Café","phone":"(772) 299-3242","price":"$","reviewCount":17,"reviewScore":4.5,"meta":{"revision":0,"created":1547531151478,"version":0},"$loki":86},{"_id":"5c3d65bd3525a329e0c126b2","address":"1919 14th Ave","location":{"type":"Point","coordinates":[-80.5074143,27.6382284]},"isApproved":true,"items":[],"keys":["Pretzels","American (Traditional)"],"lastUpdated":1547527612671,"name":"Post and Vine","phone":"(772) 907-5159","price":"$$","reviewCount":29,"reviewScore":3.5,"meta":{"revision":0,"created":1547531151478,"version":0},"$loki":87},{"_id":"5c3d65bd3525a329e0c04c7f","address":"1110 US 1","location":{"type":"Point","coordinates":[-80.50861,27.63984]},"isApproved":true,"items":[],"keys":["Fast Food","Chicken Wings"],"lastUpdated":1547527612337,"name":"Popeyes Louisiana Kitchen","phone":"(772) 494-1900","price":"","reviewCount":10,"reviewScore":1.5,"meta":{"revision":0,"created":1547531151478,"version":0},"$loki":88},{"_id":"5c3d65bd3525a329e0c0ed3d","address":"5325 US Highway 1","location":{"type":"Point","coordinates":[-80.5101532,27.6385502]},"isApproved":true,"items":[],"keys":["Pizza","Delis","Sandwiches"],"lastUpdated":1547527612582,"name":"Harbor Deli","phone":"(772) 770-1550","price":"","reviewCount":1,"reviewScore":3,"meta":{"revision":0,"created":1547531151478,"version":0},"$loki":89},{"_id":"5c3d65bd3525a329e0c181b7","address":"10795 US Hwy 1","location":{"type":"Point","coordinates":[-80.5984528,27.7672011]},"isApproved":true,"items":[],"keys":["American (Traditional)","Diners"],"lastUpdated":1547527612809,"name":"Sebastian’s Roadside Restaurant","phone":"(772) 581-2623","price":"$$","reviewCount":56,"reviewScore":4,"meta":{"revision":0,"created":1547531151478,"version":0},"$loki":90},{"_id":"5c3d65bd3525a329e0c1968f","address":"2036 14th Ave","location":{"type":"Point","coordinates":[-80.6015108,27.7691115]},"isApproved":true,"items":[],"keys":["Cafes"],"lastUpdated":1547527612841,"name":"The Barefoot Cafe","phone":"(772) 770-1733","price":"$","reviewCount":68,"reviewScore":4.5,"meta":{"revision":0,"created":1547531151478,"version":0},"$loki":91},{"_id":"5c3d65bd3525a329e0c1a4ba","address":"806 Indian River Dr","location":{"type":"Point","coordinates":[-80.5927702,27.7705342]},"isApproved":true,"items":[],"keys":["American (Traditional)","Seafood","Bars"],"lastUpdated":1547527612859,"name":"Mulligan’s Beach House Bar & Grill Sebastian","phone":"(772) 783-9711","price":"$$","reviewCount":178,"reviewScore":3.5,"meta":{"revision":0,"created":1547531151478,"version":0},"$loki":92},{"_id":"5c3d65bd3525a329e0c03471","address":"777 37th St","location":{"type":"Point","coordinates":[-80.548756577773,27.7669334672082]},"isApproved":true,"items":[],"keys":["Breakfast & Brunch","Italian"],"lastUpdated":1547527612302,"name":"Cucina 37","phone":"(772) 492-3941","price":"","reviewCount":2,"reviewScore":3,"meta":{"revision":0,"created":1547531151478,"version":0},"$loki":93},{"_id":"5c3d65bd3525a329e0c1556c","address":"790 SW Federal Hwy","location":{"type":"Point","coordinates":[-80.806241,27.208538]},"isApproved":true,"items":[],"keys":["Seafood","Burgers","Steakhouses"],"lastUpdated":1547527612745,"name":"Crabby’s Seafood Shack","phone":"(772) 888-9141","price":"$$","reviewCount":88,"reviewScore":4.5,"meta":{"revision":0,"created":1547531151478,"version":0},"$loki":94},{"_id":"5c3d65bd3525a329e0c0bc7b","address":"1500 Nw Courtyard Circle","location":{"type":"Point","coordinates":[-80.3979862,27.4487806]},"isApproved":true,"items":[],"keys":["Burgers","American (Traditional)"],"lastUpdated":1547527612509,"name":"Ruby Tuesday","phone":"(772) 340-2575","price":"$$","reviewCount":49,"reviewScore":2.5,"meta":{"revision":0,"created":1547531151478,"version":0},"$loki":95},{"_id":"5c3d65bd3525a329e0c1a05f","address":"9136 S US Hwy 1","location":{"type":"Point","coordinates":[-80.3982494,27.4487622]},"isApproved":true,"items":[],"keys":["Sandwiches","Fast Food"],"lastUpdated":1547527612857,"name":"Subway","phone":"(772) 337-3783","price":"$","reviewCount":1,"reviewScore":5,"meta":{"revision":0,"created":1547531151478,"version":0},"$loki":96},{"_id":"5c3d65bd3525a329e0bffcf2","address":"10111 S US 1","location":{"type":"Point","coordinates":[-80.397864729166,27.445673342674]},"isApproved":true,"items":[],"keys":["American (Traditional)","Breakfast & Brunch","Diners"],"lastUpdated":1547527612221,"name":"Denny’s","phone":"(772) 337-1955","price":"$","reviewCount":19,"reviewScore":3,"meta":{"revision":0,"created":1547531151478,"version":0},"$loki":97},{"_id":"5c3d65bd3525a329e0c0d43c","address":"5560 Okeechobee Rd","location":{"type":"Point","coordinates":[-80.4031494,27.4190248]},"isApproved":true,"items":[],"keys":["Fast Food"],"lastUpdated":1547527612546,"name":"Chick-fil-A","phone":"(833) 588-2699","price":"","reviewCount":13,"reviewScore":3,"meta":{"revision":0,"created":1547531151478,"version":0},"$loki":98},{"_id":"5c3d65bd3525a329e0c0121b","address":"2005 N Kings Hwy","location":{"type":"Point","coordinates":[-80.399437,27.470599]},"isApproved":true,"items":[],"keys":["American (Traditional)","Mexican"],"lastUpdated":1547527612240,"name":"Al’s Red Barn Grill","phone":"(772) 461-7222","price":"$","reviewCount":22,"reviewScore":3.5,"meta":{"revision":0,"created":1547531151478,"version":0},"$loki":99}],"idIndex":[1,2,3,4,5,6,7,8,9,10,11,12,13,14,15,16,17,18,19,20,21,22,23,24,25,26,27,28,29,30,31,32,33,34,35,36,37,38,39,40,41,42,43,44,45,46,47,48,49,50,51,52,53,54,55,56,57,58,59,60,61,62,63,64,65,66,67,68,69,70,71,72,73,74,75,76,77,78,79,80,81,82,83,84,85,86,87,88,89,90,91,92,93,94,95,96,97,98,99],"binaryIndices":{},"constraints":null,"uniqueNames":[],"transforms":{},"objType":"restaurants","dirty":true,"cachedIndex":null,"cachedBinaryIndex":null,"cachedData":null,"adaptiveBinaryIndices":true,"transactional":false,"cloneObjects":false,"cloneMethod":"parse-stringify","asyncListeners":false,"disableMeta":false,"disableChangesApi":true,"disableDeltaChangesApi":true,"autoupdate":false,"serializableIndices":true,"ttl":null,"maxId":99,"DynamicViews":[],"events":{"insert":[],"update":[],"pre-insert":[],"pre-update":[],"close":[],"flushbuffer":[],"error":[],"delete":[null],"warning":[null]},"changes":[]}],"databaseVersion":1.5,"engineVersion":1.5,"autosave":false,"autosaveInterval":5000,"autosaveHandle":null,"throttledSaves":true,"options":{"serializationMethod":"normal","destructureDelimiter":"$<\n"},"persistenceMethod":"fs","persistenceAdapter":null,"verbose":false,"events":{"init":[null],"loaded":[],"flushChanges":[],"close":[],"changes":[],"warning":[]},"ENV":"NODEJS"}