{"filename":"-80.5-35.75","collections":[{"name":"restaurants","data":[{"_id":"5c3d65bd3525a329e0c05445","address":"3129 E US Hwy 64","location":{"type":"Point","coordinates":[-80.8118038,35.5835503]},"isApproved":true,"items":[],"keys":["American (Traditional)","Breakfast & Brunch","Burgers"],"lastUpdated":1547527612347,"name":"Randy’s Restaurant","phone":"(336) 249-6714","price":"$","reviewCount":18,"reviewScore":3.5,"meta":{"revision":0,"created":1547531151961,"version":0},"$loki":1},{"_id":"5c3d65bd3525a329e0c1781e","address":"1406 National Hwy","location":{"type":"Point","coordinates":[-80.8118038,35.5835503]},"isApproved":true,"items":[],"keys":["Chinese"],"lastUpdated":1547527612792,"name":"Jade Dragon","phone":"(336) 841-1893","price":"","reviewCount":8,"reviewScore":3.5,"meta":{"revision":0,"created":1547531151961,"version":0},"$loki":2},{"_id":"5c3d65bd3525a329e0c17e3f","address":"206 W Fairfield Rd","location":{"type":"Point","coordinates":[-80.8118038,35.5835503]},"isApproved":true,"items":[],"keys":["Mexican"],"lastUpdated":1547527612801,"name":"Pancho Villas","phone":"(336) 861-4893","price":"$","reviewCount":35,"reviewScore":4,"meta":{"revision":0,"created":1547531151961,"version":0},"$loki":3},{"_id":"5c3d65bd3525a329e0c19d66","address":"5135 Taylorsville Hwy","location":{"type":"Point","coordinates":[-80.8118038,35.5835503]},"isApproved":true,"items":[],"keys":["Pizza"],"lastUpdated":1547527612850,"name":"Pizza Box","phone":"(704) 585-0001","price":"$","reviewCount":2,"reviewScore":5,"meta":{"revision":0,"created":1547531151961,"version":0},"$loki":4},{"_id":"5c3d65bd3525a329e0c0d451","address":"155 Gaither St","location":{"type":"Point","coordinates":[-80.81148,35.806862]},"isApproved":true,"items":[],"keys":["Italian"],"lastUpdated":1547527612547,"name":"La Vita e Bella","phone":"(336) 936-9301","price":"","reviewCount":14,"reviewScore":4.5,"meta":{"revision":0,"created":1547531151961,"version":0},"$loki":5},{"_id":"5c3d65bd3525a329e0c08591","address":"1929 E Broad S","location":{"type":"Point","coordinates":[-80.8116373,35.8073111]},"isApproved":true,"items":[],"keys":["Japanese","Sushi Bars"],"lastUpdated":1547527612427,"name":"Shiki","phone":"(704) 873-0901","price":"$","reviewCount":19,"reviewScore":3.5,"meta":{"revision":0,"created":1547531151961,"version":0},"$loki":6},{"_id":"5c3d65bd3525a329e0c083b6","address":"925 Davie Ave","location":{"type":"Point","coordinates":[-80.82822,35.809935]},"isApproved":true,"items":[],"keys":["Thai"],"lastUpdated":1547527612421,"name":"Chopstix","phone":"(704) 872-5200","price":"$$","reviewCount":94,"reviewScore":4,"meta":{"revision":0,"created":1547531151961,"version":0},"$loki":7},{"_id":"5c3d65bd3525a329e0c12a32","address":"101 E Broad St","location":{"type":"Point","coordinates":[-80.8273422,35.810297]},"isApproved":true,"items":[],"keys":["Delis","Sandwiches","Salad"],"lastUpdated":1547527612679,"name":"Groucho’s Deli","phone":"(704) 871-2828","price":"$","reviewCount":45,"reviewScore":4,"meta":{"revision":0,"created":1547531151961,"version":0},"$loki":8},{"_id":"5c3d65bd3525a329e0c18e0d","address":"6655 Old US Hwy 52","location":{"type":"Point","coordinates":[-80.832882,35.812793]},"isApproved":true,"items":[],"keys":["Japanese"],"lastUpdated":1547527612831,"name":"Kimono Authentic Japanese Restaurant","phone":"(336) 731-7510","price":"$","reviewCount":14,"reviewScore":3.5,"meta":{"revision":0,"created":1547531151961,"version":0},"$loki":9},{"_id":"5c3d65bd3525a329e0c09912","address":"2015 Front St","location":{"type":"Point","coordinates":[-80.843648,35.818207]},"isApproved":true,"items":[],"keys":["Mexican"],"lastUpdated":1547527612463,"name":"La Pelusa","phone":"(704) 872-7379","price":"$","reviewCount":52,"reviewScore":4.5,"meta":{"revision":0,"created":1547531151961,"version":0},"$loki":10},{"_id":"5c3d65bd3525a329e0c19328","address":"1023 Shelton Ave","location":{"type":"Point","coordinates":[-80.8524389,35.8056811]},"isApproved":true,"items":[],"keys":["Barbeque"],"lastUpdated":1547527612834,"name":"Phifer’s Hot Wings & Bar-B-Q","phone":"(704) 873-7505","price":"$","reviewCount":17,"reviewScore":4,"meta":{"revision":0,"created":1547531151961,"version":0},"$loki":11},{"_id":"5c3d65bd3525a329e0c0690e","address":"1936 E Broad St","location":{"type":"Point","coordinates":[-80.8500347,35.7905707]},"isApproved":true,"items":[],"keys":["Sandwiches","Fast Food"],"lastUpdated":1547527612379,"name":"Subway","phone":"(704) 872-5471","price":"$","reviewCount":3,"reviewScore":3,"meta":{"revision":0,"created":1547531151961,"version":0},"$loki":12},{"_id":"5c3d65bd3525a329e0c15a25","address":"2220 N Center St","location":{"type":"Point","coordinates":[-80.8507106944733,35.7909309276396]},"isApproved":true,"items":[],"keys":["Mexican","Latin American"],"lastUpdated":1547527612748,"name":"Que Rico!","phone":"(828) 855-2209","price":"","reviewCount":3,"reviewScore":4.5,"meta":{"revision":0,"created":1547531151961,"version":0},"$loki":13},{"_id":"5c3d65bd3525a329e0c02d5d","address":"123 N Center St","location":{"type":"Point","coordinates":[-80.8531366,35.7912003]},"isApproved":true,"items":[],"keys":["American (New)","Lounges"],"lastUpdated":1547527612294,"name":"Risto’s Place","phone":"(704) 872-5557","price":"$$","reviewCount":54,"reviewScore":4,"meta":{"revision":0,"created":1547531151961,"version":0},"$loki":14},{"_id":"5c3d65bd3525a329e0c18ff1","address":"74 8th St SE","location":{"type":"Point","coordinates":[-80.852576,35.792087]},"isApproved":true,"items":[],"keys":["Moroccan","Spanish","Tapas Bars"],"lastUpdated":1547527612832,"name":"Boca","phone":"(828) 855-9944","price":"$$","reviewCount":44,"reviewScore":4.5,"meta":{"revision":0,"created":1547531151961,"version":0},"$loki":15},{"_id":"5c3d65bd3525a329e0c051bc","address":"1826 E Broad St","location":{"type":"Point","coordinates":[-80.8532683,35.7900368]},"isApproved":true,"items":[],"keys":["Fast Food","Sandwiches"],"lastUpdated":1547527612340,"name":"Arby’s","phone":"(704) 872-1662","price":"$","reviewCount":2,"reviewScore":2.5,"meta":{"revision":0,"created":1547531151961,"version":0},"$loki":16},{"_id":"5c3d65bd3525a329e0c06a3a","address":"1813 E Broad St","location":{"type":"Point","coordinates":[-80.853974,35.7908572]},"isApproved":true,"items":[],"keys":["Pizza"],"lastUpdated":1547527612379,"name":"Papa John’s Pizza","phone":"(704) 873-7272","price":"$$","reviewCount":5,"reviewScore":2,"meta":{"revision":0,"created":1547531151961,"version":0},"$loki":17},{"_id":"5c3d65bd3525a329e0c17eb8","address":"4873 Nc Hwy 62","location":{"type":"Point","coordinates":[-80.859308,35.788591]},"isApproved":true,"items":[],"keys":["Barbeque","Breakfast & Brunch"],"lastUpdated":1547527612802,"name":"BBQ Joes","phone":"(336) 476-0474","price":"$","reviewCount":50,"reviewScore":4.5,"meta":{"revision":0,"created":1547531151961,"version":0},"$loki":18},{"_id":"5c3d65bd3525a329e0c0448a","address":"1520 Yadkinville Road","location":{"type":"Point","coordinates":[-80.859293,35.7887289]},"isApproved":true,"items":[],"keys":["Mexican","Tex-Mex","Fast Food"],"lastUpdated":1547527612322,"name":"Taco Bell","phone":"(336) 751-7031","price":"$","reviewCount":4,"reviewScore":3.5,"meta":{"revision":0,"created":1547531151961,"version":0},"$loki":19},{"_id":"5c3d65bd3525a329e0bffac7","address":"3203 Taylorsville Hwy","location":{"type":"Point","coordinates":[-80.8590329,35.7901022]},"isApproved":true,"items":[],"keys":["Coffee & Tea","Burgers","Fast Food"],"lastUpdated":1547527612220,"name":"McDonald’s","phone":"(704) 872-6718","price":"$","reviewCount":6,"reviewScore":2.5,"meta":{"revision":0,"created":1547531151961,"version":0},"$loki":20},{"_id":"5c3d65bd3525a329e0c029db","address":"975 Glenway Dr","location":{"type":"Point","coordinates":[-80.8546226,35.7907377]},"isApproved":true,"items":[],"keys":["Burgers","Fast Food","Coffee & Tea"],"lastUpdated":1547527612286,"name":"McDonald’s","phone":"(704) 871-8545","price":"$","reviewCount":8,"reviewScore":1.5,"meta":{"revision":0,"created":1547531151961,"version":0},"$loki":21},{"_id":"5c3d65bd3525a329e0c0a684","address":"1644 E Broad St","location":{"type":"Point","coordinates":[-80.85629,35.79065]},"isApproved":true,"items":[],"keys":["Pizza"],"lastUpdated":1547527612481,"name":"Little Caesars","phone":"(704) 873-4517","price":"","reviewCount":3,"reviewScore":3.5,"meta":{"revision":0,"created":1547531151961,"version":0},"$loki":22},{"_id":"5c3d65bd3525a329e0c15b42","address":"172 Turnersburg Hwy","location":{"type":"Point","coordinates":[-80.8557,35.791744]},"isApproved":true,"items":[],"keys":["Mexican","Tex-Mex","Fast Food"],"lastUpdated":1547527612753,"name":"Taco Bell","phone":"(704) 872-9560","price":"","reviewCount":9,"reviewScore":2.5,"meta":{"revision":0,"created":1547531151961,"version":0},"$loki":23},{"_id":"5c3d65bd3525a329e0c02612","address":"883 Highland Ave SE","location":{"type":"Point","coordinates":[-80.854447,35.794568]},"isApproved":true,"items":[],"keys":["American (New)","Bars","American (Traditional)","Cocktail Bars"],"lastUpdated":1547527612284,"name":"Highland Avenue","phone":"(828) 267-9800","price":"$$$","reviewCount":68,"reviewScore":4.5,"meta":{"revision":0,"created":1547531151961,"version":0},"$loki":24},{"_id":"5c3d65bd3525a329e0c185cf","address":"1720 US Hwy 601 N","location":{"type":"Point","coordinates":[-80.859889,35.792851]},"isApproved":true,"items":[],"keys":["Fast Food","Chicken Wings"],"lastUpdated":1547527612815,"name":"Popeyes Louisiana Kitchen","phone":"(336) 751-3815","price":"$","reviewCount":6,"reviewScore":3,"meta":{"revision":0,"created":1547531151961,"version":0},"$loki":25},{"_id":"5c3d65bd3525a329e0c05a33","address":"410 Randolph St","location":{"type":"Point","coordinates":[-80.858406,35.7903291]},"isApproved":true,"items":[],"keys":["Asian Fusion"],"lastUpdated":1547527612356,"name":"Mandarin Express","phone":"(336) 476-7878","price":"","reviewCount":6,"reviewScore":4.5,"meta":{"revision":0,"created":1547531151961,"version":0},"$loki":26},{"_id":"5c3d65bd3525a329e0c0eafc","address":"797 Nc Hwy 16 S","location":{"type":"Point","coordinates":[-80.85933,35.79109]},"isApproved":true,"items":[],"keys":["Japanese"],"lastUpdated":1547527612581,"name":"Nikki Japanese Restaurant","phone":"(828) 632-9955","price":"$","reviewCount":4,"reviewScore":4.5,"meta":{"revision":0,"created":1547531151961,"version":0},"$loki":27},{"_id":"5c3d65bd3525a329e0c0ef07","address":"200 E Front St","location":{"type":"Point","coordinates":[-80.8597282,35.7905354]},"isApproved":true,"items":[],"keys":["Pizza"],"lastUpdated":1547527612583,"name":"Marco’s","phone":"(704) 878-8600","price":"$$","reviewCount":8,"reviewScore":2.5,"meta":{"revision":0,"created":1547531151961,"version":0},"$loki":28},{"_id":"5c3d65bd3525a329e0c1af15","address":"1148 Randolph St","location":{"type":"Point","coordinates":[-80.8746617,35.7938515]},"isApproved":true,"items":[],"keys":["Fast Food","Chicken Wings","Salad"],"lastUpdated":1547527612876,"name":"Zaxby’s Chicken Fingers & Buffalo Wings","phone":"(336) 313-8636","price":"$","reviewCount":7,"reviewScore":3,"meta":{"revision":0,"created":1547531151961,"version":0},"$loki":29},{"_id":"5c3d65bd3525a329e0c0f8e3","address":"6835 W Hwy 64","location":{"type":"Point","coordinates":[-80.875937,35.7941812]},"isApproved":true,"items":[],"keys":["Barbeque"],"lastUpdated":1547527612600,"name":"Tarheel Q","phone":"(336) 787-4550","price":"$","reviewCount":19,"reviewScore":4,"meta":{"revision":0,"created":1547531151961,"version":0},"$loki":30},{"_id":"5c3d65bd3525a329e0c18d91","address":"2822 S Main St","location":{"type":"Point","coordinates":[-80.8759802,35.7946495]},"isApproved":true,"items":[],"keys":["Caterers","Barbeque"],"lastUpdated":1547527612831,"name":"Bbq Joe’s Country Cooking & Catering","phone":"(336) 434-4355","price":"$","reviewCount":144,"reviewScore":4.5,"meta":{"revision":0,"created":1547531151961,"version":0},"$loki":31},{"_id":"5c3d65bd3525a329e0c0a6cf","address":"102 Signal Hill Dr","location":{"type":"Point","coordinates":[-80.8752791583538,35.8033331644815]},"isApproved":true,"items":[],"keys":["Fast Food","Mexican"],"lastUpdated":1547527612481,"name":"Taco Bell","phone":"(704) 873-4691","price":"$","reviewCount":13,"reviewScore":2.5,"meta":{"revision":0,"created":1547531151961,"version":0},"$loki":32},{"_id":"5c3d65bd3525a329e0c04adc","address":"2906 Springs Rd","location":{"type":"Point","coordinates":[-80.8759406,35.8048051]},"isApproved":true,"items":[],"keys":["Barbeque"],"lastUpdated":1547527612331,"name":"Caveman ‘Q","phone":"(828) 323-9111","price":"$","reviewCount":5,"reviewScore":4.5,"meta":{"revision":0,"created":1547531151961,"version":0},"$loki":33},{"_id":"5c3d65bd3525a329e0c128ff","address":"11 E Main St","location":{"type":"Point","coordinates":[-80.876171,35.814727]},"isApproved":true,"items":[],"keys":["Southern"],"lastUpdated":1547527612679,"name":"Chair City Tavern","phone":"(336) 313-5509","price":"","reviewCount":17,"reviewScore":4,"meta":{"revision":0,"created":1547531151961,"version":0},"$loki":34},{"_id":"5c3d65bd3525a329e0c10494","address":"3103 Taylorsville Hwy","location":{"type":"Point","coordinates":[-80.8758721,35.8137238]},"isApproved":true,"items":[],"keys":["American (Traditional)"],"lastUpdated":1547527612618,"name":"Boxcar Grille","phone":"(704) 397-9287","price":"$$","reviewCount":28,"reviewScore":3,"meta":{"revision":0,"created":1547531151961,"version":0},"$loki":35},{"_id":"5c3d65bd3525a329e0c1a27c","address":"1033 Randolph St","location":{"type":"Point","coordinates":[-80.8692579,35.8108952]},"isApproved":true,"items":[],"keys":["Mexican"],"lastUpdated":1547527612858,"name":"La Carreta Mexican Restaurant","phone":"(336) 475-0171","price":"$","reviewCount":15,"reviewScore":3,"meta":{"revision":0,"created":1547531151961,"version":0},"$loki":36},{"_id":"5c3d65bd3525a329e0c122f0","address":"885 S Salisbury Ave","location":{"type":"Point","coordinates":[-80.8689553,35.809224]},"isApproved":true,"items":[],"keys":["Barbeque"],"lastUpdated":1547527612669,"name":"CJ’s Bar-B-Cue","phone":"(336) 751-2495","price":"$","reviewCount":9,"reviewScore":3.5,"meta":{"revision":0,"created":1547531151961,"version":0},"$loki":37},{"_id":"5c3d65bd3525a329e0c0d76b","address":"4500 US Hwy 64 90 W","location":{"type":"Point","coordinates":[-80.869654,35.809079]},"isApproved":true,"items":[],"keys":["Breakfast & Brunch","American (Traditional)"],"lastUpdated":1547527612554,"name":"Big D’s Diner & Country Store","phone":"(828) 632-7800","price":"","reviewCount":3,"reviewScore":5,"meta":{"revision":0,"created":1547531151961,"version":0},"$loki":38},{"_id":"5c3d65bd3525a329e0c0939f","address":"308 Mockville Hwy","location":{"type":"Point","coordinates":[-80.8721651,35.8097875]},"isApproved":true,"items":[],"keys":["American (Traditional)","Breakfast & Brunch"],"lastUpdated":1547527612452,"name":"Greenbriar Village Cafe","phone":"(704) 397-2438","price":"$","reviewCount":6,"reviewScore":4,"meta":{"revision":0,"created":1547531151961,"version":0},"$loki":39},{"_id":"5c3d65bd3525a329e0c06252","address":"116 E Main St","location":{"type":"Point","coordinates":[-80.871894,35.808789]},"isApproved":true,"items":[],"keys":["Mexican"],"lastUpdated":1547527612369,"name":"Los Agaves","phone":"(336) 313-6058","price":"","reviewCount":4,"reviewScore":5,"meta":{"revision":0,"created":1547531151961,"version":0},"$loki":40},{"_id":"5c3d65bd3525a329e0c1a55d","address":"31 W 2nd Ave","location":{"type":"Point","coordinates":[-80.8711169,35.8089662]},"isApproved":true,"items":[],"keys":["American (Traditional)"],"lastUpdated":1547527612860,"name":"Village Grill","phone":"(336) 248-5900","price":"$","reviewCount":16,"reviewScore":3.5,"meta":{"revision":0,"created":1547531151961,"version":0},"$loki":41},{"_id":"5c3d65bd3525a329e0c02754","address":"128 N Main St","location":{"type":"Point","coordinates":[-80.8731871,35.8104502]},"isApproved":true,"items":[],"keys":["Coffee & Tea","Desserts","Sandwiches"],"lastUpdated":1547527612284,"name":"The Factory Coffeehouse","phone":"(336) 753-8866","price":"$","reviewCount":21,"reviewScore":4.5,"meta":{"revision":0,"created":1547531151961,"version":0},"$loki":42},{"_id":"5c3d65bd3525a329e0c19ece","address":"817 Raleigh Rd","location":{"type":"Point","coordinates":[-80.87417,35.81028]},"isApproved":true,"items":[],"keys":["Pizza","Sandwiches"],"lastUpdated":1547527612851,"name":"Elizabeth’s Pizza","phone":"(336) 243-2286","price":"$$","reviewCount":13,"reviewScore":3.5,"meta":{"revision":0,"created":1547531151961,"version":0},"$loki":43},{"_id":"5c3d65bd3525a329e0c11abf","address":"110 Signal Hill Dr","location":{"type":"Point","coordinates":[-80.874741,35.812137]},"isApproved":true,"items":[],"keys":["Fast Food","Burgers","Coffee & Tea"],"lastUpdated":1547527612652,"name":"McDonald’s","phone":"(704) 872-4549","price":"$","reviewCount":14,"reviewScore":2.5,"meta":{"revision":0,"created":1547531151961,"version":0},"$loki":44},{"_id":"5c3d65bd3525a329e0bff7a6","address":"132 W Main St","location":{"type":"Point","coordinates":[-80.8762864,35.8121515]},"isApproved":true,"items":[],"keys":["Diners","Southern"],"lastUpdated":1547527612218,"name":"T-Ville Diner","phone":"(336) 472-3322","price":"$","reviewCount":21,"reviewScore":4,"meta":{"revision":0,"created":1547531151961,"version":0},"$loki":45},{"_id":"5c3d65bd3525a329e0c13146","address":"3233 Taylorsville Rd","location":{"type":"Point","coordinates":[-80.8762396,35.8115754]},"isApproved":true,"items":[],"keys":["Italian","Pizza","Salad"],"lastUpdated":1547527612688,"name":"Village Inn Pizza Parlor","phone":"(704) 873-1101","price":"$","reviewCount":6,"reviewScore":3.5,"meta":{"revision":0,"created":1547531151961,"version":0},"$loki":46},{"_id":"5c3d65bd3525a329e0c14052","address":"847 Madison Rd","location":{"type":"Point","coordinates":[-80.8761099,35.8111429]},"isApproved":true,"items":[],"keys":["Burgers","Fast Food"],"lastUpdated":1547527612707,"name":"Burger King","phone":"(336) 751-1204","price":"","reviewCount":5,"reviewScore":1.5,"meta":{"revision":0,"created":1547531151961,"version":0},"$loki":47},{"_id":"5c3d65bd3525a329e0c13660","address":"1322 National Hwy","location":{"type":"Point","coordinates":[-80.8751588,35.8111127]},"isApproved":true,"items":[],"keys":["Breakfast & Brunch"],"lastUpdated":1547527612696,"name":"Bella’s Family Restaurant","phone":"(336) 313-5358","price":"","reviewCount":8,"reviewScore":4,"meta":{"revision":0,"created":1547531151961,"version":0},"$loki":48},{"_id":"5c3d65bd3525a329e0c03ebf","address":"170 N Main St","location":{"type":"Point","coordinates":[-80.8763909,35.8102979]},"isApproved":true,"items":[],"keys":["Caterers","American (Traditional)","Breakfast & Brunch"],"lastUpdated":1547527612313,"name":"Famous Toastery - Downtown Mooresville","phone":"(704) 765-2525","price":"$$","reviewCount":26,"reviewScore":4.5,"meta":{"revision":0,"created":1547531151961,"version":0},"$loki":49},{"_id":"5c3d65bd3525a329e0c0412e","address":"215 National Hwy","location":{"type":"Point","coordinates":[-80.8760883,35.8094719]},"isApproved":true,"items":[],"keys":["Japanese"],"lastUpdated":1547527612320,"name":"Arikato Hibachi Grill Express","phone":"(336) 475-1990","price":"","reviewCount":1,"reviewScore":5,"meta":{"revision":0,"created":1547531151961,"version":0},"$loki":50},{"_id":"5c3d65bd3525a329e0c065e5","address":"885 W Main Ave","location":{"type":"Point","coordinates":[-80.8742,35.8097]},"isApproved":true,"items":[],"keys":["Chinese"],"lastUpdated":1547527612377,"name":"Oriental Cafe Chinese Restaurant","phone":"(828) 632-6868","price":"","reviewCount":5,"reviewScore":3,"meta":{"revision":0,"created":1547531151961,"version":0},"$loki":51},{"_id":"5c3d65bd3525a329e0c06548","address":"1115 Glenway Dr","location":{"type":"Point","coordinates":[-80.8769666031003,35.8122845030054]},"isApproved":true,"items":[],"keys":["Sports Bars","Burgers","American (Traditional)"],"lastUpdated":1547527612377,"name":"Applebee’s Grill + Bar","phone":"(704) 838-0052","price":"$$","reviewCount":13,"reviewScore":2.5,"meta":{"revision":0,"created":1547531151961,"version":0},"$loki":52},{"_id":"5c3d65bd3525a329e0c117da","address":"1737 Wilkesboro Hwy","location":{"type":"Point","coordinates":[-80.8765505254269,35.8124258847852]},"isApproved":true,"items":[],"keys":["Barbeque","American (Traditional)","Chicken Wings"],"lastUpdated":1547527612650,"name":"Ol’ Bob’s BBQ & Catering","phone":"(704) 871-1998","price":"$","reviewCount":19,"reviewScore":3.5,"meta":{"revision":0,"created":1547531151961,"version":0},"$loki":53},{"_id":"5c3d65bd3525a329e0c13bdb","address":"1525 Salisbury Rd","location":{"type":"Point","coordinates":[-80.8772241,35.8150935]},"isApproved":true,"items":[],"keys":["Mexican","Seafood"],"lastUpdated":1547527612704,"name":"Taqueria Tacontento","phone":"(704) 871-0734","price":"$","reviewCount":18,"reviewScore":4.5,"meta":{"revision":0,"created":1547531151961,"version":0},"$loki":54},{"_id":"5c3d65bd3525a329e0c075a8","address":"2181 Old Mountain Rd","location":{"type":"Point","coordinates":[-80.877647,35.818571]},"isApproved":true,"items":[],"keys":["Chinese"],"lastUpdated":1547527612401,"name":"China One","phone":"(704) 871-8788","price":"$","reviewCount":6,"reviewScore":3.5,"meta":{"revision":0,"created":1547531151961,"version":0},"$loki":55},{"_id":"5c3d65bd3525a329e0c13c51","address":"1244 Fairview Dr","location":{"type":"Point","coordinates":[-80.8774499,35.8186826]},"isApproved":true,"items":[],"keys":["Comfort Food"],"lastUpdated":1547527612705,"name":"Cagney’s Kitchen","phone":"(336) 300-7960","price":"$","reviewCount":26,"reviewScore":3,"meta":{"revision":0,"created":1547531151961,"version":0},"$loki":56},{"_id":"5c3d65bd3525a329e0c18ba9","address":"1411 Salisbury Rd","location":{"type":"Point","coordinates":[-80.8771473,35.8044599]},"isApproved":true,"items":[],"keys":["Mexican","Beer, Wine & Spirits","Cupcakes"],"lastUpdated":1547527612824,"name":"El Sabor Latino","phone":"(704) 380-4339","price":"","reviewCount":3,"reviewScore":4,"meta":{"revision":0,"created":1547531151961,"version":0},"$loki":57},{"_id":"5c3d65bd3525a329e0c18c3d","address":"14 W Guilford St","location":{"type":"Point","coordinates":[-80.8765431,35.8043058]},"isApproved":true,"items":[],"keys":["Salvadoran","Mexican","Spanish"],"lastUpdated":1547527612824,"name":"Taco Lopez","phone":"(336) 472-1566","price":"$","reviewCount":16,"reviewScore":4.5,"meta":{"revision":0,"created":1547531151961,"version":0},"$loki":58},{"_id":"5c3d65bd3525a329e0c13c94","address":"140 N Clement St","location":{"type":"Point","coordinates":[-80.8838294232568,35.7881675180588]},"isApproved":true,"items":[],"keys":["Barbeque"],"lastUpdated":1547527612705,"name":"Deano’s Barbecue","phone":"(336) 751-5820","price":"$","reviewCount":21,"reviewScore":4,"meta":{"revision":0,"created":1547531151961,"version":0},"$loki":59},{"_id":"5c3d65bd3525a329e0c0fa6e","address":"255 N Center St","location":{"type":"Point","coordinates":[-80.8905036,35.7876811]},"isApproved":true,"items":[],"keys":["Fast Food","American (Traditional)"],"lastUpdated":1547527612601,"name":"Hardee’s Hamburgers","phone":"(704) 873-5853","price":"$","reviewCount":9,"reviewScore":1.5,"meta":{"revision":0,"created":1547531151961,"version":0},"$loki":60},{"_id":"5c3d65bd3525a329e0c184aa","address":"1841 E Broad St","location":{"type":"Point","coordinates":[-80.8877496528719,35.7850445637908]},"isApproved":true,"items":[],"keys":["Mexican","Beer Bar","Cocktail Bars"],"lastUpdated":1547527612814,"name":"Los Compadres Mexican Grill","phone":"(704) 775-4004","price":"$$","reviewCount":34,"reviewScore":4.5,"meta":{"revision":0,"created":1547531151961,"version":0},"$loki":61},{"_id":"5c3d65bd3525a329e0c12e52","address":"116 W Broad St","location":{"type":"Point","coordinates":[-80.8882129,35.7848857]},"isApproved":true,"items":[],"keys":["Mexican"],"lastUpdated":1547527612681,"name":"Tacontento Mexican Restaurant","phone":"(704) 380-4590","price":"","reviewCount":1,"reviewScore":4,"meta":{"revision":0,"created":1547531151961,"version":0},"$loki":62},{"_id":"5c3d65bd3525a329e0c0d9dd","address":"710 Wilkesboro St","location":{"type":"Point","coordinates":[-80.8877158,35.7842772]},"isApproved":true,"items":[],"keys":["American (Traditional)"],"lastUpdated":1547527612555,"name":"Miller’s Restaurant","phone":"(336) 751-2621","price":"$","reviewCount":21,"reviewScore":4,"meta":{"revision":0,"created":1547531151961,"version":0},"$loki":63},{"_id":"5c3d65bd3525a329e0c0968b","address":"183 Turnersburg Hwy","location":{"type":"Point","coordinates":[-80.8890773,35.7846556]},"isApproved":true,"items":[],"keys":["Sandwiches"],"lastUpdated":1547527612454,"name":"Jimmy John’s","phone":"(704) 380-4527","price":"","reviewCount":4,"reviewScore":3.5,"meta":{"revision":0,"created":1547531151961,"version":0},"$loki":64},{"_id":"5c3d65bd3525a329e0c0f709","address":"1421 Yadkinville Rd","location":{"type":"Point","coordinates":[-80.8891637,35.7846622]},"isApproved":true,"items":[],"keys":["Japanese","Sushi Bars"],"lastUpdated":1547527612599,"name":"Shiki of Mocksville","phone":"(336) 936-0011","price":"$$","reviewCount":29,"reviewScore":3.5,"meta":{"revision":0,"created":1547531151961,"version":0},"$loki":65},{"_id":"5c3d65bd3525a329e0c19cc6","address":"1640 10th Ave NE","location":{"type":"Point","coordinates":[-80.889595,35.7845259]},"isApproved":true,"items":[],"keys":["American (Traditional)"],"lastUpdated":1547527612850,"name":"Parkway House","phone":"(828) 855-9189","price":"","reviewCount":11,"reviewScore":3,"meta":{"revision":0,"created":1547531151961,"version":0},"$loki":66},{"_id":"5c3d65bd3525a329e0c0439c","address":"17365 Cool Springs Rd","location":{"type":"Point","coordinates":[-80.889157,35.785296]},"isApproved":true,"items":[],"keys":["Barbeque"],"lastUpdated":1547527612321,"name":"Keaton’s Barbecue","phone":"(704) 278-1619","price":"$","reviewCount":50,"reviewScore":4,"meta":{"revision":0,"created":1547531151961,"version":0},"$loki":67},{"_id":"5c3d65bd3525a329e0c0f8eb","address":"119 Marshall Forest Ln","location":{"type":"Point","coordinates":[-80.889009,35.785377]},"isApproved":true,"items":[],"keys":["Caterers","Barbeque"],"lastUpdated":1547527612600,"name":"Port A Pit Barbque","phone":"(704) 872-9778","price":"$","reviewCount":13,"reviewScore":4.5,"meta":{"revision":0,"created":1547531151961,"version":0},"$loki":68},{"_id":"5c3d65bd3525a329e0c1a2cc","address":"404 National Blvd","location":{"type":"Point","coordinates":[-80.8895095,35.7853226]},"isApproved":true,"items":[],"keys":["Bars","American (Traditional)"],"lastUpdated":1547527612858,"name":"Olde Well Tavern","phone":"(336) 843-2097","price":"$$","reviewCount":7,"reviewScore":5,"meta":{"revision":0,"created":1547531151961,"version":0},"$loki":69},{"_id":"5c3d65bd3525a329e0c1a81c","address":"252 Turnersburg Hwy.","location":{"type":"Point","coordinates":[-80.8901287,35.7840606]},"isApproved":true,"items":[],"keys":["Fast Food","Delis","Sandwiches"],"lastUpdated":1547527612867,"name":"Jersey Mike’s Subs","phone":"(704) 380-4011","price":"","reviewCount":13,"reviewScore":2,"meta":{"revision":0,"created":1547531151961,"version":0},"$loki":70},{"_id":"5c3d65bd3525a329e0c02773","address":"207 South Oakland Ave","location":{"type":"Point","coordinates":[-80.8885823,35.7837369]},"isApproved":true,"items":[],"keys":["Breakfast & Brunch","American (Traditional)","Hot Dogs"],"lastUpdated":1547527612284,"name":"Son Rise Cafe","phone":"(704) 878-9338","price":"$","reviewCount":9,"reviewScore":4,"meta":{"revision":0,"created":1547531151961,"version":0},"$loki":71},{"_id":"5c3d65bd3525a329e0c19a37","address":"115 S Center St","location":{"type":"Point","coordinates":[-80.8879103,35.7830871]},"isApproved":true,"items":[],"keys":["Italian"],"lastUpdated":1547527612848,"name":"Mezzaluna II","phone":"(704) 872-7230","price":"$$","reviewCount":33,"reviewScore":4,"meta":{"revision":0,"created":1547531151961,"version":0},"$loki":72},{"_id":"5c3d65bd3525a329e0c030c3","address":"101 N Main St","location":{"type":"Point","coordinates":[-80.8907413,35.7841691]},"isApproved":true,"items":[],"keys":["American (Traditional)"],"lastUpdated":1547527612295,"name":"Restaurant 101","phone":"(336) 753-0101","price":"$$","reviewCount":50,"reviewScore":4,"meta":{"revision":0,"created":1547531151961,"version":0},"$loki":73},{"_id":"5c3d65bd3525a329e0c00d9b","address":"1449 Wilkesboro Hwy","location":{"type":"Point","coordinates":[-80.8908399,35.7841512]},"isApproved":true,"items":[],"keys":["Waffles"],"lastUpdated":1547527612237,"name":"Coffee House Waffle Shop","phone":"(704) 873-5038","price":"$","reviewCount":9,"reviewScore":2.5,"meta":{"revision":0,"created":1547531151961,"version":0},"$loki":74},{"_id":"5c3d65bd3525a329e0c0e2d5","address":"1531 Cinema Dr","location":{"type":"Point","coordinates":[-80.8910222,35.7841271]},"isApproved":true,"items":[],"keys":["Chinese"],"lastUpdated":1547527612566,"name":"Rice Fun","phone":"(704) 873-6998","price":"$","reviewCount":34,"reviewScore":3.5,"meta":{"revision":0,"created":1547531151961,"version":0},"$loki":75},{"_id":"5c3d65bd3525a329e0c13287","address":"828 Winston Rd","location":{"type":"Point","coordinates":[-80.8848415,35.7684782]},"isApproved":true,"items":[],"keys":["Pizza"],"lastUpdated":1547527612689,"name":"Times Square Pizzeria","phone":"(336) 242-7992","price":"$","reviewCount":24,"reviewScore":4.5,"meta":{"revision":0,"created":1547531151961,"version":0},"$loki":76},{"_id":"5c3d65bd3525a329e0c09695","address":"1410 4th St Dr NW","location":{"type":"Point","coordinates":[-80.8847767,35.7699321]},"isApproved":true,"items":[],"keys":["American (New)"],"lastUpdated":1547527612454,"name":"Fourk","phone":"(828) 855-3437","price":"$$","reviewCount":75,"reviewScore":4.5,"meta":{"revision":0,"created":1547531151961,"version":0},"$loki":77},{"_id":"5c3d65bd3525a329e0c17375","address":"1112 Yadkinville Rd","location":{"type":"Point","coordinates":[-80.8839986,35.7699574]},"isApproved":true,"items":[],"keys":["Chicken Wings","American (Traditional)"],"lastUpdated":1547527612783,"name":"East Coast Wings & Grill","phone":"(336) 751-9464","price":"$$","reviewCount":12,"reviewScore":3.5,"meta":{"revision":0,"created":1547531151961,"version":0},"$loki":78},{"_id":"5c3d65bd3525a329e0c15d97","address":"4431 Hwy 150","location":{"type":"Point","coordinates":[-80.8845173,35.7831037]},"isApproved":true,"items":[],"keys":["Pizza"],"lastUpdated":1547527612755,"name":"Pizza Hut Express","phone":"","price":"","reviewCount":2,"reviewScore":3.5,"meta":{"revision":0,"created":1547531151961,"version":0},"$loki":79},{"_id":"5c3d65bd3525a329e0c0790f","address":"1875 E Broad St","location":{"type":"Point","coordinates":[-80.8872959,35.7826363]},"isApproved":true,"items":[],"keys":["Chicken Wings","Salad","American (Traditional)"],"lastUpdated":1547527612409,"name":"East Coast Wings & Grill","phone":"(704) 873-8777","price":"$$","reviewCount":24,"reviewScore":2.5,"meta":{"revision":0,"created":1547531151961,"version":0},"$loki":80},{"_id":"5c3d65bd3525a329e0c0138a","address":"12 Commerce St","location":{"type":"Point","coordinates":[-80.8859176635742,35.7858505249023]},"isApproved":true,"items":[],"keys":["Delis"],"lastUpdated":1547527612248,"name":"JJ’s Side Street Deli","phone":"(336) 479-3015","price":"","reviewCount":2,"reviewScore":5,"meta":{"revision":0,"created":1547531151961,"version":0},"$loki":81},{"_id":"5c3d65bd3525a329e0c0c8d7","address":"206 National Hwy","location":{"type":"Point","coordinates":[-80.883912,35.7841839]},"isApproved":true,"items":[],"keys":["Barbeque"],"lastUpdated":1547527612526,"name":"Tommy’s Barbecue","phone":"(336) 476-4322","price":"$","reviewCount":20,"reviewScore":4,"meta":{"revision":0,"created":1547531151961,"version":0},"$loki":82},{"_id":"5c3d65bd3525a329e0c14213","address":"1210 Snider Kines Rd","location":{"type":"Point","coordinates":[-80.8795897,35.7856033]},"isApproved":true,"items":[],"keys":["American (Traditional)"],"lastUpdated":1547527612713,"name":"Bill’s Truck Stop Restaurant","phone":"(336) 956-4494","price":"$","reviewCount":23,"reviewScore":4,"meta":{"revision":0,"created":1547531151961,"version":0},"$loki":83},{"_id":"5c3d65bd3525a329e0c05a3b","address":"17 W 7th Ave","location":{"type":"Point","coordinates":[-80.862376,35.7818399]},"isApproved":true,"items":[],"keys":["Mexican"],"lastUpdated":1547527612356,"name":"Fonda Y Taqueria Lupitas","phone":"(336) 249-9207","price":"$","reviewCount":15,"reviewScore":4.5,"meta":{"revision":0,"created":1547531151961,"version":0},"$loki":84},{"_id":"5c3d65bd3525a329e0c03d1b","address":"21 W Main St","location":{"type":"Point","coordinates":[-80.86043,35.782971]},"isApproved":true,"items":[],"keys":["American (Traditional)"],"lastUpdated":1547527612313,"name":"S & S Grill","phone":"(336) 475-3417","price":"$","reviewCount":6,"reviewScore":4,"meta":{"revision":0,"created":1547531151961,"version":0},"$loki":85},{"_id":"5c3d65bd3525a329e0c1123e","address":"213 Salisbury Rd","location":{"type":"Point","coordinates":[-80.8607521870152,35.782616392529]},"isApproved":true,"items":[],"keys":["Barbeque","Breakfast & Brunch","American (Traditional)"],"lastUpdated":1547527612642,"name":"Randy’s Bar B Que","phone":"(704) 873-4444","price":"","reviewCount":2,"reviewScore":4.5,"meta":{"revision":0,"created":1547531151961,"version":0},"$loki":86},{"_id":"5c3d65bd3525a329e0c0e7eb","address":"1971 Cotton Grove Rd","location":{"type":"Point","coordinates":[-80.8622973,35.7829324]},"isApproved":true,"items":[],"keys":["Japanese","Steakhouses","Seafood"],"lastUpdated":1547527612574,"name":"Kabuki Japanese Seafood & Steak","phone":"(336) 237-0657","price":"$$","reviewCount":13,"reviewScore":4,"meta":{"revision":0,"created":1547531151961,"version":0},"$loki":87},{"_id":"5c3d65bd3525a329e0c12125","address":"5135 Taylorsville Hwy","location":{"type":"Point","coordinates":[-80.859876,35.7829168]},"isApproved":true,"items":[],"keys":["Seafood"],"lastUpdated":1547527612663,"name":"Captain’s Galley","phone":"(704) 585-6201","price":"$","reviewCount":8,"reviewScore":4.5,"meta":{"revision":0,"created":1547531151961,"version":0},"$loki":88},{"_id":"5c3d65bd3525a329e0c1a16f","address":"1102 Salisbury Rd","location":{"type":"Point","coordinates":[-80.8625,35.7745]},"isApproved":true,"items":[],"keys":["Chicken Wings","Fast Food","Chicken Shop"],"lastUpdated":1547527612857,"name":"KFC","phone":"(704) 873-8821","price":"$","reviewCount":3,"reviewScore":1,"meta":{"revision":0,"created":1547531151961,"version":0},"$loki":89},{"_id":"5c3d65bd3525a329e0c07ef9","address":"1230 Yadkinville Rd","location":{"type":"Point","coordinates":[-80.861724,35.7724574]},"isApproved":true,"items":[],"keys":["Fast Food","Chicken Wings","Chicken Shop"],"lastUpdated":1547527612417,"name":"KFC","phone":"(336) 753-3000","price":"$","reviewCount":6,"reviewScore":1.5,"meta":{"revision":0,"created":1547531151961,"version":0},"$loki":90},{"_id":"5c3d65bd3525a329e0c0e31b","address":"1004 Crossroads Dr","location":{"type":"Point","coordinates":[-80.8558807522058,35.7706336250305]},"isApproved":true,"items":[],"keys":["Italian"],"lastUpdated":1547527612572,"name":"Sorrento Pizzeria & Italian Restaurant","phone":"(704) 878-0550","price":"$$","reviewCount":60,"reviewScore":4,"meta":{"revision":0,"created":1547531151961,"version":0},"$loki":91},{"_id":"5c3d65bd3525a329e0c03da8","address":"228 Turnersburg Hwy","location":{"type":"Point","coordinates":[-80.8560333,35.7706059]},"isApproved":true,"items":[],"keys":["Fast Food"],"lastUpdated":1547527612313,"name":"Chick-fil-A","phone":"(704) 881-0002","price":"$","reviewCount":15,"reviewScore":4,"meta":{"revision":0,"created":1547531151961,"version":0},"$loki":92},{"_id":"5c3d65bd3525a329e0bfff94","address":"220 S Center St","location":{"type":"Point","coordinates":[-80.8544588461518,35.7692661143379]},"isApproved":true,"items":[],"keys":["Bars","American (New)"],"lastUpdated":1547527612223,"name":"220 Cafe","phone":"(704) 873-7779","price":"$$","reviewCount":63,"reviewScore":4,"meta":{"revision":0,"created":1547531151961,"version":0},"$loki":93},{"_id":"5c3d65bd3525a329e0c0d159","address":"883 Highland Ave SE","location":{"type":"Point","coordinates":[-80.854416,35.768714]},"isApproved":true,"items":[],"keys":["Ice Cream & Frozen Yogurt","Coffee & Tea","Breakfast & Brunch"],"lastUpdated":1547527612545,"name":"Di’lishi Frozen Yogurt Bar","phone":"(828) 855-9553","price":"$","reviewCount":18,"reviewScore":5,"meta":{"revision":0,"created":1547531151961,"version":0},"$loki":94},{"_id":"5c3d65bd3525a329e0c10a67","address":"181 Turnersburg Hwy","location":{"type":"Point","coordinates":[-80.859487,35.771152]},"isApproved":true,"items":[],"keys":["Fast Food","Burgers","Hot Dogs"],"lastUpdated":1547527612631,"name":"Cook Out","phone":"(704) 878-8722","price":"$","reviewCount":25,"reviewScore":3.5,"meta":{"revision":0,"created":1547531151961,"version":0},"$loki":95},{"_id":"5c3d65bd3525a329e0c11371","address":"1529 E Broad St","location":{"type":"Point","coordinates":[-80.8667903020978,35.7705596326128]},"isApproved":true,"items":[],"keys":["Chinese"],"lastUpdated":1547527612642,"name":"Dragon Golden Chinese Restaurant","phone":"(704) 872-1081","price":"$","reviewCount":6,"reviewScore":2.5,"meta":{"revision":0,"created":1547531151961,"version":0},"$loki":96},{"_id":"5c3d65bd3525a329e0c14480","address":"706 Sullivan Rd","location":{"type":"Point","coordinates":[-80.8675935,35.772865]},"isApproved":true,"items":[],"keys":["Diners","Breakfast & Brunch","American (Traditional)"],"lastUpdated":1547527612714,"name":"Waffle House","phone":"(704) 873-0099","price":"$","reviewCount":6,"reviewScore":3,"meta":{"revision":0,"created":1547531151961,"version":0},"$loki":97},{"_id":"5c3d65bd3525a329e0c0beac","address":"100 Smokehouse Ln","location":{"type":"Point","coordinates":[-80.8893366,35.7551188]},"isApproved":true,"items":[],"keys":["Barbeque"],"lastUpdated":1547527612515,"name":"Lexington Barbecue","phone":"(336) 249-9814","price":"$","reviewCount":388,"reviewScore":4,"meta":{"revision":0,"created":1547531151961,"version":0},"$loki":98},{"_id":"5c3d65bd3525a329e0c074c8","address":"4577 N Carolina Hwy 150","location":{"type":"Point","coordinates":[-80.8727596,35.8328391]},"isApproved":true,"items":[],"keys":["Seafood"],"lastUpdated":1547527612400,"name":"Stone Creek Seafood","phone":"(336) 731-8470","price":"$$","reviewCount":10,"reviewScore":3.5,"meta":{"revision":0,"created":1547531151961,"version":0},"$loki":99},{"_id":"5c3d65bd3525a329e0c0731b","address":"1370 US Hwy 601 S","location":{"type":"Point","coordinates":[-80.8703819,35.8357419]},"isApproved":true,"items":[],"keys":["Southern","American (Traditional)"],"lastUpdated":1547527612399,"name":"Kents Kitchen","phone":"(336) 751-5368","price":"$","reviewCount":5,"reviewScore":4,"meta":{"revision":0,"created":1547531151961,"version":0},"$loki":100},{"_id":"5c3d65bd3525a329e0c19ef8","address":"979 Folger Dr","location":{"type":"Point","coordinates":[-80.8707806571868,35.8365878901818]},"isApproved":true,"items":[],"keys":["Steakhouses"],"lastUpdated":1547527612851,"name":"Outback Steakhouse","phone":"(704) 838-1818","price":"$$","reviewCount":42,"reviewScore":3.5,"meta":{"revision":0,"created":1547531151961,"version":0},"$loki":101},{"_id":"5c3d65bd3525a329e0c17dde","address":"3888 Section House Rd","location":{"type":"Point","coordinates":[-80.8624054,35.8465603]},"isApproved":true,"items":[],"keys":["Southern","Desserts","Breakfast & Brunch"],"lastUpdated":1547527612801,"name":"Gold Mine Café","phone":"(828) 256-2640","price":"$","reviewCount":6,"reviewScore":4.5,"meta":{"revision":0,"created":1547531151961,"version":0},"$loki":102},{"_id":"5c3d65bd3525a329e0c10785","address":"110 Court St","location":{"type":"Point","coordinates":[-80.3121271,35.7646901]},"isApproved":true,"items":[],"keys":["American (New)","Coffee & Tea","Breakfast & Brunch"],"lastUpdated":1547527612619,"name":"Bristol Cafe and Catering","phone":"(704) 775-4846","price":"$$","reviewCount":19,"reviewScore":4,"meta":{"revision":0,"created":1547531151961,"version":0},"$loki":103},{"_id":"5c3d65bd3525a329e0c0c4c3","address":"3001 Wilkesboro Hwy","location":{"type":"Point","coordinates":[-80.3466799,35.7559919]},"isApproved":true,"items":[],"keys":["Barbeque"],"lastUpdated":1547527612524,"name":"Chuck’s Barbecue & Grill","phone":"(704) 876-4414","price":"$","reviewCount":7,"reviewScore":4.5,"meta":{"revision":0,"created":1547531151961,"version":0},"$loki":104},{"_id":"5c3d65bd3525a329e0c00ad5","address":"4423 S Nc Highway 150","location":{"type":"Point","coordinates":[-80.3739988,35.809045]},"isApproved":true,"items":[],"keys":["Pizza","Italian","Chicken Wings"],"lastUpdated":1547527612230,"name":"Pizza Hut","phone":"(336) 242-9119","price":"$$","reviewCount":1,"reviewScore":3,"meta":{"revision":0,"created":1547531151961,"version":0},"$loki":105},{"_id":"5c3d65bd3525a329e0c02e34","address":"295 N Talbert Blvd","location":{"type":"Point","coordinates":[-80.3743862379263,35.8074350490189]},"isApproved":true,"items":[],"keys":["Restaurants"],"lastUpdated":1547527612294,"name":"Silver Diner","phone":"(336) 236-7000","price":"$","reviewCount":12,"reviewScore":2,"meta":{"revision":0,"created":1547531151961,"version":0},"$loki":106},{"_id":"5c3d65bd3525a329e0c0e356","address":"221 1st Ave NW","location":{"type":"Point","coordinates":[-80.3743307,35.8077331]},"isApproved":true,"items":[],"keys":["Sandwiches","Cafes","Arcades"],"lastUpdated":1547527612572,"name":"The Hickory Cafe & Arcade","phone":"(828) 327-9444","price":"$","reviewCount":6,"reviewScore":4,"meta":{"revision":0,"created":1547531151961,"version":0},"$loki":107},{"_id":"5c3d65bd3525a329e0c058fc","address":"118 Venture Ln","location":{"type":"Point","coordinates":[-80.3759995,35.8068404]},"isApproved":true,"items":[],"keys":["Italian","Pizza","Sandwiches"],"lastUpdated":1547527612355,"name":"Vesuvio’s Italian Restaurant & Pizzeria","phone":"(704) 924-7464","price":"$$","reviewCount":31,"reviewScore":3.5,"meta":{"revision":0,"created":1547531151961,"version":0},"$loki":108},{"_id":"5c3d65bd3525a329e0c07283","address":"3664 N Carolina Hwy 8","location":{"type":"Point","coordinates":[-80.382091,35.857476]},"isApproved":true,"items":[],"keys":["Barbeque"],"lastUpdated":1547527612399,"name":"Speedy Lohr’s BBQ","phone":"(336) 242-9195","price":"$","reviewCount":41,"reviewScore":4.5,"meta":{"revision":0,"created":1547531151961,"version":0},"$loki":109},{"_id":"5c3d65bd3525a329e0c144f3","address":"13 N Main St","location":{"type":"Point","coordinates":[-80.302556,35.789934]},"isApproved":true,"items":[],"keys":["Pizza","Comfort Food","Sandwiches"],"lastUpdated":1547527612715,"name":"Main Street Pizza & Deli","phone":"(336) 249-2233","price":"$","reviewCount":16,"reviewScore":4,"meta":{"revision":0,"created":1547531151961,"version":0},"$loki":110},{"_id":"5c3d65bd3525a329e0c00481","address":"10 1st Ave NW","location":{"type":"Point","coordinates":[-80.2811306,35.8043202]},"isApproved":true,"items":[],"keys":["Fast Food","French","American (New)"],"lastUpdated":1547527612226,"name":"Hot Potato","phone":"(828) 855-9222","price":"$$","reviewCount":10,"reviewScore":3,"meta":{"revision":0,"created":1547531151961,"version":0},"$loki":111},{"_id":"5c3d65bd3525a329e0c0c9a3","address":"60 Mocksville Rd","location":{"type":"Point","coordinates":[-80.2771006,35.8333032]},"isApproved":true,"items":[],"keys":["Fast Food"],"lastUpdated":1547527612526,"name":"Bojangles","phone":"","price":"","reviewCount":2,"reviewScore":4.5,"meta":{"revision":0,"created":1547531151961,"version":0},"$loki":112},{"_id":"5c3d65bd3525a329e0c0e513","address":"217 W US Hwy 64","location":{"type":"Point","coordinates":[-80.2750127,35.8317866]},"isApproved":true,"items":[],"keys":["Mexican"],"lastUpdated":1547527612573,"name":"Guadalajara Mexican Grill","phone":"(336) 236-2220","price":"","reviewCount":7,"reviewScore":3.5,"meta":{"revision":0,"created":1547531151961,"version":0},"$loki":113},{"_id":"5c3d65bd3525a329e0c114e6","address":"75 Plaza Pkwy","location":{"type":"Point","coordinates":[-80.274574,35.831738]},"isApproved":true,"items":[],"keys":["Fast Food"],"lastUpdated":1547527612643,"name":"Chick-Fil-A","phone":"(336) 242-9527","price":"$","reviewCount":10,"reviewScore":4,"meta":{"revision":0,"created":1547531151961,"version":0},"$loki":114},{"_id":"5c3d65bd3525a329e0c1078d","address":"1043 Glenway Dr","location":{"type":"Point","coordinates":[-80.2749731968229,35.8332030826706]},"isApproved":true,"items":[],"keys":["Breakfast & Brunch","Southern","American (Traditional)"],"lastUpdated":1547527612619,"name":"Cracker Barrel Old Country Store","phone":"(704) 878-0366","price":"$$","reviewCount":28,"reviewScore":3,"meta":{"revision":0,"created":1547531151961,"version":0},"$loki":115},{"_id":"5c3d65bd3525a329e0c1740f","address":"6999 Old Us Hwy 52 S","location":{"type":"Point","coordinates":[-80.2727701,35.828038]},"isApproved":true,"items":[],"keys":["Burgers","Fast Food"],"lastUpdated":1547527612789,"name":"Nick’s Old Fashioned Hamburger House","phone":"(336) 731-6500","price":"$","reviewCount":59,"reviewScore":4.5,"meta":{"revision":0,"created":1547531151961,"version":0},"$loki":116},{"_id":"5c3d65bd3525a329e0c05c78","address":"12 Plaza Pkwy","location":{"type":"Point","coordinates":[-80.2682099,35.8316012]},"isApproved":true,"items":[],"keys":["Breakfast & Brunch","American (Traditional)","Southern"],"lastUpdated":1547527612357,"name":"Cracker Barrel Old Country Store","phone":"(336) 242-1212","price":"$","reviewCount":20,"reviewScore":3.5,"meta":{"revision":0,"created":1547531151961,"version":0},"$loki":117},{"_id":"5c3d65bd3525a329e0c0c0e0","address":"193 Crawford Rd","location":{"type":"Point","coordinates":[-80.2666568462766,35.8341909714173]},"isApproved":true,"items":[],"keys":["Cafes"],"lastUpdated":1547527612516,"name":"Sunshine’s Cafe","phone":"(704) 873-1529","price":"$","reviewCount":16,"reviewScore":4.5,"meta":{"revision":0,"created":1547531151961,"version":0},"$loki":118},{"_id":"5c3d65bd3525a329e0c10d5d","address":"108 Landson Dr","location":{"type":"Point","coordinates":[-80.2557416,35.836231]},"isApproved":true,"items":[],"keys":["Seafood","Fast Food"],"lastUpdated":1547527612633,"name":"Long John Silver’s","phone":"(980) 223-2190","price":"","reviewCount":5,"reviewScore":2.5,"meta":{"revision":0,"created":1547531151961,"version":0},"$loki":119},{"_id":"5c3d65bd3525a329e0c09ee4","address":"1311 W Front St","location":{"type":"Point","coordinates":[-80.2536945,35.8441235]},"isApproved":true,"items":[],"keys":["Restaurants"],"lastUpdated":1547527612471,"name":"Williams Friendly Family Restaurant","phone":"(704) 872-1274","price":"$","reviewCount":1,"reviewScore":4,"meta":{"revision":0,"created":1547531151961,"version":0},"$loki":120},{"_id":"5c3d65bd3525a329e0c0206d","address":"238 Union Sq NW","location":{"type":"Point","coordinates":[-80.2535252514212,35.8426649626556]},"isApproved":true,"items":[],"keys":["Sushi Bars","Wine Bars"],"lastUpdated":1547527612275,"name":"Hickory Wine Shoppe","phone":"(828) 324-4441","price":"$$","reviewCount":9,"reviewScore":4.5,"meta":{"revision":0,"created":1547531151961,"version":0},"$loki":121},{"_id":"5c3d65bd3525a329e0c11e43","address":"179 Turnersburg Hwy","location":{"type":"Point","coordinates":[-80.24438906461,35.8347700135305]},"isApproved":true,"items":[],"keys":["Salad","Pizza"],"lastUpdated":1547527612662,"name":"Cicis","phone":"(704) 380-9449","price":"","reviewCount":6,"reviewScore":2.5,"meta":{"revision":0,"created":1547531151961,"version":0},"$loki":122},{"_id":"5c3d65bd3525a329e0c12101","address":"226 Brookdale Dr","location":{"type":"Point","coordinates":[-80.2433274,35.8346699]},"isApproved":true,"items":[],"keys":["Barbeque"],"lastUpdated":1547527612663,"name":"Little Pigs Barbecue","phone":"(704) 872-3741","price":"$","reviewCount":15,"reviewScore":3,"meta":{"revision":0,"created":1547531151961,"version":0},"$loki":123},{"_id":"5c3d65bd3525a329e0c0f534","address":"19 N Main St","location":{"type":"Point","coordinates":[-80.2534332,35.838448]},"isApproved":true,"items":[],"keys":["Bagels","Coffee & Tea","Sandwiches"],"lastUpdated":1547527612592,"name":"Bagels And More On Main","phone":"(336) 300-8088","price":"$","reviewCount":15,"reviewScore":4,"meta":{"revision":0,"created":1547531151961,"version":0},"$loki":124},{"_id":"5c3d65bd3525a329e0c0750f","address":"6160 Petra Mill Rd","location":{"type":"Point","coordinates":[-80.2531936,35.8394623]},"isApproved":true,"items":[],"keys":["Barbeque"],"lastUpdated":1547527612400,"name":"Sims Country BBQ","phone":"(828) 396-5811","price":"$$","reviewCount":16,"reviewScore":4,"meta":{"revision":0,"created":1547531151961,"version":0},"$loki":125},{"_id":"5c3d65bd3525a329e0c006e4","address":"2149 N Center St","location":{"type":"Point","coordinates":[-80.253877,35.8387922]},"isApproved":true,"items":[],"keys":["Pool & Billiards","Bars","Chicken Wings"],"lastUpdated":1547527612227,"name":"Shooters Sports Lounge","phone":"(828) 578-6595","price":"$$","reviewCount":4,"reviewScore":4,"meta":{"revision":0,"created":1547531151961,"version":0},"$loki":126},{"_id":"5c3d65bd3525a329e0c06db9","address":"1030 Springs Rd","location":{"type":"Point","coordinates":[-80.2538687,35.837393]},"isApproved":true,"items":[],"keys":["Italian","Pizza"],"lastUpdated":1547527612387,"name":"Geppeto’s Pizza","phone":"(828) 328-8818","price":"$$","reviewCount":16,"reviewScore":3.5,"meta":{"revision":0,"created":1547531151961,"version":0},"$loki":127},{"_id":"5c3d65bd3525a329e0c0605a","address":"812 Winston Rd","location":{"type":"Point","coordinates":[-80.254154652357,35.8364798317062]},"isApproved":true,"items":[],"keys":["Coffee & Tea","Burgers","Fast Food"],"lastUpdated":1547527612368,"name":"McDonald’s","phone":"(336) 249-3464","price":"","reviewCount":2,"reviewScore":1,"meta":{"revision":0,"created":1547531151961,"version":0},"$loki":128},{"_id":"5c3d65bd3525a329e0c0b469","address":"630 Sullivan Rd","location":{"type":"Point","coordinates":[-80.2520105089844,35.8279236182487]},"isApproved":true,"items":[],"keys":["Burgers","Fast Food","Ice Cream & Frozen Yogurt"],"lastUpdated":1547527612499,"name":"Sonic Drive-In","phone":"(704) 878-9976","price":"","reviewCount":9,"reviewScore":2,"meta":{"revision":0,"created":1547531151961,"version":0},"$loki":129},{"_id":"5c3d65bd3525a329e0c0dd9b","address":"608 Turnersburg Hwy","location":{"type":"Point","coordinates":[-80.2525607,35.8243478]},"isApproved":true,"items":[],"keys":["Pizza","Food Delivery Services"],"lastUpdated":1547527612563,"name":"Domino’s Pizza","phone":"(704) 380-4898","price":"","reviewCount":1,"reviewScore":4,"meta":{"revision":0,"created":1547531151961,"version":0},"$loki":130},{"_id":"5c3d65bd3525a329e0c06595","address":"544 Turnersburg Hwy","location":{"type":"Point","coordinates":[-80.2524858,35.8243919]},"isApproved":true,"items":[],"keys":["Restaurants"],"lastUpdated":1547527612377,"name":"Captain’s Galley","phone":"(704) 878-2005","price":"$$","reviewCount":4,"reviewScore":2.5,"meta":{"revision":0,"created":1547531151961,"version":0},"$loki":131},{"_id":"5c3d65bd3525a329e0c022cd","address":"214 W Broad St","location":{"type":"Point","coordinates":[-80.2526165,35.8241916]},"isApproved":true,"items":[],"keys":["Cafes"],"lastUpdated":1547527612276,"name":"Mocha Joe’s","phone":"(704) 280-4504","price":"$","reviewCount":19,"reviewScore":4,"meta":{"revision":0,"created":1547531151961,"version":0},"$loki":132},{"_id":"5c3d65bd3525a329e0c11b61","address":"401 N Main St","location":{"type":"Point","coordinates":[-80.249709,35.8267205]},"isApproved":true,"items":[],"keys":["Fast Food","Sandwiches"],"lastUpdated":1547527612659,"name":"Arby’s","phone":"(336) 243-1199","price":"","reviewCount":2,"reviewScore":2,"meta":{"revision":0,"created":1547531151961,"version":0},"$loki":133},{"_id":"5c3d65bd3525a329e0c09aff","address":"1712 Old Wilkesboro rd","location":{"type":"Point","coordinates":[-80.2502317,35.8270252]},"isApproved":true,"items":[],"keys":["Italian","Pizza"],"lastUpdated":1547527612464,"name":"Amalfi’s Pizza Italian Restaurant","phone":"(704) 873-3022","price":"$$","reviewCount":34,"reviewScore":3,"meta":{"revision":0,"created":1547531151961,"version":0},"$loki":134},{"_id":"5c3d65bd3525a329e0c1a564","address":"1022 Shelton Ave","location":{"type":"Point","coordinates":[-80.2442069,35.8315214]},"isApproved":true,"items":[],"keys":["Seafood"],"lastUpdated":1547527612860,"name":"Skinner’s Seafood To Go","phone":"(704) 871-0009","price":"$","reviewCount":4,"reviewScore":4.5,"meta":{"revision":0,"created":1547531151961,"version":0},"$loki":135},{"_id":"5c3d65bd3525a329e0c0bda1","address":"1023 16th St NE","location":{"type":"Point","coordinates":[-80.2395041,35.8224311]},"isApproved":true,"items":[],"keys":["Mexican"],"lastUpdated":1547527612515,"name":"Tacos El Tio Chetos","phone":"(828) 261-0839","price":"$","reviewCount":13,"reviewScore":4,"meta":{"revision":0,"created":1547531151961,"version":0},"$loki":136},{"_id":"5c3d65bd3525a329e0c0792d","address":"677 W Main Ave","location":{"type":"Point","coordinates":[-80.2298876,35.8032056]},"isApproved":true,"items":[],"keys":["Pizza"],"lastUpdated":1547527612409,"name":"Giovanni’s Pizza","phone":"(828) 632-4694","price":"$","reviewCount":16,"reviewScore":4,"meta":{"revision":0,"created":1547531151961,"version":0},"$loki":137},{"_id":"5c3d65bd3525a329e0c19cf0","address":"169 Turnersburg Hwy","location":{"type":"Point","coordinates":[-80.1876977226022,35.8122348156381]},"isApproved":true,"items":[],"keys":["Fast Food","Chicken Wings","Salad"],"lastUpdated":1547527612850,"name":"Zaxby’s Chicken Fingers & Buffalo Wings","phone":"(704) 873-1263","price":"$","reviewCount":16,"reviewScore":2,"meta":{"revision":0,"created":1547531151961,"version":0},"$loki":138},{"_id":"5c3d65bd3525a329e0c1a02e","address":"2461 Springs Rd NE","location":{"type":"Point","coordinates":[-80.2388224,35.8191096]},"isApproved":true,"items":[],"keys":["Japanese"],"lastUpdated":1547527612857,"name":"Sakura","phone":"(828) 256-2277","price":"$$","reviewCount":30,"reviewScore":3.5,"meta":{"revision":0,"created":1547531151961,"version":0},"$loki":139},{"_id":"5c3d65bd3525a329e0c1947f","address":"290 N Talbert Blvd","location":{"type":"Point","coordinates":[-80.2384702,35.8206187]},"isApproved":true,"items":[],"keys":["Burgers"],"lastUpdated":1547527612840,"name":"Burger King","phone":"(336) 249-7379","price":"$","reviewCount":5,"reviewScore":2,"meta":{"revision":0,"created":1547531151961,"version":0},"$loki":140},{"_id":"5c3d65bd3525a329e0c0d4f4","address":"1550 E Broad St","location":{"type":"Point","coordinates":[-80.2392108,35.8212726]},"isApproved":true,"items":[],"keys":["Pizza","Chicken Wings","Sandwiches"],"lastUpdated":1547527612547,"name":"Domino’s Pizza","phone":"(704) 872-3030","price":"$","reviewCount":6,"reviewScore":1.5,"meta":{"revision":0,"created":1547531151961,"version":0},"$loki":141},{"_id":"5c3d65bd3525a329e0c0e6f7","address":"1101 S Main St","location":{"type":"Point","coordinates":[-80.2404170483351,35.8199608974986]},"isApproved":true,"items":[],"keys":["Barbeque","Breakfast & Brunch","American (Traditional)"],"lastUpdated":1547527612574,"name":"Smokey Joe’s BBQ","phone":"(336) 249-0315","price":"$","reviewCount":25,"reviewScore":3.5,"meta":{"revision":0,"created":1547531151961,"version":0},"$loki":142},{"_id":"5c3d65bd3525a329e0c059f7","address":"268 1st Ave NW","location":{"type":"Point","coordinates":[-80.2406919,35.8186502]},"isApproved":true,"items":[],"keys":["American (Traditional)","Vegetarian","Sandwiches"],"lastUpdated":1547527612355,"name":"Hatch Sandwich Bar","phone":"(828) 322-1196","price":"$","reviewCount":189,"reviewScore":4.5,"meta":{"revision":0,"created":1547531151961,"version":0},"$loki":143},{"_id":"5c3d65bd3525a329e0c194f5","address":"709 National Hwy","location":{"type":"Point","coordinates":[-80.2427829,35.8174702]},"isApproved":true,"items":[],"keys":["Hot Dogs","American (Traditional)","Burgers"],"lastUpdated":1547527612840,"name":"Rosa Mae’s Cafe","phone":"(336) 475-3414","price":"","reviewCount":2,"reviewScore":3,"meta":{"revision":0,"created":1547531151961,"version":0},"$loki":144},{"_id":"5c3d65bd3525a329e0c01747","address":"114 E Center St","location":{"type":"Point","coordinates":[-80.2510593,35.8227879]},"isApproved":true,"items":[],"keys":["Pizza"],"lastUpdated":1547527612250,"name":"Domino’s Pizza","phone":"(336) 238-7272","price":"","reviewCount":1,"reviewScore":2,"meta":{"revision":0,"created":1547531151961,"version":0},"$loki":145},{"_id":"5c3d65bd3525a329e0c18354","address":"844 Valley Rd","location":{"type":"Point","coordinates":[-80.2515384,35.8214342]},"isApproved":true,"items":[],"keys":["Bakeries","Coffee & Tea","Delis"],"lastUpdated":1547527612814,"name":"Ketchie Creek Bakery and Cafe","phone":"(336) 751-9147","price":"$$","reviewCount":40,"reviewScore":4.5,"meta":{"revision":0,"created":1547531151961,"version":0},"$loki":146},{"_id":"5c3d65bd3525a329e0c1aec5","address":"1374 US Highway 601 N","location":{"type":"Point","coordinates":[-80.253847,35.8232262]},"isApproved":true,"items":[],"keys":["Mexican"],"lastUpdated":1547527612876,"name":"Monte Del Rey","phone":"(336) 751-5639","price":"$","reviewCount":12,"reviewScore":4,"meta":{"revision":0,"created":1547531151961,"version":0},"$loki":147},{"_id":"5c3d65bd3525a329e0c04502","address":"110 W Fairfield Rd","location":{"type":"Point","coordinates":[-80.2490124315711,35.8138202439006]},"isApproved":true,"items":[],"keys":["Pizza"],"lastUpdated":1547527612322,"name":"Pizza Inn","phone":"(336) 434-2138","price":"$$","reviewCount":12,"reviewScore":3.5,"meta":{"revision":0,"created":1547531151961,"version":0},"$loki":148},{"_id":"5c3d65bd3525a329e0c163b5","address":"1101 Yadkinville Rd","location":{"type":"Point","coordinates":[-80.2497486,35.8138601]},"isApproved":true,"items":[],"keys":["Chinese"],"lastUpdated":1547527612764,"name":"Dynasty Chinese Restaurant","phone":"(336) 751-3833","price":"$$","reviewCount":10,"reviewScore":4,"meta":{"revision":0,"created":1547531151961,"version":0},"$loki":149},{"_id":"5c3d65bd3525a329e0c0e06a","address":"7364 Old Hwy 52","location":{"type":"Point","coordinates":[-80.2646483,35.8132587]},"isApproved":true,"items":[],"keys":["Pizza","Italian","Delis"],"lastUpdated":1547527612564,"name":"Dusina’s Pizza","phone":"(336) 731-4055","price":"$","reviewCount":18,"reviewScore":4.5,"meta":{"revision":0,"created":1547531151961,"version":0},"$loki":150},{"_id":"5c3d65bd3525a329e0c022ba","address":"1036 Crossroads Dr","location":{"type":"Point","coordinates":[-80.2553496,35.8233276]},"isApproved":true,"items":[],"keys":["American (Traditional)","Salad"],"lastUpdated":1547527612276,"name":"American Deli","phone":"(704) 924-6885","price":"","reviewCount":4,"reviewScore":3.5,"meta":{"revision":0,"created":1547531151961,"version":0},"$loki":151},{"_id":"5c3d65bd3525a329e0c105f6","address":"1060 Nc Hwy 90 E","location":{"type":"Point","coordinates":[-80.25569,35.823507]},"isApproved":true,"items":[],"keys":["Mexican"],"lastUpdated":1547527612618,"name":"Mexico Viejo","phone":"(828) 635-6685","price":"$$","reviewCount":19,"reviewScore":3.5,"meta":{"revision":0,"created":1547531151961,"version":0},"$loki":152},{"_id":"5c3d65bd3525a329e0c14c21","address":"1612 E Broad St","location":{"type":"Point","coordinates":[-80.2585509,35.8187981]},"isApproved":true,"items":[],"keys":["Southern","Fast Food"],"lastUpdated":1547527612729,"name":"Bojangles","phone":"(704) 873-2570","price":"$","reviewCount":9,"reviewScore":2.5,"meta":{"revision":0,"created":1547531151961,"version":0},"$loki":153},{"_id":"5c3d65bd3525a329e0c18a7b","address":"2321 N Center St","location":{"type":"Point","coordinates":[-80.2588,35.8193]},"isApproved":true,"items":[],"keys":["Japanese"],"lastUpdated":1547527612823,"name":"Nara Japanese","phone":"(828) 327-9006","price":"$","reviewCount":20,"reviewScore":3,"meta":{"revision":0,"created":1547531151961,"version":0},"$loki":154},{"_id":"5c3d65bd3525a329e0c19fac","address":"721 Sullivan Rd","location":{"type":"Point","coordinates":[-80.2606524,35.8185999]},"isApproved":true,"items":[],"keys":["Pizza","Burgers","Chicken Wings"],"lastUpdated":1547527612851,"name":"1849 Pizza & Wing Company","phone":"","price":"$$","reviewCount":29,"reviewScore":4,"meta":{"revision":0,"created":1547531151961,"version":0},"$loki":155},{"_id":"5c3d65bd3525a329e0c0c3b1","address":"17 N Main St","location":{"type":"Point","coordinates":[-80.2624575264369,35.8166039019723]},"isApproved":true,"items":[],"keys":["Japanese","Seafood","Asian Fusion"],"lastUpdated":1547527612523,"name":"Shoto","phone":"(336) 238-5733","price":"$$","reviewCount":36,"reviewScore":4.5,"meta":{"revision":0,"created":1547531151961,"version":0},"$loki":156},{"_id":"5c3d65bd3525a329e0c124b5","address":"2411 N Center St","location":{"type":"Point","coordinates":[-80.2646944,35.8148355]},"isApproved":true,"items":[],"keys":["Hot Dogs","Barbeque"],"lastUpdated":1547527612670,"name":"Sam’s Hot Dog Stand","phone":"(828) 322-2552","price":"$","reviewCount":6,"reviewScore":3.5,"meta":{"revision":0,"created":1547531151961,"version":0},"$loki":157},{"_id":"5c3d65bd3525a329e0c1ab54","address":"1207 2nd St NE","location":{"type":"Point","coordinates":[-80.265007245198,35.8142412922835]},"isApproved":true,"items":[],"keys":["Sandwiches","Fast Food","Delis"],"lastUpdated":1547527612868,"name":"Jimmy John’s","phone":"(828) 578-6044","price":"$","reviewCount":9,"reviewScore":4.5,"meta":{"revision":0,"created":1547531151961,"version":0},"$loki":158},{"_id":"5c3d65bd3525a329e0c1ad56","address":"229 Mocksville Hwy","location":{"type":"Point","coordinates":[-80.2657638325409,35.823169005198]},"isApproved":true,"items":[],"keys":["Coffee & Tea","Burgers","Fast Food"],"lastUpdated":1547527612875,"name":"McDonald’s","phone":"(704) 873-0111","price":"","reviewCount":3,"reviewScore":1.5,"meta":{"revision":0,"created":1547531151961,"version":0},"$loki":159},{"_id":"5c3d65bd3525a329e0c03435","address":"","location":{"type":"Point","coordinates":[-80.2713766,35.8090152]},"isApproved":true,"items":[],"keys":["Barbeque"],"lastUpdated":1547527612302,"name":"Back Country Bbq","phone":"","price":"","reviewCount":1,"reviewScore":5,"meta":{"revision":0,"created":1547531151961,"version":0},"$loki":160},{"_id":"5c3d65bd3525a329e0bffab0","address":"1430 Cotton Grove Rd","location":{"type":"Point","coordinates":[-80.2591533,35.7946655]},"isApproved":true,"items":[],"keys":["Burgers","Fast Food","Coffee & Tea"],"lastUpdated":1547527612220,"name":"McDonald’s","phone":"(336) 224-1782","price":"","reviewCount":1,"reviewScore":3,"meta":{"revision":0,"created":1547531151961,"version":0},"$loki":161},{"_id":"5c3d65bd3525a329e0c0620f","address":"520 National Hwy","location":{"type":"Point","coordinates":[-80.261563,35.793054]},"isApproved":true,"items":[],"keys":["Pizza"],"lastUpdated":1547527612369,"name":"SIR Pizza","phone":"(336) 476-9650","price":"$$","reviewCount":13,"reviewScore":3,"meta":{"revision":0,"created":1547531151961,"version":0},"$loki":162},{"_id":"5c3d65bd3525a329e0c111a0","address":"321 Marco Blvd","location":{"type":"Point","coordinates":[-80.260383,35.787052]},"isApproved":true,"items":[],"keys":["American (Traditional)","Steakhouses"],"lastUpdated":1547527612641,"name":"Yarborough’s Restaurant","phone":"(336) 956-7781","price":"$$","reviewCount":24,"reviewScore":2.5,"meta":{"revision":0,"created":1547531151961,"version":0},"$loki":163},{"_id":"5c3d65bd3525a329e0c04e67","address":"2960 N Center St","location":{"type":"Point","coordinates":[-80.2609894,35.7916058]},"isApproved":true,"items":[],"keys":["Breakfast & Brunch"],"lastUpdated":1547527612339,"name":"Cafe Gouda","phone":"(828) 267-1300","price":"$","reviewCount":55,"reviewScore":3.5,"meta":{"revision":0,"created":1547531151961,"version":0},"$loki":164},{"_id":"5c3d65bd3525a329e0c07435","address":"256 1st Ave NW","location":{"type":"Point","coordinates":[-80.260904,35.7915668]},"isApproved":true,"items":[],"keys":["American (Traditional)","Vegan","Gastropubs"],"lastUpdated":1547527612400,"name":"Crescent Moon Cafe","phone":"(828) 322-1456","price":"$$","reviewCount":78,"reviewScore":4.5,"meta":{"revision":0,"created":1547531151961,"version":0},"$loki":165},{"_id":"5c3d65bd3525a329e0c0eeb0","address":"129 Lowes Blvd","location":{"type":"Point","coordinates":[-80.2585727,35.7910014]},"isApproved":true,"items":[],"keys":["Pizza","Italian","Chicken Wings"],"lastUpdated":1547527612583,"name":"Pizza Hut","phone":"(336) 249-4366","price":"","reviewCount":5,"reviewScore":2.5,"meta":{"revision":0,"created":1547531151961,"version":0},"$loki":166},{"_id":"5c3d65bd3525a329e0c165ad","address":"1708 Cotton Grove Rd","location":{"type":"Point","coordinates":[-80.2598449841797,35.7845120506623]},"isApproved":true,"items":[],"keys":["Fast Food","Burgers","Coffee & Tea"],"lastUpdated":1547527612765,"name":"McDonald’s","phone":"(336) 357-5007","price":"$","reviewCount":14,"reviewScore":3,"meta":{"revision":0,"created":1547531151961,"version":0},"$loki":167},{"_id":"5c3d65bd3525a329e0c10879","address":"1432 Cotton Grove Rd","location":{"type":"Point","coordinates":[-80.2597269,35.7841073]},"isApproved":true,"items":[],"keys":["Burgers"],"lastUpdated":1547527612620,"name":"Burger King","phone":"(336) 249-7030","price":"$","reviewCount":3,"reviewScore":2.5,"meta":{"revision":0,"created":1547531151961,"version":0},"$loki":168},{"_id":"5c3d65bd3525a329e0c12a7e","address":"25A Plaza Pkwy","location":{"type":"Point","coordinates":[-80.2565582469106,35.784349]},"isApproved":true,"items":[],"keys":["Pizza"],"lastUpdated":1547527612679,"name":"Little Caesars Pizza","phone":"(336) 243-1206","price":"$","reviewCount":4,"reviewScore":2.5,"meta":{"revision":0,"created":1547531151961,"version":0},"$loki":169},{"_id":"5c3d65bd3525a329e0c13038","address":"300 Golf Course Ln","location":{"type":"Point","coordinates":[-80.2559031173587,35.782446774009]},"isApproved":true,"items":[],"keys":["American (Traditional)","Bars"],"lastUpdated":1547527612688,"name":"McLindon’s Restaurant","phone":"(828) 632-7502","price":"$$","reviewCount":2,"reviewScore":3,"meta":{"revision":0,"created":1547531151961,"version":0},"$loki":170},{"_id":"5c3d65bd3525a329e0c16660","address":"8614 E US Hwy 64","location":{"type":"Point","coordinates":[-80.2559159,35.783058]},"isApproved":true,"items":[],"keys":["Seafood"],"lastUpdated":1547527612765,"name":"Skipper’s Seafood Restaurant of Thomasville","phone":"(336) 472-0101","price":"$$","reviewCount":10,"reviewScore":3,"meta":{"revision":0,"created":1547531151961,"version":0},"$loki":171},{"_id":"5c3d65bd3525a329e0c19f18","address":"9579 Hwy 127 N","location":{"type":"Point","coordinates":[-80.255203,35.7827]},"isApproved":true,"items":[],"keys":["Southern","Diners"],"lastUpdated":1547527612851,"name":"Blondeez Restaurant","phone":"(828) 495-2100","price":"$","reviewCount":10,"reviewScore":3.5,"meta":{"revision":0,"created":1547531151961,"version":0},"$loki":172},{"_id":"5c3d65bd3525a329e0c03ba4","address":"248 Union Square","location":{"type":"Point","coordinates":[-80.2587034,35.7827783]},"isApproved":true,"items":[],"keys":["Hot Dogs","Barbeque"],"lastUpdated":1547527612312,"name":"Charlie Graingers","phone":"(828) 322-2755","price":"$","reviewCount":42,"reviewScore":4.5,"meta":{"revision":0,"created":1547531151961,"version":0},"$loki":173},{"_id":"5c3d65bd3525a329e0c02851","address":"2375 Springs Rd","location":{"type":"Point","coordinates":[-80.2595527,35.7833753]},"isApproved":true,"items":[],"keys":["Fast Food","Sandwiches"],"lastUpdated":1547527612285,"name":"Arby’s","phone":"(828) 256-4261","price":"","reviewCount":1,"reviewScore":5,"meta":{"revision":0,"created":1547531151961,"version":0},"$loki":174},{"_id":"5c3d65bd3525a329e0c1a022","address":"1033 Randolph St","location":{"type":"Point","coordinates":[-80.2617085,35.7833186]},"isApproved":true,"items":[],"keys":["Italian"],"lastUpdated":1547527612857,"name":"Capris Pizza","phone":"(336) 472-7030","price":"$","reviewCount":12,"reviewScore":3.5,"meta":{"revision":0,"created":1547531151961,"version":0},"$loki":175},{"_id":"5c3d65bd3525a329e0c09be6","address":"3510 Springs Rd NE","location":{"type":"Point","coordinates":[-80.2610335,35.7848048]},"isApproved":true,"items":[],"keys":["Restaurants"],"lastUpdated":1547527612465,"name":"Roadside Grill","phone":"(828) 441-0993","price":"$","reviewCount":6,"reviewScore":4,"meta":{"revision":0,"created":1547531151961,"version":0},"$loki":176},{"_id":"5c3d65bd3525a329e0c08630","address":"320 Mocksville Hwy","location":{"type":"Point","coordinates":[-80.2641304494019,35.7630458780535]},"isApproved":true,"items":[],"keys":["Burgers","Ice Cream & Frozen Yogurt","Sandwiches"],"lastUpdated":1547527612427,"name":"Jay Bees","phone":"(704) 872-8033","price":"$","reviewCount":51,"reviewScore":4,"meta":{"revision":0,"created":1547531151961,"version":0},"$loki":177},{"_id":"5c3d65bd3525a329e0c09bb1","address":"71 Chevy Dr","location":{"type":"Point","coordinates":[-80.2631758,35.7612331]},"isApproved":true,"items":[],"keys":["Waffles"],"lastUpdated":1547527612464,"name":"Coffee House Waffle Shop # 909","phone":"(828) 632-0620","price":"$","reviewCount":4,"reviewScore":4,"meta":{"revision":0,"created":1547531151961,"version":0},"$loki":178},{"_id":"5c3d65bd3525a329e0c1b0a8","address":"1720 Cotton Grove Rd","location":{"type":"Point","coordinates":[-80.2591695454577,35.7752810552024]},"isApproved":true,"items":[],"keys":["American (Traditional)","Diners","Breakfast & Brunch"],"lastUpdated":1547527612877,"name":"Waffle House","phone":"(336) 237-1675","price":"$","reviewCount":10,"reviewScore":3,"meta":{"revision":0,"created":1547531151961,"version":0},"$loki":179},{"_id":"5c3d65bd3525a329e0c046ed","address":"905 E Garner Bagnal Blvd","location":{"type":"Point","coordinates":[-80.258834,35.7732874]},"isApproved":true,"items":[],"keys":["Pizza"],"lastUpdated":1547527612329,"name":"Soft Touch Dairy Bar Pizza and Subs","phone":"(704) 253-4142","price":"$","reviewCount":4,"reviewScore":2.5,"meta":{"revision":0,"created":1547531151961,"version":0},"$loki":180},{"_id":"5c3d65bd3525a329e0c08881","address":"283 N Talbert Blvd","location":{"type":"Point","coordinates":[-80.2593473,35.7712579]},"isApproved":true,"items":[],"keys":["Southern","Desserts","Sandwiches"],"lastUpdated":1547527612428,"name":"360 Southern Grille","phone":"(336) 237-0360","price":"","reviewCount":7,"reviewScore":3.5,"meta":{"revision":0,"created":1547531151961,"version":0},"$loki":181},{"_id":"5c3d65bd3525a329e0c0a586","address":"2728 S Main St","location":{"type":"Point","coordinates":[-80.2606415,35.7716397]},"isApproved":true,"items":[],"keys":["Restaurants"],"lastUpdated":1547527612480,"name":"Kc’s Restaurant","phone":"(336) 883-4415","price":"","reviewCount":3,"reviewScore":2.5,"meta":{"revision":0,"created":1547531151961,"version":0},"$loki":182},{"_id":"5c3d65bd3525a329e0c0da2d","address":"110 N Tradd St","location":{"type":"Point","coordinates":[-80.2601406,35.7737316]},"isApproved":true,"items":[],"keys":["Pizza"],"lastUpdated":1547527612555,"name":"Pizza Box","phone":"(704) 775-9912","price":"$","reviewCount":14,"reviewScore":4,"meta":{"revision":0,"created":1547531151961,"version":0},"$loki":183},{"_id":"5c3d65bd3525a329e0c0b363","address":"1610 Cotton Grove Rd","location":{"type":"Point","coordinates":[-80.2592913,35.7785823]},"isApproved":true,"items":[],"keys":["Fast Food","Burgers"],"lastUpdated":1547527612498,"name":"Wendy’s","phone":"(336) 357-7739","price":"$","reviewCount":7,"reviewScore":2,"meta":{"revision":0,"created":1547531151961,"version":0},"$loki":184},{"_id":"5c3d65bd3525a329e0c0d00c","address":"1704 Cotton Grove Rd","location":{"type":"Point","coordinates":[-80.2591607,35.7776848]},"isApproved":true,"items":[],"keys":["Chicken Wings"],"lastUpdated":1547527612539,"name":"Bojangles","phone":"(336) 242-9108","price":"$","reviewCount":4,"reviewScore":3.5,"meta":{"revision":0,"created":1547531151961,"version":0},"$loki":185},{"_id":"5c3d65bd3525a329e0c0ad17","address":"2450 N Center St","location":{"type":"Point","coordinates":[-80.2591583132743,35.7771180313504]},"isApproved":true,"items":[],"keys":["Barbeque","Seafood","Sandwiches"],"lastUpdated":1547527612490,"name":"Hickory Smoke House","phone":"(828) 328-2300","price":"$","reviewCount":6,"reviewScore":2.5,"meta":{"revision":0,"created":1547531151961,"version":0},"$loki":186},{"_id":"5c3d65bd3525a329e0c10861","address":"1423-A US Hwy 601N","location":{"type":"Point","coordinates":[-80.2590953,35.7756736]},"isApproved":true,"items":[],"keys":["Sandwiches"],"lastUpdated":1547527612620,"name":"Subway","phone":"(336) 751-2253","price":"","reviewCount":3,"reviewScore":2.5,"meta":{"revision":0,"created":1547531151961,"version":0},"$loki":187},{"_id":"5c3d65bd3525a329e0c18fd1","address":"1000 Childress Vineyards Rd","location":{"type":"Point","coordinates":[-80.104593,35.771225]},"isApproved":true,"items":[],"keys":["French"],"lastUpdated":1547527612832,"name":"The Bistro","phone":"","price":"","reviewCount":4,"reviewScore":2.5,"meta":{"revision":0,"created":1547531151961,"version":0},"$loki":188},{"_id":"5c3d65bd3525a329e0c0c677","address":"1900 Cotton Grove Rd","location":{"type":"Point","coordinates":[-80.2543043,35.894958]},"isApproved":true,"items":[],"keys":["Breakfast & Brunch","Burgers","Sandwiches"],"lastUpdated":1547527612525,"name":"Biscuit King","phone":"(336) 357-2292","price":"$","reviewCount":16,"reviewScore":3.5,"meta":{"revision":0,"created":1547531151961,"version":0},"$loki":189},{"_id":"5c3d65bd3525a329e0c18965","address":"149 Turnersburg Hwy","location":{"type":"Point","coordinates":[-80.2482062,35.9228755]},"isApproved":true,"items":[],"keys":["American (Traditional)","Bars","Tex-Mex"],"lastUpdated":1547527612823,"name":"Chili’s","phone":"(704) 872-5077","price":"$$","reviewCount":26,"reviewScore":3,"meta":{"revision":0,"created":1547531151961,"version":0},"$loki":190},{"_id":"5c3d65bd3525a329e0c15978","address":"1468 Yadkinville Rd","location":{"type":"Point","coordinates":[-80.2442314780522,35.9237054458688]},"isApproved":true,"items":[],"keys":["Chicken Wings"],"lastUpdated":1547527612747,"name":"Bojangles","phone":"(336) 751-1192","price":"$","reviewCount":5,"reviewScore":2.5,"meta":{"revision":0,"created":1547531151961,"version":0},"$loki":191},{"_id":"5c3d65bd3525a329e0c0ae21","address":"703 Sullivan Rd","location":{"type":"Point","coordinates":[-80.250798,35.9156048]},"isApproved":true,"items":[],"keys":["Buffets","Chinese"],"lastUpdated":1547527612491,"name":"BJ Hibachi Buffet","phone":"(704) 878-8898","price":"$","reviewCount":20,"reviewScore":3,"meta":{"revision":0,"created":1547531151961,"version":0},"$loki":192},{"_id":"5c3d65bd3525a329e0bffbc1","address":"1423 Salisbury Rd","location":{"type":"Point","coordinates":[-80.2484676,35.9200338]},"isApproved":true,"items":[],"keys":["Mexican"],"lastUpdated":1547527612220,"name":"El Primo","phone":"(704) 883-7771","price":"$","reviewCount":6,"reviewScore":4.5,"meta":{"revision":0,"created":1547531151961,"version":0},"$loki":193},{"_id":"5c3d65bd3525a329e0c02638","address":"411 W Fairfield Rd","location":{"type":"Point","coordinates":[-80.252521,35.914352]},"isApproved":true,"items":[],"keys":["Chicken Wings","Pizza"],"lastUpdated":1547527612284,"name":"Pizza Wing King","phone":"(336) 431-0064","price":"$","reviewCount":21,"reviewScore":4,"meta":{"revision":0,"created":1547531151961,"version":0},"$loki":194},{"_id":"5c3d65bd3525a329e0c0d2c2","address":"3232 Springs Rd","location":{"type":"Point","coordinates":[-80.253172,35.9128]},"isApproved":true,"items":[],"keys":["Japanese"],"lastUpdated":1547527612545,"name":"Osaka","phone":"(828) 441-2495","price":"","reviewCount":4,"reviewScore":4,"meta":{"revision":0,"created":1547531151961,"version":0},"$loki":195},{"_id":"5c3d65bd3525a329e0c1b161","address":"159 Turnersburg Hwy","location":{"type":"Point","coordinates":[-80.25386,35.913211]},"isApproved":true,"items":[],"keys":["Burgers","Fast Food"],"lastUpdated":1547527612877,"name":"Wendy’s","phone":"(704) 838-0507","price":"","reviewCount":4,"reviewScore":2,"meta":{"revision":0,"created":1547531151961,"version":0},"$loki":196},{"_id":"5c3d65bd3525a329e0c1464d","address":"6385 Old US Hwy 52","location":{"type":"Point","coordinates":[-80.2535856,35.9122912]},"isApproved":true,"items":[],"keys":["Fast Food","Salad","Sandwiches"],"lastUpdated":1547527612715,"name":"Bojangles","phone":"(336) 731-7509","price":"$","reviewCount":1,"reviewScore":1,"meta":{"revision":0,"created":1547531151961,"version":0},"$loki":197},{"_id":"5c3d65bd3525a329e0c179cd","address":"1513 E Center St Ext","location":{"type":"Point","coordinates":[-80.333788,35.921377]},"isApproved":true,"items":[],"keys":["Barbeque","American (Traditional)"],"lastUpdated":1547527612792,"name":"Lexington Style Trimmings","phone":"(336) 249-8211","price":"$","reviewCount":15,"reviewScore":4,"meta":{"revision":0,"created":1547531151961,"version":0},"$loki":198},{"_id":"5c3d65bd3525a329e0c006aa","address":"3209 Taylorsville Hwy","location":{"type":"Point","coordinates":[-80.318036,35.8777052]},"isApproved":true,"items":[],"keys":["Fast Food","Sandwiches"],"lastUpdated":1547527612227,"name":"Arby’s","phone":"(704) 873-9429","price":"$","reviewCount":3,"reviewScore":3,"meta":{"revision":0,"created":1547531151961,"version":0},"$loki":199},{"_id":"5c3d65bd3525a329e0c18e84","address":"114 W Broad St","location":{"type":"Point","coordinates":[-80.322638,35.9005338]},"isApproved":true,"items":[],"keys":["Sports Bars","American (Traditional)"],"lastUpdated":1547527612831,"name":"D’Laney’s Sports Bar & Grill","phone":"(704) 924-7007","price":"$","reviewCount":15,"reviewScore":3.5,"meta":{"revision":0,"created":1547531151961,"version":0},"$loki":200},{"_id":"5c3d65bd3525a329e0c163b1","address":"415 National Hwy","location":{"type":"Point","coordinates":[-80.3253725,35.9096219]},"isApproved":true,"items":[],"keys":["Mexican"],"lastUpdated":1547527612764,"name":"Taco Corner No 2","phone":"(336) 476-0030","price":"$","reviewCount":15,"reviewScore":4,"meta":{"revision":0,"created":1547531151961,"version":0},"$loki":201},{"_id":"5c3d65bd3525a329e0c0c8ec","address":"917 Winston Rd","location":{"type":"Point","coordinates":[-80.3270988,35.9106566]},"isApproved":true,"items":[],"keys":["Barbeque"],"lastUpdated":1547527612526,"name":"Smiley’s Lexington BBQ","phone":"(336) 248-4528","price":"$","reviewCount":51,"reviewScore":4,"meta":{"revision":0,"created":1547531151961,"version":0},"$loki":202},{"_id":"5c3d65bd3525a329e0c10493","address":"215 US-64 W","location":{"type":"Point","coordinates":[-80.5614494,35.8940263]},"isApproved":true,"items":[],"keys":["Pizza","Italian"],"lastUpdated":1547527612618,"name":"Godfather’s Pizza","phone":"(336) 300-8439","price":"$","reviewCount":25,"reviewScore":4,"meta":{"revision":0,"created":1547531151961,"version":0},"$loki":203},{"_id":"5c3d65bd3525a329e0c0b690","address":"111 E Broad St","location":{"type":"Point","coordinates":[-80.5622252,35.8964113]},"isApproved":true,"items":[],"keys":["Burgers"],"lastUpdated":1547527612500,"name":"Broad Street Burger","phone":"(980) 223-2850","price":"$$","reviewCount":53,"reviewScore":4,"meta":{"revision":0,"created":1547531151961,"version":0},"$loki":204},{"_id":"5c3d65bd3525a329e0c18e6d","address":"155 N Cross Ln","location":{"type":"Point","coordinates":[-80.5627897,35.8957428]},"isApproved":true,"items":[],"keys":["Mexican"],"lastUpdated":1547527612831,"name":"Mi Pueblo Mexican Grill","phone":"(704) 881-0480","price":"$$","reviewCount":45,"reviewScore":4,"meta":{"revision":0,"created":1547531151961,"version":0},"$loki":205},{"_id":"5c3d65bd3525a329e0c069c0","address":"115 N Main St","location":{"type":"Point","coordinates":[-80.5622252,35.8944705]},"isApproved":true,"items":[],"keys":["Irish Pub","American (New)","Seafood"],"lastUpdated":1547527612379,"name":"O’Callahans Publick House","phone":"(336) 753-0011","price":"$$","reviewCount":48,"reviewScore":4,"meta":{"revision":0,"created":1547531151961,"version":0},"$loki":206},{"_id":"5c3d65bd3525a329e0c0127f","address":"121 N Center St","location":{"type":"Point","coordinates":[-80.5620090574748,35.8944677626843]},"isApproved":true,"items":[],"keys":["Venues & Event Spaces","American (Traditional)","Beer Bar"],"lastUpdated":1547527612240,"name":"Twisted Oak American Bar and Grill","phone":"(980) 223-8186","price":"$$","reviewCount":115,"reviewScore":4,"meta":{"revision":0,"created":1547531151961,"version":0},"$loki":207},{"_id":"5c3d65bd3525a329e0c0b7a5","address":"3741 US Hwy 64 W","location":{"type":"Point","coordinates":[-80.5615309,35.894673]},"isApproved":true,"items":[],"keys":["Convenience Stores","Southern","Gas Stations"],"lastUpdated":1547527612505,"name":"Cartner’s Food Mart","phone":"(336) 492-3205","price":"","reviewCount":1,"reviewScore":5,"meta":{"revision":0,"created":1547531151961,"version":0},"$loki":208},{"_id":"5c3d65bd3525a329e0c013f8","address":"1505 Yadkinville Rd","location":{"type":"Point","coordinates":[-80.5871903,35.9205109]},"isApproved":true,"items":[],"keys":["Fast Food","Burgers"],"lastUpdated":1547527612249,"name":"Wendy’s","phone":"(336) 751-1717","price":"$","reviewCount":5,"reviewScore":2,"meta":{"revision":0,"created":1547531151961,"version":0},"$loki":209},{"_id":"5c3d65bd3525a329e0c08784","address":"1205 Garner Bagnal Blvd","location":{"type":"Point","coordinates":[-80.582,35.9151]},"isApproved":true,"items":[],"keys":["Fast Food","American (Traditional)"],"lastUpdated":1547527612428,"name":"Hardee’s","phone":"(704) 872-6154","price":"$","reviewCount":5,"reviewScore":1,"meta":{"revision":0,"created":1547531151961,"version":0},"$loki":210},{"_id":"5c3d65bd3525a329e0c13b5f","address":"4524 S Nc Highway 150","location":{"type":"Point","coordinates":[-80.5831678,35.9164937]},"isApproved":true,"items":[],"keys":["Barbeque"],"lastUpdated":1547527612704,"name":"Stamey’s Barbecue of Tyro","phone":"(336) 853-6426","price":"$","reviewCount":14,"reviewScore":3,"meta":{"revision":0,"created":1547531151961,"version":0},"$loki":211},{"_id":"5c3d65bd3525a329e0c0b76e","address":"1440 Yadkinville Rd","location":{"type":"Point","coordinates":[-80.5843324,35.9191423]},"isApproved":true,"items":[],"keys":["Burgers","Fast Food","Coffee & Tea"],"lastUpdated":1547527612505,"name":"McDonald’s","phone":"(336) 751-1818","price":"","reviewCount":5,"reviewScore":2,"meta":{"revision":0,"created":1547531151961,"version":0},"$loki":212},{"_id":"5c3d65bd3525a329e0c086ea","address":"1661 E Broad St","location":{"type":"Point","coordinates":[-80.5852652,35.9199117]},"isApproved":true,"items":[],"keys":["Breakfast & Brunch","American (Traditional)","Burgers"],"lastUpdated":1547527612428,"name":"IHOP","phone":"(704) 871-1966","price":"$","reviewCount":11,"reviewScore":3,"meta":{"revision":0,"created":1547531151961,"version":0},"$loki":213},{"_id":"5c3d65bd3525a329e0c15a46","address":"4014 Linwood Southmont Rd","location":{"type":"Point","coordinates":[-80.5844192,35.9176306]},"isApproved":true,"items":[],"keys":["Barbeque"],"lastUpdated":1547527612748,"name":"Backcountry Barbecue","phone":"(336) 956-1696","price":"$","reviewCount":28,"reviewScore":4,"meta":{"revision":0,"created":1547531151961,"version":0},"$loki":214},{"_id":"5c3d65bd3525a329e0c0305a","address":"1145 Glenway Dr","location":{"type":"Point","coordinates":[-80.5848531,35.9180866]},"isApproved":true,"items":[],"keys":["Seafood","American (Traditional)"],"lastUpdated":1547527612295,"name":"Red Lobster","phone":"(704) 881-0712","price":"$$","reviewCount":22,"reviewScore":4,"meta":{"revision":0,"created":1547531151961,"version":0},"$loki":215},{"_id":"5c3d65bd3525a329e0c1676c","address":"1499 Yadkinville Rd","location":{"type":"Point","coordinates":[-80.5868969,35.919755]},"isApproved":true,"items":[],"keys":["Fast Food","Sandwiches"],"lastUpdated":1547527612771,"name":"Arby’s","phone":"(336) 751-2729","price":"$","reviewCount":4,"reviewScore":2.5,"meta":{"revision":0,"created":1547531151961,"version":0},"$loki":216},{"_id":"5c3d65bd3525a329e0c06945","address":"608 Turnersburg Hwy","location":{"type":"Point","coordinates":[-80.5790394,35.9044669]},"isApproved":true,"items":[],"keys":["Chinese"],"lastUpdated":1547527612379,"name":"Grow Green","phone":"(704) 876-9950","price":"$","reviewCount":31,"reviewScore":4.5,"meta":{"revision":0,"created":1547531151961,"version":0},"$loki":217},{"_id":"5c3d65bd3525a329e0c080f3","address":"3442 E Broad St","location":{"type":"Point","coordinates":[-80.5790394,35.910715]},"isApproved":true,"items":[],"keys":["Mexican"],"lastUpdated":1547527612419,"name":"Vaqueros Mexican Restaurant","phone":"(704) 883-0635","price":"$","reviewCount":16,"reviewScore":4.5,"meta":{"revision":0,"created":1547531151961,"version":0},"$loki":218},{"_id":"5c3d65bd3525a329e0c111cf","address":"60 Liledoun Rd","location":{"type":"Point","coordinates":[-80.57964,35.9108803]},"isApproved":true,"items":[],"keys":["Mexican"],"lastUpdated":1547527612641,"name":"Casa Mexico","phone":"(828) 352-9901","price":"","reviewCount":1,"reviewScore":5,"meta":{"revision":0,"created":1547531151961,"version":0},"$loki":219},{"_id":"5c3d65bd3525a329e0c0932d","address":"5081 Nc Hwy 90 E","location":{"type":"Point","coordinates":[-80.5786899,35.9100692]},"isApproved":true,"items":[],"keys":["Delis","Salad","Sandwiches"],"lastUpdated":1547527612452,"name":"The Yellow Deli","phone":"(828) 548-3354","price":"$$","reviewCount":45,"reviewScore":4.5,"meta":{"revision":0,"created":1547531151961,"version":0},"$loki":220},{"_id":"5c3d65bd3525a329e0c09796","address":"984 S Main St","location":{"type":"Point","coordinates":[-80.5811178,35.9121401]},"isApproved":true,"items":[],"keys":["Pizza"],"lastUpdated":1547527612461,"name":"Marco’s Pizza","phone":"(336) 242-1354","price":"","reviewCount":3,"reviewScore":3,"meta":{"revision":0,"created":1547531151961,"version":0},"$loki":221},{"_id":"5c3d65bd3525a329e0c14a24","address":"3490 Nc Hwy 16 S","location":{"type":"Point","coordinates":[-80.581122,35.9121401]},"isApproved":true,"items":[],"keys":["Barbeque"],"lastUpdated":1547527612728,"name":"Apple City BBQ","phone":"(828) 471-5215","price":"$","reviewCount":19,"reviewScore":4.5,"meta":{"revision":0,"created":1547531151961,"version":0},"$loki":222},{"_id":"5c3d65bd3525a329e0bff9f0","address":"246 Signal Hill Dr","location":{"type":"Point","coordinates":[-80.5785437,35.9116762]},"isApproved":true,"items":[],"keys":["Mexican"],"lastUpdated":1547527612220,"name":"Cozumel Mexican Restaurant","phone":"(704) 878-8930","price":"$","reviewCount":20,"reviewScore":3,"meta":{"revision":0,"created":1547531151961,"version":0},"$loki":223},{"_id":"5c3d65bd3525a329e0c03c6d","address":"1075 Yadkinville Rd","location":{"type":"Point","coordinates":[-80.5736592,35.9018489]},"isApproved":true,"items":[],"keys":["Mexican","Seafood"],"lastUpdated":1547527612312,"name":"Domingo’s","phone":"(336) 753-6922","price":"$","reviewCount":43,"reviewScore":4,"meta":{"revision":0,"created":1547531151961,"version":0},"$loki":224},{"_id":"5c3d65bd3525a329e0c0a64c","address":"271 3rd Ave NW","location":{"type":"Point","coordinates":[-80.5745487,35.8966242]},"isApproved":true,"items":[],"keys":["American (New)"],"lastUpdated":1547527612481,"name":"Vintage House Restaurant","phone":"(828) 324-1210","price":"$$$","reviewCount":29,"reviewScore":4.5,"meta":{"revision":0,"created":1547531151961,"version":0},"$loki":225},{"_id":"5c3d65bd3525a329e0c0d941","address":"709 National Hwy","location":{"type":"Point","coordinates":[-80.578570760153,35.9033573071684]},"isApproved":true,"items":[],"keys":["Sandwiches","American (Traditional)","Italian"],"lastUpdated":1547527612555,"name":"Rosa Mae’s Cafe","phone":"(336) 475-3414","price":"$","reviewCount":5,"reviewScore":3.5,"meta":{"revision":0,"created":1547531151961,"version":0},"$loki":226},{"_id":"5c3d65bd3525a329e0c0a68e","address":"1718 Cotton Grove Rd","location":{"type":"Point","coordinates":[-80.589213,35.9210241]},"isApproved":true,"items":[],"keys":["Pizza","Burgers","Wraps"],"lastUpdated":1547527612481,"name":"Christo’s Original","phone":"(336) 357-0713","price":"$$","reviewCount":13,"reviewScore":3,"meta":{"revision":0,"created":1547531151961,"version":0},"$loki":227},{"_id":"5c3d65bd3525a329e0c0cbdc","address":"1301 Winston Rd","location":{"type":"Point","coordinates":[-80.5889252,35.9213604]},"isApproved":true,"items":[],"keys":["Burgers","Fast Food","Ice Cream & Frozen Yogurt"],"lastUpdated":1547527612533,"name":"Sonic Drive-In","phone":"(336) 248-6244","price":"$$","reviewCount":5,"reviewScore":3.5,"meta":{"revision":0,"created":1547531151961,"version":0},"$loki":228},{"_id":"5c3d65bd3525a329e0c10dc7","address":"160 Turnersburg Hwy","location":{"type":"Point","coordinates":[-80.588367,35.921562]},"isApproved":true,"items":[],"keys":["Restaurants"],"lastUpdated":1547527612633,"name":"Bojangles","phone":"(704) 878-0806","price":"$","reviewCount":7,"reviewScore":2,"meta":{"revision":0,"created":1547531151961,"version":0},"$loki":229},{"_id":"5c3d65bd3525a329e0c161c0","address":"226 W Broad St","location":{"type":"Point","coordinates":[-80.5917963,35.9251466]},"isApproved":true,"items":[],"keys":["Latin American"],"lastUpdated":1547527612763,"name":"Columbia Bakery 2","phone":"(704) 873-9164","price":"$","reviewCount":7,"reviewScore":4.5,"meta":{"revision":0,"created":1547531151961,"version":0},"$loki":230},{"_id":"5c3d65bd3525a329e0c0638c","address":"400 N Main St","location":{"type":"Point","coordinates":[-80.591661,35.924865]},"isApproved":true,"items":[],"keys":["Burgers"],"lastUpdated":1547527612369,"name":"Char’s Hamburgers","phone":"(336) 248-2026","price":"$","reviewCount":20,"reviewScore":3.5,"meta":{"revision":0,"created":1547531151961,"version":0},"$loki":231},{"_id":"5c3d65bd3525a329e0c1b5ad","address":"1525A Cinema Dr","location":{"type":"Point","coordinates":[-80.68927,35.904]},"isApproved":true,"items":[],"keys":["Latin American","Tacos","Seafood"],"lastUpdated":1547527612886,"name":"Maya Restaurant","phone":"(980) 434-5815","price":"","reviewCount":1,"reviewScore":5,"meta":{"revision":0,"created":1547531151961,"version":0},"$loki":232},{"_id":"5c3d65bd3525a329e0c09f17","address":"26 S Railroad St","location":{"type":"Point","coordinates":[-80.8046355,35.8079581]},"isApproved":true,"items":[],"keys":["Southern","Soul Food","American (Traditional)"],"lastUpdated":1547527612472,"name":"Southern Lunch","phone":"(336) 248-5276","price":"$","reviewCount":50,"reviewScore":4.5,"meta":{"revision":0,"created":1547531151961,"version":0},"$loki":233},{"_id":"5c3d65bd3525a329e0c17672","address":"103 S Main St","location":{"type":"Point","coordinates":[-80.804506,35.807848]},"isApproved":true,"items":[],"keys":["Cafes","Desserts","American (Traditional)"],"lastUpdated":1547527612791,"name":"Cafe 35","phone":"(336) 238-3535","price":"$$","reviewCount":41,"reviewScore":4,"meta":{"revision":0,"created":1547531151961,"version":0},"$loki":234},{"_id":"5c3d65bd3525a329e0c04d86","address":"4395 US 64","location":{"type":"Point","coordinates":[-80.7093786,35.8340172]},"isApproved":true,"items":[],"keys":["Southern"],"lastUpdated":1547527612338,"name":"Laverne’s Southern Bistro & Bakery","phone":"(336) 492-2264","price":"$","reviewCount":10,"reviewScore":5,"meta":{"revision":0,"created":1547531151961,"version":0},"$loki":235},{"_id":"5c3d65bd3525a329e0c1ab19","address":"1800 E 7th St","location":{"type":"Point","coordinates":[-80.7020576,35.8828911]},"isApproved":true,"items":[],"keys":["Cajun/Creole","Jazz & Blues","Seafood"],"lastUpdated":1547527612868,"name":"Cajun Queen","phone":"(704) 377-9017","price":"$$","reviewCount":740,"reviewScore":4,"meta":{"revision":0,"created":1547531151961,"version":0},"$loki":236},{"_id":"5c3d65bd3525a329e0c0a39d","address":"2022 Shelton Ave","location":{"type":"Point","coordinates":[-80.550471,35.8663257]},"isApproved":true,"items":[],"keys":["Burgers","American (Traditional)","Sandwiches"],"lastUpdated":1547527612474,"name":"The Lunch Box","phone":"(980) 223-8776","price":"$","reviewCount":12,"reviewScore":4.5,"meta":{"revision":0,"created":1547531151961,"version":0},"$loki":237},{"_id":"5c3d65bd3525a329e0c0c738","address":"1360-2 Hwy 601 S","location":{"type":"Point","coordinates":[-80.550483,35.866465]},"isApproved":true,"items":[],"keys":["Sandwiches","Fast Food"],"lastUpdated":1547527612525,"name":"Subway","phone":"(336) 753-1625","price":"$","reviewCount":1,"reviewScore":2,"meta":{"revision":0,"created":1547531151961,"version":0},"$loki":238},{"_id":"5c3d65bd3525a329e0c1831d","address":"647 Signal Hill Drive Ext","location":{"type":"Point","coordinates":[-80.5612705,35.8810191]},"isApproved":true,"items":[],"keys":["Seafood"],"lastUpdated":1547527612813,"name":"King of the Sea Seafood Restaurant","phone":"(704) 872-0177","price":"$","reviewCount":8,"reviewScore":3.5,"meta":{"revision":0,"created":1547531151961,"version":0},"$loki":239},{"_id":"5c3d65bd3525a329e0c12751","address":"1670 US Highway 601 N","location":{"type":"Point","coordinates":[-80.559361,35.8781676]},"isApproved":true,"items":[],"keys":["Restaurants"],"lastUpdated":1547527612672,"name":"Horn’s Country Kitchen","phone":"(336) 751-3750","price":"","reviewCount":1,"reviewScore":4,"meta":{"revision":0,"created":1547531151961,"version":0},"$loki":240},{"_id":"5c3d65bd3525a329e0c0301c","address":"1247 Wilkesboro Hwy","location":{"type":"Point","coordinates":[-80.551922,35.869736]},"isApproved":true,"items":[],"keys":["Fast Food","Sandwiches"],"lastUpdated":1547527612295,"name":"Subway","phone":"(704) 872-7075","price":"$","reviewCount":4,"reviewScore":3.5,"meta":{"revision":0,"created":1547531151961,"version":0},"$loki":241},{"_id":"5c3d65bd3525a329e0c0d5cc","address":"5424 N Carolina Hwy 150","location":{"type":"Point","coordinates":[-80.5034175,35.73423]},"isApproved":true,"items":[],"keys":["Breakfast & Brunch","Sandwiches"],"lastUpdated":1547527612548,"name":"Hoyts Country Cooking","phone":"(336) 830-8820","price":"","reviewCount":10,"reviewScore":3.5,"meta":{"revision":0,"created":1547531151961,"version":0},"$loki":242}],"idIndex":[1,2,3,4,5,6,7,8,9,10,11,12,13,14,15,16,17,18,19,20,21,22,23,24,25,26,27,28,29,30,31,32,33,34,35,36,37,38,39,40,41,42,43,44,45,46,47,48,49,50,51,52,53,54,55,56,57,58,59,60,61,62,63,64,65,66,67,68,69,70,71,72,73,74,75,76,77,78,79,80,81,82,83,84,85,86,87,88,89,90,91,92,93,94,95,96,97,98,99,100,101,102,103,104,105,106,107,108,109,110,111,112,113,114,115,116,117,118,119,120,121,122,123,124,125,126,127,128,129,130,131,132,133,134,135,136,137,138,139,140,141,142,143,144,145,146,147,148,149,150,151,152,153,154,155,156,157,158,159,160,161,162,163,164,165,166,167,168,169,170,171,172,173,174,175,176,177,178,179,180,181,182,183,184,185,186,187,188,189,190,191,192,193,194,195,196,197,198,199,200,201,202,203,204,205,206,207,208,209,210,211,212,213,214,215,216,217,218,219,220,221,222,223,224,225,226,227,228,229,230,231,232,233,234,235,236,237,238,239,240,241,242],"binaryIndices":{},"constraints":null,"uniqueNames":[],"transforms":{},"objType":"restaurants","dirty":true,"cachedIndex":null,"cachedBinaryIndex":null,"cachedData":null,"adaptiveBinaryIndices":true,"transactional":false,"cloneObjects":false,"cloneMethod":"parse-stringify","asyncListeners":false,"disableMeta":false,"disableChangesApi":true,"disableDeltaChangesApi":true,"autoupdate":false,"serializableIndices":true,"ttl":null,"maxId":242,"DynamicViews":[],"events":{"insert":[],"update":[],"pre-insert":[],"pre-update":[],"close":[],"flushbuffer":[],"error":[],"delete":[null],"warning":[null]},"changes":[]}],"databaseVersion":1.5,"engineVersion":1.5,"autosave":false,"autosaveInterval":5000,"autosaveHandle":null,"throttledSaves":true,"options":{"serializationMethod":"normal","destructureDelimiter":"$<\n"},"persistenceMethod":"fs","persistenceAdapter":null,"verbose":false,"events":{"init":[null],"loaded":[],"flushChanges":[],"close":[],"changes":[],"warning":[]},"ENV":"NODEJS"}