{"filename":"-81-36","collections":[{"name":"restaurants","data":[{"_id":"5c3d65bd3525a329e0c0c420","address":"3009 N Nc Hwy 16","location":{"type":"Point","coordinates":[-81.2385653,36.1888394]},"isApproved":true,"items":[],"keys":["Chicken Wings"],"lastUpdated":1547527612524,"name":"Bojangles Restaurant","phone":"(336) 838-4203","price":"","reviewCount":3,"reviewScore":1.5,"meta":{"revision":0,"created":1547531155472,"version":0},"$loki":1},{"_id":"5c3d65bd3525a329e0c011a5","address":"309 Hwy 321","location":{"type":"Point","coordinates":[-81.2383268773556,36.1880251478589]},"isApproved":true,"items":[],"keys":["Pizza","Delis","Soup"],"lastUpdated":1547527612239,"name":"Bootleggers Deli & Pizzaria","phone":"(423) 520-6328","price":"","reviewCount":6,"reviewScore":4,"meta":{"revision":0,"created":1547531155472,"version":0},"$loki":2},{"_id":"5c3d65bd3525a329e0c14215","address":"881 Blowing Rock Rd","location":{"type":"Point","coordinates":[-81.2384339,36.1878194]},"isApproved":true,"items":[],"keys":["Breakfast & Brunch","Diners","American (Traditional)"],"lastUpdated":1547527612713,"name":"Waffle House","phone":"(828) 264-6575","price":"$","reviewCount":5,"reviewScore":4.5,"meta":{"revision":0,"created":1547531155472,"version":0},"$loki":3},{"_id":"5c3d65bd3525a329e0c0fec0","address":"2939 N Nc Highway 16","location":{"type":"Point","coordinates":[-81.2384297,36.1878292]},"isApproved":true,"items":[],"keys":["Waffles"],"lastUpdated":1547527612609,"name":"Coffee House & Waffle Shop","phone":"(336) 667-4333","price":"$","reviewCount":4,"reviewScore":2,"meta":{"revision":0,"created":1547531155472,"version":0},"$loki":4},{"_id":"5c3d65bd3525a329e0c10ed0","address":"245 Bishop&#39;s Ridge Prky","location":{"type":"Point","coordinates":[-81.2257489,36.184061]},"isApproved":true,"items":[],"keys":["Fast Food"],"lastUpdated":1547527612640,"name":"Miners Diner","phone":"","price":"","reviewCount":1,"reviewScore":1,"meta":{"revision":0,"created":1547531155472,"version":0},"$loki":5},{"_id":"5c3d65bd3525a329e0c054f5","address":"508 Broad St","location":{"type":"Point","coordinates":[-81.1935022,36.1716488]},"isApproved":true,"items":[],"keys":["Mexican"],"lastUpdated":1547527612347,"name":"El Charolais","phone":"(423) 543-2033","price":"$","reviewCount":13,"reviewScore":4.5,"meta":{"revision":0,"created":1547531155472,"version":0},"$loki":6},{"_id":"5c3d65bd3525a329e0c1098f","address":"1009 Winston Rd","location":{"type":"Point","coordinates":[-81.353915207017,35.865278877689]},"isApproved":true,"items":[],"keys":["Convenience Stores","Chicken Shop","Gas Stations"],"lastUpdated":1547527612626,"name":"Pit Stop 14","phone":"(336) 249-7270","price":"","reviewCount":1,"reviewScore":3,"meta":{"revision":0,"created":1547531155472,"version":0},"$loki":7},{"_id":"5c3d65bd3525a329e0c13160","address":"1425 Cotton Grove Rd","location":{"type":"Point","coordinates":[-81.2661222,35.7650009]},"isApproved":true,"items":[],"keys":["Fast Food","Chicken Wings","Salad"],"lastUpdated":1547527612688,"name":"Zaxby’s Chicken Fingers & Buffalo Wings","phone":"(336) 238-2900","price":"$$","reviewCount":10,"reviewScore":3.5,"meta":{"revision":0,"created":1547531155472,"version":0},"$loki":8},{"_id":"5c3d65bd3525a329e0c0e281","address":"122 Hwy 16 S","location":{"type":"Point","coordinates":[-81.1851370615134,35.7941305521746]},"isApproved":true,"items":[],"keys":["Breakfast & Brunch","Burgers","American (Traditional)"],"lastUpdated":1547527612566,"name":"Everest Grill","phone":"(704) 822-0404","price":"$","reviewCount":21,"reviewScore":3.5,"meta":{"revision":0,"created":1547531155472,"version":0},"$loki":9},{"_id":"5c3d65bd3525a329e0c1aaad","address":"1071 Glenway Dr","location":{"type":"Point","coordinates":[-81.2334316,35.8352635]},"isApproved":true,"items":[],"keys":["Barbeque","Steakhouses","American (Traditional)"],"lastUpdated":1547527612868,"name":"Logan’s Roadhouse","phone":"(704) 873-3122","price":"$$","reviewCount":38,"reviewScore":3,"meta":{"revision":0,"created":1547531155472,"version":0},"$loki":10},{"_id":"5c3d65bd3525a329e0c109aa","address":"47 Falls Ave","location":{"type":"Point","coordinates":[-81.3054800033569,35.8145071585864]},"isApproved":true,"items":[],"keys":["Burgers"],"lastUpdated":1547527612626,"name":"Al’s Restaurant","phone":"(828) 396-7775","price":"$","reviewCount":4,"reviewScore":4.5,"meta":{"revision":0,"created":1547531155472,"version":0},"$loki":11},{"_id":"5c3d65bd3525a329e0c16ffc","address":"71 Plaza Pkwy","location":{"type":"Point","coordinates":[-81.3054800033569,35.8145071585864]},"isApproved":true,"items":[],"keys":["American (Traditional)","Sports Bars","Burgers"],"lastUpdated":1547527612782,"name":"Applebee’s Grill + Bar","phone":"(336) 243-4483","price":"$$","reviewCount":28,"reviewScore":2,"meta":{"revision":0,"created":1547531155472,"version":0},"$loki":12},{"_id":"5c3d65bd3525a329e0c011f5","address":"530 Dudley Shoals Rd","location":{"type":"Point","coordinates":[-81.3035781,35.8165847]},"isApproved":true,"items":[],"keys":["Pizza","Chicken Wings","Sandwiches"],"lastUpdated":1547527612239,"name":"Domino’s Pizza","phone":"(828) 313-0555","price":"$","reviewCount":4,"reviewScore":5,"meta":{"revision":0,"created":1547531155472,"version":0},"$loki":13},{"_id":"5c3d65bd3525a329e0c19f39","address":"9441 Nc Highway 127","location":{"type":"Point","coordinates":[-81.3035781,35.8165847]},"isApproved":true,"items":[],"keys":["Grocery","Beer, Wine & Spirits","Chicken Wings"],"lastUpdated":1547527612851,"name":"Lowes Foods","phone":"(828) 495-1105","price":"$$","reviewCount":1,"reviewScore":4,"meta":{"revision":0,"created":1547531155472,"version":0},"$loki":14},{"_id":"5c3d65bd3525a329e0c0a343","address":"9467 Nc Hwy 127","location":{"type":"Point","coordinates":[-81.303754,35.816135]},"isApproved":true,"items":[],"keys":["Italian","Pizza"],"lastUpdated":1547527612474,"name":"Village Inn Pizza Parlor","phone":"(828) 495-9378","price":"$","reviewCount":3,"reviewScore":4.5,"meta":{"revision":0,"created":1547531155472,"version":0},"$loki":15},{"_id":"5c3d65bd3525a329e0c0b679","address":"4030 Hickory Blvd","location":{"type":"Point","coordinates":[-81.303754,35.816135]},"isApproved":true,"items":[],"keys":["Chinese"],"lastUpdated":1547527612500,"name":"Hong Kong Kitchen","phone":"(828) 396-7117","price":"$","reviewCount":4,"reviewScore":3,"meta":{"revision":0,"created":1547531155472,"version":0},"$loki":16},{"_id":"5c3d65bd3525a329e0c00d87","address":"31 Pinewood Rd","location":{"type":"Point","coordinates":[-81.3028456797655,35.8153243942997]},"isApproved":true,"items":[],"keys":["Barbeque"],"lastUpdated":1547527612237,"name":"Hannah’s BBQ South","phone":"(828) 313-2224","price":"","reviewCount":1,"reviewScore":3,"meta":{"revision":0,"created":1547531155472,"version":0},"$loki":17},{"_id":"5c3d65bd3525a329e0c1716d","address":"2826 S Main St","location":{"type":"Point","coordinates":[-81.3028456797655,35.8153243942997]},"isApproved":true,"items":[],"keys":["Mexican"],"lastUpdated":1547527612782,"name":"La Hacienda","phone":"(336) 434-5837","price":"$","reviewCount":21,"reviewScore":4,"meta":{"revision":0,"created":1547531155472,"version":0},"$loki":18},{"_id":"5c3d65bd3525a329e0c05dad","address":"412 Piedmont Dr","location":{"type":"Point","coordinates":[-81.312553,35.924298]},"isApproved":true,"items":[],"keys":["Steakhouses","Beer Bar","Desserts"],"lastUpdated":1547527612361,"name":"Texas Steak & Tap House","phone":"(336) 843-4516","price":"$$","reviewCount":34,"reviewScore":3,"meta":{"revision":0,"created":1547531155472,"version":0},"$loki":19},{"_id":"5c3d65bd3525a329e0c1b4fc","address":"3446 E Broad St","location":{"type":"Point","coordinates":[-81.1897134,35.8749791]},"isApproved":true,"items":[],"keys":["Pizza","Italian","Greek"],"lastUpdated":1547527612885,"name":"Mivano’s Pizza","phone":"(704) 838-1058","price":"$","reviewCount":10,"reviewScore":4,"meta":{"revision":0,"created":1547531155472,"version":0},"$loki":20},{"_id":"5c3d65bd3525a329e0bffcc1","address":"224 W Broad St","location":{"type":"Point","coordinates":[-81.1778047349718,35.9078574710422]},"isApproved":true,"items":[],"keys":["Chinese"],"lastUpdated":1547527612221,"name":"Peking","phone":"(704) 881-0881","price":"$","reviewCount":9,"reviewScore":4,"meta":{"revision":0,"created":1547531155472,"version":0},"$loki":21},{"_id":"5c3d65bd3525a329e0c13d7d","address":"4344 S Nc Hwy 150","location":{"type":"Point","coordinates":[-81.1764318,35.9104045]},"isApproved":true,"items":[],"keys":["Fast Food","Sandwiches"],"lastUpdated":1547527612706,"name":"Subway","phone":"(336) 853-4991","price":"","reviewCount":2,"reviewScore":1,"meta":{"revision":0,"created":1547531155472,"version":0},"$loki":22},{"_id":"5c3d65bd3525a329e0c094f1","address":"2352 Springs Rd NE","location":{"type":"Point","coordinates":[-81.1784102,35.9147273]},"isApproved":true,"items":[],"keys":["Thai","Vegan","Vegetarian"],"lastUpdated":1547527612453,"name":"J Thai & Sushi","phone":"(828) 256-9808","price":"$$","reviewCount":24,"reviewScore":4.5,"meta":{"revision":0,"created":1547531155472,"version":0},"$loki":23},{"_id":"5c3d65bd3525a329e0c09614","address":"5251 Hickory Blvd Hickory","location":{"type":"Point","coordinates":[-81.17925,35.9039976]},"isApproved":true,"items":[],"keys":["Diners","American (New)"],"lastUpdated":1547527612454,"name":"Food Factory Craft Diner","phone":"(828) 855-9231","price":"$$","reviewCount":57,"reviewScore":3.5,"meta":{"revision":0,"created":1547531155472,"version":0},"$loki":24},{"_id":"5c3d65bd3525a329e0c14e23","address":"119 Marshall Forest Ln","location":{"type":"Point","coordinates":[-81.1772906,35.9017203]},"isApproved":true,"items":[],"keys":["Caterers","Barbeque"],"lastUpdated":1547527612730,"name":"Koala-T Katering","phone":"(704) 838-0333","price":"","reviewCount":1,"reviewScore":5,"meta":{"revision":0,"created":1547531155472,"version":0},"$loki":25},{"_id":"5c3d65bd3525a329e0c102d2","address":"1240 E Garner Bagnal Blvd","location":{"type":"Point","coordinates":[-81.2074819,35.915094]},"isApproved":true,"items":[],"keys":["Diners","Breakfast & Brunch","American (Traditional)"],"lastUpdated":1547527612617,"name":"Waffle House","phone":"(704) 873-7226","price":"$","reviewCount":9,"reviewScore":3.5,"meta":{"revision":0,"created":1547531155472,"version":0},"$loki":26},{"_id":"5c3d65bd3525a329e0c0b271","address":"8275 S Nc Hwy 109","location":{"type":"Point","coordinates":[-81.19001,35.921173]},"isApproved":true,"items":[],"keys":["Pizza"],"lastUpdated":1547527612498,"name":"Sir Pizza","phone":"(336) 476-9847","price":"$","reviewCount":2,"reviewScore":1,"meta":{"revision":0,"created":1547531155472,"version":0},"$loki":27},{"_id":"5c3d65bd3525a329e0c17dcb","address":"1005 Glenway Dr","location":{"type":"Point","coordinates":[-81.1908113,35.9222272]},"isApproved":true,"items":[],"keys":["Fast Food","Chicken Wings","Chicken Shop"],"lastUpdated":1547527612801,"name":"KFC","phone":"(704) 871-8118","price":"$","reviewCount":3,"reviewScore":2.5,"meta":{"revision":0,"created":1547531155472,"version":0},"$loki":28},{"_id":"5c3d65bd3525a329e0c03e1d","address":"1043 Yadkinville Rd","location":{"type":"Point","coordinates":[-81.187216,35.9213501]},"isApproved":true,"items":[],"keys":["Chinese"],"lastUpdated":1547527612313,"name":"China Grill","phone":"(336) 751-1217","price":"$","reviewCount":14,"reviewScore":3.5,"meta":{"revision":0,"created":1547531155472,"version":0},"$loki":29},{"_id":"5c3d65bd3525a329e0c1883e","address":"90 Liledoun Rd","location":{"type":"Point","coordinates":[-81.1859674,35.9207936]},"isApproved":true,"items":[],"keys":["Pizza"],"lastUpdated":1547527612822,"name":"Village Inn Pizza Parlor","phone":"(828) 632-9217","price":"$","reviewCount":5,"reviewScore":3.5,"meta":{"revision":0,"created":1547531155472,"version":0},"$loki":30},{"_id":"5c3d65bd3525a329e0c07193","address":"1968 Old Mountain Rd","location":{"type":"Point","coordinates":[-81.1863118,35.9211568]},"isApproved":true,"items":[],"keys":["Restaurants"],"lastUpdated":1547527612397,"name":"Troy’s 50’s Restaurant","phone":"(704) 872-1111","price":"$","reviewCount":8,"reviewScore":2.5,"meta":{"revision":0,"created":1547531155472,"version":0},"$loki":31},{"_id":"5c3d65bd3525a329e0c17769","address":"64 W US Hwy 64","location":{"type":"Point","coordinates":[-81.1859592,35.921606]},"isApproved":true,"items":[],"keys":["Sushi Bars","Japanese"],"lastUpdated":1547527612791,"name":"Fuji Moto","phone":"(336) 249-7696","price":"$$","reviewCount":22,"reviewScore":3,"meta":{"revision":0,"created":1547531155472,"version":0},"$loki":32},{"_id":"5c3d65bd3525a329e0bffb20","address":"25 S Talbert Blvd","location":{"type":"Point","coordinates":[-81.18633,35.92209]},"isApproved":true,"items":[],"keys":["Pizza"],"lastUpdated":1547527612220,"name":"Papa John’s Pizza","phone":"(336) 236-7272","price":"$","reviewCount":3,"reviewScore":2,"meta":{"revision":0,"created":1547531155472,"version":0},"$loki":33},{"_id":"5c3d65bd3525a329e0c0d41a","address":"24 Liledoun Rd","location":{"type":"Point","coordinates":[-81.1864,35.9217]},"isApproved":true,"items":[],"keys":["Chicken Wings","Fast Food","Chicken Shop"],"lastUpdated":1547527612546,"name":"KFC","phone":"(828) 632-5153","price":"$","reviewCount":1,"reviewScore":2,"meta":{"revision":0,"created":1547531155472,"version":0},"$loki":34},{"_id":"5c3d65bd3525a329e0c0ef01","address":"66 NC Hwy 66 N","location":{"type":"Point","coordinates":[-81.1866527,35.9231246]},"isApproved":true,"items":[],"keys":["Japanese"],"lastUpdated":1547527612583,"name":"Koto’s","phone":"(828) 632-7717","price":"$","reviewCount":4,"reviewScore":2,"meta":{"revision":0,"created":1547531155472,"version":0},"$loki":35},{"_id":"5c3d65bd3525a329e0c0ddc2","address":"229 E Front St","location":{"type":"Point","coordinates":[-81.1873646,35.9234711]},"isApproved":true,"items":[],"keys":["Burgers","Sandwiches"],"lastUpdated":1547527612563,"name":"Wayne’s","phone":"(980) 223-8836","price":"$","reviewCount":1,"reviewScore":1,"meta":{"revision":0,"created":1547531155472,"version":0},"$loki":36},{"_id":"5c3d65bd3525a329e0c13873","address":"561 W Main Ave","location":{"type":"Point","coordinates":[-81.1852721162949,35.9215211790316]},"isApproved":true,"items":[],"keys":["Burgers","Fast Food","Coffee & Tea"],"lastUpdated":1547527612698,"name":"McDonald’s","phone":"(828) 632-2004","price":"$","reviewCount":8,"reviewScore":2,"meta":{"revision":0,"created":1547531155472,"version":0},"$loki":37},{"_id":"5c3d65bd3525a329e0c0413e","address":"1587 Liberty Dr","location":{"type":"Point","coordinates":[-81.1700895,35.9220181]},"isApproved":true,"items":[],"keys":["Pizza","Italian"],"lastUpdated":1547527612320,"name":"Elizabeth Pizza & Restaurant","phone":"(336) 476-2600","price":"$","reviewCount":20,"reviewScore":4,"meta":{"revision":0,"created":1547531155472,"version":0},"$loki":38},{"_id":"5c3d65bd3525a329e0c035cf","address":"51 Plaza Pkwy","location":{"type":"Point","coordinates":[-81.165125,35.9219165]},"isApproved":true,"items":[],"keys":["Chicken Wings","American (Traditional)","Burgers"],"lastUpdated":1547527612303,"name":"Coach’s Neighborhood Grill","phone":"(336) 843-1806","price":"$$","reviewCount":14,"reviewScore":3,"meta":{"revision":0,"created":1547531155472,"version":0},"$loki":39},{"_id":"5c3d65bd3525a329e0c00183","address":"","location":{"type":"Point","coordinates":[-81.15806,35.9181434]},"isApproved":true,"items":[],"keys":["Food Trucks","Chicken Wings"],"lastUpdated":1547527612224,"name":"Wingz on Wheelz Food Truck","phone":"(704) 657-9649","price":"","reviewCount":4,"reviewScore":3.5,"meta":{"revision":0,"created":1547531155472,"version":0},"$loki":40},{"_id":"5c3d65bd3525a329e0c06946","address":"216 West Broad St","location":{"type":"Point","coordinates":[-81.091055,35.901591]},"isApproved":true,"items":[],"keys":["American (Traditional)","Salad","Wraps"],"lastUpdated":1547527612379,"name":"Broad Street Bistro","phone":"(980) 635-1832","price":"$","reviewCount":7,"reviewScore":4.5,"meta":{"revision":0,"created":1547531155472,"version":0},"$loki":41},{"_id":"5c3d65bd3525a329e0c0130f","address":"900 N Main St","location":{"type":"Point","coordinates":[-81.0352097,35.8558687]},"isApproved":true,"items":[],"keys":["Barbeque"],"lastUpdated":1547527612241,"name":"Barbecue Center","phone":"(336) 248-4633","price":"$","reviewCount":108,"reviewScore":4,"meta":{"revision":0,"created":1547531155472,"version":0},"$loki":42},{"_id":"5c3d65bd3525a329e0c12114","address":"162 Davidson Dr","location":{"type":"Point","coordinates":[-81.0352097,35.8558687]},"isApproved":true,"items":[],"keys":["American (Traditional)"],"lastUpdated":1547527612663,"name":"Randy’s Restaurant","phone":"(336) 731-0073","price":"$$","reviewCount":6,"reviewScore":4,"meta":{"revision":0,"created":1547531155472,"version":0},"$loki":43},{"_id":"5c3d65bd3525a329e0c07793","address":"222 Union Sq","location":{"type":"Point","coordinates":[-80.9983518,35.7738896]},"isApproved":true,"items":[],"keys":["Pubs","American (Traditional)"],"lastUpdated":1547527612402,"name":"Olde Hickory Tap Room","phone":"(828) 322-1965","price":"$$","reviewCount":185,"reviewScore":4,"meta":{"revision":0,"created":1547531155472,"version":0},"$loki":44},{"_id":"5c3d65bd3525a329e0c14464","address":"30 Buffett Blvd","location":{"type":"Point","coordinates":[-81.00502,35.7830807]},"isApproved":true,"items":[],"keys":["Burgers","American (Traditional)"],"lastUpdated":1547527612714,"name":"Scotty’s Hometown Grill","phone":"(828) 635-5635","price":"$","reviewCount":14,"reviewScore":4,"meta":{"revision":0,"created":1547531155472,"version":0},"$loki":45},{"_id":"5c3d65bd3525a329e0c1258c","address":"1289 Yadkinville Rd","location":{"type":"Point","coordinates":[-81.006223,35.784065]},"isApproved":true,"items":[],"keys":["Diners","Breakfast & Brunch","American (Traditional)"],"lastUpdated":1547527612670,"name":"Waffle House","phone":"(336) 751-2114","price":"$","reviewCount":3,"reviewScore":3.5,"meta":{"revision":0,"created":1547531155472,"version":0},"$loki":46},{"_id":"5c3d65bd3525a329e0c0d451","address":"155 Gaither St","location":{"type":"Point","coordinates":[-80.81148,35.806862]},"isApproved":true,"items":[],"keys":["Italian"],"lastUpdated":1547527612547,"name":"La Vita e Bella","phone":"(336) 936-9301","price":"","reviewCount":14,"reviewScore":4.5,"meta":{"revision":0,"created":1547531155472,"version":0},"$loki":47},{"_id":"5c3d65bd3525a329e0c08591","address":"1929 E Broad S","location":{"type":"Point","coordinates":[-80.8116373,35.8073111]},"isApproved":true,"items":[],"keys":["Japanese","Sushi Bars"],"lastUpdated":1547527612427,"name":"Shiki","phone":"(704) 873-0901","price":"$","reviewCount":19,"reviewScore":3.5,"meta":{"revision":0,"created":1547531155472,"version":0},"$loki":48},{"_id":"5c3d65bd3525a329e0c083b6","address":"925 Davie Ave","location":{"type":"Point","coordinates":[-80.82822,35.809935]},"isApproved":true,"items":[],"keys":["Thai"],"lastUpdated":1547527612421,"name":"Chopstix","phone":"(704) 872-5200","price":"$$","reviewCount":94,"reviewScore":4,"meta":{"revision":0,"created":1547531155472,"version":0},"$loki":49},{"_id":"5c3d65bd3525a329e0c12a32","address":"101 E Broad St","location":{"type":"Point","coordinates":[-80.8273422,35.810297]},"isApproved":true,"items":[],"keys":["Delis","Sandwiches","Salad"],"lastUpdated":1547527612679,"name":"Groucho’s Deli","phone":"(704) 871-2828","price":"$","reviewCount":45,"reviewScore":4,"meta":{"revision":0,"created":1547531155472,"version":0},"$loki":50},{"_id":"5c3d65bd3525a329e0c18e0d","address":"6655 Old US Hwy 52","location":{"type":"Point","coordinates":[-80.832882,35.812793]},"isApproved":true,"items":[],"keys":["Japanese"],"lastUpdated":1547527612831,"name":"Kimono Authentic Japanese Restaurant","phone":"(336) 731-7510","price":"$","reviewCount":14,"reviewScore":3.5,"meta":{"revision":0,"created":1547531155472,"version":0},"$loki":51},{"_id":"5c3d65bd3525a329e0c09912","address":"2015 Front St","location":{"type":"Point","coordinates":[-80.843648,35.818207]},"isApproved":true,"items":[],"keys":["Mexican"],"lastUpdated":1547527612463,"name":"La Pelusa","phone":"(704) 872-7379","price":"$","reviewCount":52,"reviewScore":4.5,"meta":{"revision":0,"created":1547531155472,"version":0},"$loki":52},{"_id":"5c3d65bd3525a329e0c19328","address":"1023 Shelton Ave","location":{"type":"Point","coordinates":[-80.8524389,35.8056811]},"isApproved":true,"items":[],"keys":["Barbeque"],"lastUpdated":1547527612834,"name":"Phifer’s Hot Wings & Bar-B-Q","phone":"(704) 873-7505","price":"$","reviewCount":17,"reviewScore":4,"meta":{"revision":0,"created":1547531155472,"version":0},"$loki":53},{"_id":"5c3d65bd3525a329e0c0690e","address":"1936 E Broad St","location":{"type":"Point","coordinates":[-80.8500347,35.7905707]},"isApproved":true,"items":[],"keys":["Sandwiches","Fast Food"],"lastUpdated":1547527612379,"name":"Subway","phone":"(704) 872-5471","price":"$","reviewCount":3,"reviewScore":3,"meta":{"revision":0,"created":1547531155472,"version":0},"$loki":54},{"_id":"5c3d65bd3525a329e0c15a25","address":"2220 N Center St","location":{"type":"Point","coordinates":[-80.8507106944733,35.7909309276396]},"isApproved":true,"items":[],"keys":["Mexican","Latin American"],"lastUpdated":1547527612748,"name":"Que Rico!","phone":"(828) 855-2209","price":"","reviewCount":3,"reviewScore":4.5,"meta":{"revision":0,"created":1547531155472,"version":0},"$loki":55},{"_id":"5c3d65bd3525a329e0c02d5d","address":"123 N Center St","location":{"type":"Point","coordinates":[-80.8531366,35.7912003]},"isApproved":true,"items":[],"keys":["American (New)","Lounges"],"lastUpdated":1547527612294,"name":"Risto’s Place","phone":"(704) 872-5557","price":"$$","reviewCount":54,"reviewScore":4,"meta":{"revision":0,"created":1547531155472,"version":0},"$loki":56},{"_id":"5c3d65bd3525a329e0c18ff1","address":"74 8th St SE","location":{"type":"Point","coordinates":[-80.852576,35.792087]},"isApproved":true,"items":[],"keys":["Moroccan","Spanish","Tapas Bars"],"lastUpdated":1547527612832,"name":"Boca","phone":"(828) 855-9944","price":"$$","reviewCount":44,"reviewScore":4.5,"meta":{"revision":0,"created":1547531155472,"version":0},"$loki":57},{"_id":"5c3d65bd3525a329e0c051bc","address":"1826 E Broad St","location":{"type":"Point","coordinates":[-80.8532683,35.7900368]},"isApproved":true,"items":[],"keys":["Fast Food","Sandwiches"],"lastUpdated":1547527612340,"name":"Arby’s","phone":"(704) 872-1662","price":"$","reviewCount":2,"reviewScore":2.5,"meta":{"revision":0,"created":1547531155472,"version":0},"$loki":58},{"_id":"5c3d65bd3525a329e0c06a3a","address":"1813 E Broad St","location":{"type":"Point","coordinates":[-80.853974,35.7908572]},"isApproved":true,"items":[],"keys":["Pizza"],"lastUpdated":1547527612379,"name":"Papa John’s Pizza","phone":"(704) 873-7272","price":"$$","reviewCount":5,"reviewScore":2,"meta":{"revision":0,"created":1547531155472,"version":0},"$loki":59},{"_id":"5c3d65bd3525a329e0c17eb8","address":"4873 Nc Hwy 62","location":{"type":"Point","coordinates":[-80.859308,35.788591]},"isApproved":true,"items":[],"keys":["Barbeque","Breakfast & Brunch"],"lastUpdated":1547527612802,"name":"BBQ Joes","phone":"(336) 476-0474","price":"$","reviewCount":50,"reviewScore":4.5,"meta":{"revision":0,"created":1547531155472,"version":0},"$loki":60},{"_id":"5c3d65bd3525a329e0c0448a","address":"1520 Yadkinville Road","location":{"type":"Point","coordinates":[-80.859293,35.7887289]},"isApproved":true,"items":[],"keys":["Mexican","Tex-Mex","Fast Food"],"lastUpdated":1547527612322,"name":"Taco Bell","phone":"(336) 751-7031","price":"$","reviewCount":4,"reviewScore":3.5,"meta":{"revision":0,"created":1547531155472,"version":0},"$loki":61},{"_id":"5c3d65bd3525a329e0bffac7","address":"3203 Taylorsville Hwy","location":{"type":"Point","coordinates":[-80.8590329,35.7901022]},"isApproved":true,"items":[],"keys":["Coffee & Tea","Burgers","Fast Food"],"lastUpdated":1547527612220,"name":"McDonald’s","phone":"(704) 872-6718","price":"$","reviewCount":6,"reviewScore":2.5,"meta":{"revision":0,"created":1547531155472,"version":0},"$loki":62},{"_id":"5c3d65bd3525a329e0c029db","address":"975 Glenway Dr","location":{"type":"Point","coordinates":[-80.8546226,35.7907377]},"isApproved":true,"items":[],"keys":["Burgers","Fast Food","Coffee & Tea"],"lastUpdated":1547527612286,"name":"McDonald’s","phone":"(704) 871-8545","price":"$","reviewCount":8,"reviewScore":1.5,"meta":{"revision":0,"created":1547531155472,"version":0},"$loki":63},{"_id":"5c3d65bd3525a329e0c0a684","address":"1644 E Broad St","location":{"type":"Point","coordinates":[-80.85629,35.79065]},"isApproved":true,"items":[],"keys":["Pizza"],"lastUpdated":1547527612481,"name":"Little Caesars","phone":"(704) 873-4517","price":"","reviewCount":3,"reviewScore":3.5,"meta":{"revision":0,"created":1547531155472,"version":0},"$loki":64},{"_id":"5c3d65bd3525a329e0c15b42","address":"172 Turnersburg Hwy","location":{"type":"Point","coordinates":[-80.8557,35.791744]},"isApproved":true,"items":[],"keys":["Mexican","Tex-Mex","Fast Food"],"lastUpdated":1547527612753,"name":"Taco Bell","phone":"(704) 872-9560","price":"","reviewCount":9,"reviewScore":2.5,"meta":{"revision":0,"created":1547531155472,"version":0},"$loki":65},{"_id":"5c3d65bd3525a329e0c02612","address":"883 Highland Ave SE","location":{"type":"Point","coordinates":[-80.854447,35.794568]},"isApproved":true,"items":[],"keys":["American (New)","Bars","American (Traditional)","Cocktail Bars"],"lastUpdated":1547527612284,"name":"Highland Avenue","phone":"(828) 267-9800","price":"$$$","reviewCount":68,"reviewScore":4.5,"meta":{"revision":0,"created":1547531155472,"version":0},"$loki":66},{"_id":"5c3d65bd3525a329e0c185cf","address":"1720 US Hwy 601 N","location":{"type":"Point","coordinates":[-80.859889,35.792851]},"isApproved":true,"items":[],"keys":["Fast Food","Chicken Wings"],"lastUpdated":1547527612815,"name":"Popeyes Louisiana Kitchen","phone":"(336) 751-3815","price":"$","reviewCount":6,"reviewScore":3,"meta":{"revision":0,"created":1547531155472,"version":0},"$loki":67},{"_id":"5c3d65bd3525a329e0c05a33","address":"410 Randolph St","location":{"type":"Point","coordinates":[-80.858406,35.7903291]},"isApproved":true,"items":[],"keys":["Asian Fusion"],"lastUpdated":1547527612356,"name":"Mandarin Express","phone":"(336) 476-7878","price":"","reviewCount":6,"reviewScore":4.5,"meta":{"revision":0,"created":1547531155472,"version":0},"$loki":68},{"_id":"5c3d65bd3525a329e0c0eafc","address":"797 Nc Hwy 16 S","location":{"type":"Point","coordinates":[-80.85933,35.79109]},"isApproved":true,"items":[],"keys":["Japanese"],"lastUpdated":1547527612581,"name":"Nikki Japanese Restaurant","phone":"(828) 632-9955","price":"$","reviewCount":4,"reviewScore":4.5,"meta":{"revision":0,"created":1547531155472,"version":0},"$loki":69},{"_id":"5c3d65bd3525a329e0c0ef07","address":"200 E Front St","location":{"type":"Point","coordinates":[-80.8597282,35.7905354]},"isApproved":true,"items":[],"keys":["Pizza"],"lastUpdated":1547527612583,"name":"Marco’s","phone":"(704) 878-8600","price":"$$","reviewCount":8,"reviewScore":2.5,"meta":{"revision":0,"created":1547531155472,"version":0},"$loki":70},{"_id":"5c3d65bd3525a329e0c1af15","address":"1148 Randolph St","location":{"type":"Point","coordinates":[-80.8746617,35.7938515]},"isApproved":true,"items":[],"keys":["Fast Food","Chicken Wings","Salad"],"lastUpdated":1547527612876,"name":"Zaxby’s Chicken Fingers & Buffalo Wings","phone":"(336) 313-8636","price":"$","reviewCount":7,"reviewScore":3,"meta":{"revision":0,"created":1547531155472,"version":0},"$loki":71},{"_id":"5c3d65bd3525a329e0c0f8e3","address":"6835 W Hwy 64","location":{"type":"Point","coordinates":[-80.875937,35.7941812]},"isApproved":true,"items":[],"keys":["Barbeque"],"lastUpdated":1547527612600,"name":"Tarheel Q","phone":"(336) 787-4550","price":"$","reviewCount":19,"reviewScore":4,"meta":{"revision":0,"created":1547531155472,"version":0},"$loki":72},{"_id":"5c3d65bd3525a329e0c18d91","address":"2822 S Main St","location":{"type":"Point","coordinates":[-80.8759802,35.7946495]},"isApproved":true,"items":[],"keys":["Caterers","Barbeque"],"lastUpdated":1547527612831,"name":"Bbq Joe’s Country Cooking & Catering","phone":"(336) 434-4355","price":"$","reviewCount":144,"reviewScore":4.5,"meta":{"revision":0,"created":1547531155472,"version":0},"$loki":73},{"_id":"5c3d65bd3525a329e0c0a6cf","address":"102 Signal Hill Dr","location":{"type":"Point","coordinates":[-80.8752791583538,35.8033331644815]},"isApproved":true,"items":[],"keys":["Fast Food","Mexican"],"lastUpdated":1547527612481,"name":"Taco Bell","phone":"(704) 873-4691","price":"$","reviewCount":13,"reviewScore":2.5,"meta":{"revision":0,"created":1547531155472,"version":0},"$loki":74},{"_id":"5c3d65bd3525a329e0c04adc","address":"2906 Springs Rd","location":{"type":"Point","coordinates":[-80.8759406,35.8048051]},"isApproved":true,"items":[],"keys":["Barbeque"],"lastUpdated":1547527612331,"name":"Caveman ‘Q","phone":"(828) 323-9111","price":"$","reviewCount":5,"reviewScore":4.5,"meta":{"revision":0,"created":1547531155472,"version":0},"$loki":75},{"_id":"5c3d65bd3525a329e0c128ff","address":"11 E Main St","location":{"type":"Point","coordinates":[-80.876171,35.814727]},"isApproved":true,"items":[],"keys":["Southern"],"lastUpdated":1547527612679,"name":"Chair City Tavern","phone":"(336) 313-5509","price":"","reviewCount":17,"reviewScore":4,"meta":{"revision":0,"created":1547531155472,"version":0},"$loki":76},{"_id":"5c3d65bd3525a329e0c10494","address":"3103 Taylorsville Hwy","location":{"type":"Point","coordinates":[-80.8758721,35.8137238]},"isApproved":true,"items":[],"keys":["American (Traditional)"],"lastUpdated":1547527612618,"name":"Boxcar Grille","phone":"(704) 397-9287","price":"$$","reviewCount":28,"reviewScore":3,"meta":{"revision":0,"created":1547531155472,"version":0},"$loki":77},{"_id":"5c3d65bd3525a329e0c1a27c","address":"1033 Randolph St","location":{"type":"Point","coordinates":[-80.8692579,35.8108952]},"isApproved":true,"items":[],"keys":["Mexican"],"lastUpdated":1547527612858,"name":"La Carreta Mexican Restaurant","phone":"(336) 475-0171","price":"$","reviewCount":15,"reviewScore":3,"meta":{"revision":0,"created":1547531155472,"version":0},"$loki":78},{"_id":"5c3d65bd3525a329e0c122f0","address":"885 S Salisbury Ave","location":{"type":"Point","coordinates":[-80.8689553,35.809224]},"isApproved":true,"items":[],"keys":["Barbeque"],"lastUpdated":1547527612669,"name":"CJ’s Bar-B-Cue","phone":"(336) 751-2495","price":"$","reviewCount":9,"reviewScore":3.5,"meta":{"revision":0,"created":1547531155472,"version":0},"$loki":79},{"_id":"5c3d65bd3525a329e0c0d76b","address":"4500 US Hwy 64 90 W","location":{"type":"Point","coordinates":[-80.869654,35.809079]},"isApproved":true,"items":[],"keys":["Breakfast & Brunch","American (Traditional)"],"lastUpdated":1547527612554,"name":"Big D’s Diner & Country Store","phone":"(828) 632-7800","price":"","reviewCount":3,"reviewScore":5,"meta":{"revision":0,"created":1547531155472,"version":0},"$loki":80},{"_id":"5c3d65bd3525a329e0c0939f","address":"308 Mockville Hwy","location":{"type":"Point","coordinates":[-80.8721651,35.8097875]},"isApproved":true,"items":[],"keys":["American (Traditional)","Breakfast & Brunch"],"lastUpdated":1547527612452,"name":"Greenbriar Village Cafe","phone":"(704) 397-2438","price":"$","reviewCount":6,"reviewScore":4,"meta":{"revision":0,"created":1547531155472,"version":0},"$loki":81},{"_id":"5c3d65bd3525a329e0c06252","address":"116 E Main St","location":{"type":"Point","coordinates":[-80.871894,35.808789]},"isApproved":true,"items":[],"keys":["Mexican"],"lastUpdated":1547527612369,"name":"Los Agaves","phone":"(336) 313-6058","price":"","reviewCount":4,"reviewScore":5,"meta":{"revision":0,"created":1547531155472,"version":0},"$loki":82},{"_id":"5c3d65bd3525a329e0c1a55d","address":"31 W 2nd Ave","location":{"type":"Point","coordinates":[-80.8711169,35.8089662]},"isApproved":true,"items":[],"keys":["American (Traditional)"],"lastUpdated":1547527612860,"name":"Village Grill","phone":"(336) 248-5900","price":"$","reviewCount":16,"reviewScore":3.5,"meta":{"revision":0,"created":1547531155472,"version":0},"$loki":83},{"_id":"5c3d65bd3525a329e0c02754","address":"128 N Main St","location":{"type":"Point","coordinates":[-80.8731871,35.8104502]},"isApproved":true,"items":[],"keys":["Coffee & Tea","Desserts","Sandwiches"],"lastUpdated":1547527612284,"name":"The Factory Coffeehouse","phone":"(336) 753-8866","price":"$","reviewCount":21,"reviewScore":4.5,"meta":{"revision":0,"created":1547531155472,"version":0},"$loki":84},{"_id":"5c3d65bd3525a329e0c19ece","address":"817 Raleigh Rd","location":{"type":"Point","coordinates":[-80.87417,35.81028]},"isApproved":true,"items":[],"keys":["Pizza","Sandwiches"],"lastUpdated":1547527612851,"name":"Elizabeth’s Pizza","phone":"(336) 243-2286","price":"$$","reviewCount":13,"reviewScore":3.5,"meta":{"revision":0,"created":1547531155472,"version":0},"$loki":85},{"_id":"5c3d65bd3525a329e0c11abf","address":"110 Signal Hill Dr","location":{"type":"Point","coordinates":[-80.874741,35.812137]},"isApproved":true,"items":[],"keys":["Fast Food","Burgers","Coffee & Tea"],"lastUpdated":1547527612652,"name":"McDonald’s","phone":"(704) 872-4549","price":"$","reviewCount":14,"reviewScore":2.5,"meta":{"revision":0,"created":1547531155472,"version":0},"$loki":86},{"_id":"5c3d65bd3525a329e0bff7a6","address":"132 W Main St","location":{"type":"Point","coordinates":[-80.8762864,35.8121515]},"isApproved":true,"items":[],"keys":["Diners","Southern"],"lastUpdated":1547527612218,"name":"T-Ville Diner","phone":"(336) 472-3322","price":"$","reviewCount":21,"reviewScore":4,"meta":{"revision":0,"created":1547531155472,"version":0},"$loki":87},{"_id":"5c3d65bd3525a329e0c13146","address":"3233 Taylorsville Rd","location":{"type":"Point","coordinates":[-80.8762396,35.8115754]},"isApproved":true,"items":[],"keys":["Italian","Pizza","Salad"],"lastUpdated":1547527612688,"name":"Village Inn Pizza Parlor","phone":"(704) 873-1101","price":"$","reviewCount":6,"reviewScore":3.5,"meta":{"revision":0,"created":1547531155472,"version":0},"$loki":88},{"_id":"5c3d65bd3525a329e0c14052","address":"847 Madison Rd","location":{"type":"Point","coordinates":[-80.8761099,35.8111429]},"isApproved":true,"items":[],"keys":["Burgers","Fast Food"],"lastUpdated":1547527612707,"name":"Burger King","phone":"(336) 751-1204","price":"","reviewCount":5,"reviewScore":1.5,"meta":{"revision":0,"created":1547531155472,"version":0},"$loki":89},{"_id":"5c3d65bd3525a329e0c13660","address":"1322 National Hwy","location":{"type":"Point","coordinates":[-80.8751588,35.8111127]},"isApproved":true,"items":[],"keys":["Breakfast & Brunch"],"lastUpdated":1547527612696,"name":"Bella’s Family Restaurant","phone":"(336) 313-5358","price":"","reviewCount":8,"reviewScore":4,"meta":{"revision":0,"created":1547531155472,"version":0},"$loki":90},{"_id":"5c3d65bd3525a329e0c03ebf","address":"170 N Main St","location":{"type":"Point","coordinates":[-80.8763909,35.8102979]},"isApproved":true,"items":[],"keys":["Caterers","American (Traditional)","Breakfast & Brunch"],"lastUpdated":1547527612313,"name":"Famous Toastery - Downtown Mooresville","phone":"(704) 765-2525","price":"$$","reviewCount":26,"reviewScore":4.5,"meta":{"revision":0,"created":1547531155472,"version":0},"$loki":91},{"_id":"5c3d65bd3525a329e0c0412e","address":"215 National Hwy","location":{"type":"Point","coordinates":[-80.8760883,35.8094719]},"isApproved":true,"items":[],"keys":["Japanese"],"lastUpdated":1547527612320,"name":"Arikato Hibachi Grill Express","phone":"(336) 475-1990","price":"","reviewCount":1,"reviewScore":5,"meta":{"revision":0,"created":1547531155472,"version":0},"$loki":92},{"_id":"5c3d65bd3525a329e0c065e5","address":"885 W Main Ave","location":{"type":"Point","coordinates":[-80.8742,35.8097]},"isApproved":true,"items":[],"keys":["Chinese"],"lastUpdated":1547527612377,"name":"Oriental Cafe Chinese Restaurant","phone":"(828) 632-6868","price":"","reviewCount":5,"reviewScore":3,"meta":{"revision":0,"created":1547531155472,"version":0},"$loki":93},{"_id":"5c3d65bd3525a329e0c06548","address":"1115 Glenway Dr","location":{"type":"Point","coordinates":[-80.8769666031003,35.8122845030054]},"isApproved":true,"items":[],"keys":["Sports Bars","Burgers","American (Traditional)"],"lastUpdated":1547527612377,"name":"Applebee’s Grill + Bar","phone":"(704) 838-0052","price":"$$","reviewCount":13,"reviewScore":2.5,"meta":{"revision":0,"created":1547531155472,"version":0},"$loki":94},{"_id":"5c3d65bd3525a329e0c117da","address":"1737 Wilkesboro Hwy","location":{"type":"Point","coordinates":[-80.8765505254269,35.8124258847852]},"isApproved":true,"items":[],"keys":["Barbeque","American (Traditional)","Chicken Wings"],"lastUpdated":1547527612650,"name":"Ol’ Bob’s BBQ & Catering","phone":"(704) 871-1998","price":"$","reviewCount":19,"reviewScore":3.5,"meta":{"revision":0,"created":1547531155472,"version":0},"$loki":95},{"_id":"5c3d65bd3525a329e0c13bdb","address":"1525 Salisbury Rd","location":{"type":"Point","coordinates":[-80.8772241,35.8150935]},"isApproved":true,"items":[],"keys":["Mexican","Seafood"],"lastUpdated":1547527612704,"name":"Taqueria Tacontento","phone":"(704) 871-0734","price":"$","reviewCount":18,"reviewScore":4.5,"meta":{"revision":0,"created":1547531155472,"version":0},"$loki":96},{"_id":"5c3d65bd3525a329e0c075a8","address":"2181 Old Mountain Rd","location":{"type":"Point","coordinates":[-80.877647,35.818571]},"isApproved":true,"items":[],"keys":["Chinese"],"lastUpdated":1547527612401,"name":"China One","phone":"(704) 871-8788","price":"$","reviewCount":6,"reviewScore":3.5,"meta":{"revision":0,"created":1547531155472,"version":0},"$loki":97},{"_id":"5c3d65bd3525a329e0c13c51","address":"1244 Fairview Dr","location":{"type":"Point","coordinates":[-80.8774499,35.8186826]},"isApproved":true,"items":[],"keys":["Comfort Food"],"lastUpdated":1547527612705,"name":"Cagney’s Kitchen","phone":"(336) 300-7960","price":"$","reviewCount":26,"reviewScore":3,"meta":{"revision":0,"created":1547531155472,"version":0},"$loki":98},{"_id":"5c3d65bd3525a329e0c18ba9","address":"1411 Salisbury Rd","location":{"type":"Point","coordinates":[-80.8771473,35.8044599]},"isApproved":true,"items":[],"keys":["Mexican","Beer, Wine & Spirits","Cupcakes"],"lastUpdated":1547527612824,"name":"El Sabor Latino","phone":"(704) 380-4339","price":"","reviewCount":3,"reviewScore":4,"meta":{"revision":0,"created":1547531155472,"version":0},"$loki":99},{"_id":"5c3d65bd3525a329e0c18c3d","address":"14 W Guilford St","location":{"type":"Point","coordinates":[-80.8765431,35.8043058]},"isApproved":true,"items":[],"keys":["Salvadoran","Mexican","Spanish"],"lastUpdated":1547527612824,"name":"Taco Lopez","phone":"(336) 472-1566","price":"$","reviewCount":16,"reviewScore":4.5,"meta":{"revision":0,"created":1547531155472,"version":0},"$loki":100},{"_id":"5c3d65bd3525a329e0c13c94","address":"140 N Clement St","location":{"type":"Point","coordinates":[-80.8838294232568,35.7881675180588]},"isApproved":true,"items":[],"keys":["Barbeque"],"lastUpdated":1547527612705,"name":"Deano’s Barbecue","phone":"(336) 751-5820","price":"$","reviewCount":21,"reviewScore":4,"meta":{"revision":0,"created":1547531155472,"version":0},"$loki":101},{"_id":"5c3d65bd3525a329e0c0fa6e","address":"255 N Center St","location":{"type":"Point","coordinates":[-80.8905036,35.7876811]},"isApproved":true,"items":[],"keys":["Fast Food","American (Traditional)"],"lastUpdated":1547527612601,"name":"Hardee’s Hamburgers","phone":"(704) 873-5853","price":"$","reviewCount":9,"reviewScore":1.5,"meta":{"revision":0,"created":1547531155472,"version":0},"$loki":102},{"_id":"5c3d65bd3525a329e0c184aa","address":"1841 E Broad St","location":{"type":"Point","coordinates":[-80.8877496528719,35.7850445637908]},"isApproved":true,"items":[],"keys":["Mexican","Beer Bar","Cocktail Bars"],"lastUpdated":1547527612814,"name":"Los Compadres Mexican Grill","phone":"(704) 775-4004","price":"$$","reviewCount":34,"reviewScore":4.5,"meta":{"revision":0,"created":1547531155472,"version":0},"$loki":103},{"_id":"5c3d65bd3525a329e0c12e52","address":"116 W Broad St","location":{"type":"Point","coordinates":[-80.8882129,35.7848857]},"isApproved":true,"items":[],"keys":["Mexican"],"lastUpdated":1547527612681,"name":"Tacontento Mexican Restaurant","phone":"(704) 380-4590","price":"","reviewCount":1,"reviewScore":4,"meta":{"revision":0,"created":1547531155472,"version":0},"$loki":104},{"_id":"5c3d65bd3525a329e0c0d9dd","address":"710 Wilkesboro St","location":{"type":"Point","coordinates":[-80.8877158,35.7842772]},"isApproved":true,"items":[],"keys":["American (Traditional)"],"lastUpdated":1547527612555,"name":"Miller’s Restaurant","phone":"(336) 751-2621","price":"$","reviewCount":21,"reviewScore":4,"meta":{"revision":0,"created":1547531155472,"version":0},"$loki":105},{"_id":"5c3d65bd3525a329e0c0968b","address":"183 Turnersburg Hwy","location":{"type":"Point","coordinates":[-80.8890773,35.7846556]},"isApproved":true,"items":[],"keys":["Sandwiches"],"lastUpdated":1547527612454,"name":"Jimmy John’s","phone":"(704) 380-4527","price":"","reviewCount":4,"reviewScore":3.5,"meta":{"revision":0,"created":1547531155472,"version":0},"$loki":106},{"_id":"5c3d65bd3525a329e0c0f709","address":"1421 Yadkinville Rd","location":{"type":"Point","coordinates":[-80.8891637,35.7846622]},"isApproved":true,"items":[],"keys":["Japanese","Sushi Bars"],"lastUpdated":1547527612599,"name":"Shiki of Mocksville","phone":"(336) 936-0011","price":"$$","reviewCount":29,"reviewScore":3.5,"meta":{"revision":0,"created":1547531155472,"version":0},"$loki":107},{"_id":"5c3d65bd3525a329e0c19cc6","address":"1640 10th Ave NE","location":{"type":"Point","coordinates":[-80.889595,35.7845259]},"isApproved":true,"items":[],"keys":["American (Traditional)"],"lastUpdated":1547527612850,"name":"Parkway House","phone":"(828) 855-9189","price":"","reviewCount":11,"reviewScore":3,"meta":{"revision":0,"created":1547531155472,"version":0},"$loki":108},{"_id":"5c3d65bd3525a329e0c0439c","address":"17365 Cool Springs Rd","location":{"type":"Point","coordinates":[-80.889157,35.785296]},"isApproved":true,"items":[],"keys":["Barbeque"],"lastUpdated":1547527612321,"name":"Keaton’s Barbecue","phone":"(704) 278-1619","price":"$","reviewCount":50,"reviewScore":4,"meta":{"revision":0,"created":1547531155472,"version":0},"$loki":109},{"_id":"5c3d65bd3525a329e0c0f8eb","address":"119 Marshall Forest Ln","location":{"type":"Point","coordinates":[-80.889009,35.785377]},"isApproved":true,"items":[],"keys":["Caterers","Barbeque"],"lastUpdated":1547527612600,"name":"Port A Pit Barbque","phone":"(704) 872-9778","price":"$","reviewCount":13,"reviewScore":4.5,"meta":{"revision":0,"created":1547531155472,"version":0},"$loki":110},{"_id":"5c3d65bd3525a329e0c1a2cc","address":"404 National Blvd","location":{"type":"Point","coordinates":[-80.8895095,35.7853226]},"isApproved":true,"items":[],"keys":["Bars","American (Traditional)"],"lastUpdated":1547527612858,"name":"Olde Well Tavern","phone":"(336) 843-2097","price":"$$","reviewCount":7,"reviewScore":5,"meta":{"revision":0,"created":1547531155472,"version":0},"$loki":111},{"_id":"5c3d65bd3525a329e0c1a81c","address":"252 Turnersburg Hwy.","location":{"type":"Point","coordinates":[-80.8901287,35.7840606]},"isApproved":true,"items":[],"keys":["Fast Food","Delis","Sandwiches"],"lastUpdated":1547527612867,"name":"Jersey Mike’s Subs","phone":"(704) 380-4011","price":"","reviewCount":13,"reviewScore":2,"meta":{"revision":0,"created":1547531155472,"version":0},"$loki":112},{"_id":"5c3d65bd3525a329e0c02773","address":"207 South Oakland Ave","location":{"type":"Point","coordinates":[-80.8885823,35.7837369]},"isApproved":true,"items":[],"keys":["Breakfast & Brunch","American (Traditional)","Hot Dogs"],"lastUpdated":1547527612284,"name":"Son Rise Cafe","phone":"(704) 878-9338","price":"$","reviewCount":9,"reviewScore":4,"meta":{"revision":0,"created":1547531155472,"version":0},"$loki":113},{"_id":"5c3d65bd3525a329e0c19a37","address":"115 S Center St","location":{"type":"Point","coordinates":[-80.8879103,35.7830871]},"isApproved":true,"items":[],"keys":["Italian"],"lastUpdated":1547527612848,"name":"Mezzaluna II","phone":"(704) 872-7230","price":"$$","reviewCount":33,"reviewScore":4,"meta":{"revision":0,"created":1547531155472,"version":0},"$loki":114},{"_id":"5c3d65bd3525a329e0c030c3","address":"101 N Main St","location":{"type":"Point","coordinates":[-80.8907413,35.7841691]},"isApproved":true,"items":[],"keys":["American (Traditional)"],"lastUpdated":1547527612295,"name":"Restaurant 101","phone":"(336) 753-0101","price":"$$","reviewCount":50,"reviewScore":4,"meta":{"revision":0,"created":1547531155472,"version":0},"$loki":115},{"_id":"5c3d65bd3525a329e0c00d9b","address":"1449 Wilkesboro Hwy","location":{"type":"Point","coordinates":[-80.8908399,35.7841512]},"isApproved":true,"items":[],"keys":["Waffles"],"lastUpdated":1547527612237,"name":"Coffee House Waffle Shop","phone":"(704) 873-5038","price":"$","reviewCount":9,"reviewScore":2.5,"meta":{"revision":0,"created":1547531155472,"version":0},"$loki":116},{"_id":"5c3d65bd3525a329e0c0e2d5","address":"1531 Cinema Dr","location":{"type":"Point","coordinates":[-80.8910222,35.7841271]},"isApproved":true,"items":[],"keys":["Chinese"],"lastUpdated":1547527612566,"name":"Rice Fun","phone":"(704) 873-6998","price":"$","reviewCount":34,"reviewScore":3.5,"meta":{"revision":0,"created":1547531155472,"version":0},"$loki":117},{"_id":"5c3d65bd3525a329e0c13287","address":"828 Winston Rd","location":{"type":"Point","coordinates":[-80.8848415,35.7684782]},"isApproved":true,"items":[],"keys":["Pizza"],"lastUpdated":1547527612689,"name":"Times Square Pizzeria","phone":"(336) 242-7992","price":"$","reviewCount":24,"reviewScore":4.5,"meta":{"revision":0,"created":1547531155472,"version":0},"$loki":118},{"_id":"5c3d65bd3525a329e0c09695","address":"1410 4th St Dr NW","location":{"type":"Point","coordinates":[-80.8847767,35.7699321]},"isApproved":true,"items":[],"keys":["American (New)"],"lastUpdated":1547527612454,"name":"Fourk","phone":"(828) 855-3437","price":"$$","reviewCount":75,"reviewScore":4.5,"meta":{"revision":0,"created":1547531155472,"version":0},"$loki":119},{"_id":"5c3d65bd3525a329e0c17375","address":"1112 Yadkinville Rd","location":{"type":"Point","coordinates":[-80.8839986,35.7699574]},"isApproved":true,"items":[],"keys":["Chicken Wings","American (Traditional)"],"lastUpdated":1547527612783,"name":"East Coast Wings & Grill","phone":"(336) 751-9464","price":"$$","reviewCount":12,"reviewScore":3.5,"meta":{"revision":0,"created":1547531155472,"version":0},"$loki":120},{"_id":"5c3d65bd3525a329e0c15d97","address":"4431 Hwy 150","location":{"type":"Point","coordinates":[-80.8845173,35.7831037]},"isApproved":true,"items":[],"keys":["Pizza"],"lastUpdated":1547527612755,"name":"Pizza Hut Express","phone":"","price":"","reviewCount":2,"reviewScore":3.5,"meta":{"revision":0,"created":1547531155472,"version":0},"$loki":121},{"_id":"5c3d65bd3525a329e0c0790f","address":"1875 E Broad St","location":{"type":"Point","coordinates":[-80.8872959,35.7826363]},"isApproved":true,"items":[],"keys":["Chicken Wings","Salad","American (Traditional)"],"lastUpdated":1547527612409,"name":"East Coast Wings & Grill","phone":"(704) 873-8777","price":"$$","reviewCount":24,"reviewScore":2.5,"meta":{"revision":0,"created":1547531155472,"version":0},"$loki":122},{"_id":"5c3d65bd3525a329e0c0138a","address":"12 Commerce St","location":{"type":"Point","coordinates":[-80.8859176635742,35.7858505249023]},"isApproved":true,"items":[],"keys":["Delis"],"lastUpdated":1547527612248,"name":"JJ’s Side Street Deli","phone":"(336) 479-3015","price":"","reviewCount":2,"reviewScore":5,"meta":{"revision":0,"created":1547531155472,"version":0},"$loki":123},{"_id":"5c3d65bd3525a329e0c0c8d7","address":"206 National Hwy","location":{"type":"Point","coordinates":[-80.883912,35.7841839]},"isApproved":true,"items":[],"keys":["Barbeque"],"lastUpdated":1547527612526,"name":"Tommy’s Barbecue","phone":"(336) 476-4322","price":"$","reviewCount":20,"reviewScore":4,"meta":{"revision":0,"created":1547531155472,"version":0},"$loki":124},{"_id":"5c3d65bd3525a329e0c14213","address":"1210 Snider Kines Rd","location":{"type":"Point","coordinates":[-80.8795897,35.7856033]},"isApproved":true,"items":[],"keys":["American (Traditional)"],"lastUpdated":1547527612713,"name":"Bill’s Truck Stop Restaurant","phone":"(336) 956-4494","price":"$","reviewCount":23,"reviewScore":4,"meta":{"revision":0,"created":1547531155472,"version":0},"$loki":125},{"_id":"5c3d65bd3525a329e0c05a3b","address":"17 W 7th Ave","location":{"type":"Point","coordinates":[-80.862376,35.7818399]},"isApproved":true,"items":[],"keys":["Mexican"],"lastUpdated":1547527612356,"name":"Fonda Y Taqueria Lupitas","phone":"(336) 249-9207","price":"$","reviewCount":15,"reviewScore":4.5,"meta":{"revision":0,"created":1547531155472,"version":0},"$loki":126},{"_id":"5c3d65bd3525a329e0c03d1b","address":"21 W Main St","location":{"type":"Point","coordinates":[-80.86043,35.782971]},"isApproved":true,"items":[],"keys":["American (Traditional)"],"lastUpdated":1547527612313,"name":"S & S Grill","phone":"(336) 475-3417","price":"$","reviewCount":6,"reviewScore":4,"meta":{"revision":0,"created":1547531155472,"version":0},"$loki":127},{"_id":"5c3d65bd3525a329e0c1123e","address":"213 Salisbury Rd","location":{"type":"Point","coordinates":[-80.8607521870152,35.782616392529]},"isApproved":true,"items":[],"keys":["Barbeque","Breakfast & Brunch","American (Traditional)"],"lastUpdated":1547527612642,"name":"Randy’s Bar B Que","phone":"(704) 873-4444","price":"","reviewCount":2,"reviewScore":4.5,"meta":{"revision":0,"created":1547531155472,"version":0},"$loki":128},{"_id":"5c3d65bd3525a329e0c0e7eb","address":"1971 Cotton Grove Rd","location":{"type":"Point","coordinates":[-80.8622973,35.7829324]},"isApproved":true,"items":[],"keys":["Japanese","Steakhouses","Seafood"],"lastUpdated":1547527612574,"name":"Kabuki Japanese Seafood & Steak","phone":"(336) 237-0657","price":"$$","reviewCount":13,"reviewScore":4,"meta":{"revision":0,"created":1547531155472,"version":0},"$loki":129},{"_id":"5c3d65bd3525a329e0c12125","address":"5135 Taylorsville Hwy","location":{"type":"Point","coordinates":[-80.859876,35.7829168]},"isApproved":true,"items":[],"keys":["Seafood"],"lastUpdated":1547527612663,"name":"Captain’s Galley","phone":"(704) 585-6201","price":"$","reviewCount":8,"reviewScore":4.5,"meta":{"revision":0,"created":1547531155472,"version":0},"$loki":130},{"_id":"5c3d65bd3525a329e0c1a16f","address":"1102 Salisbury Rd","location":{"type":"Point","coordinates":[-80.8625,35.7745]},"isApproved":true,"items":[],"keys":["Chicken Wings","Fast Food","Chicken Shop"],"lastUpdated":1547527612857,"name":"KFC","phone":"(704) 873-8821","price":"$","reviewCount":3,"reviewScore":1,"meta":{"revision":0,"created":1547531155472,"version":0},"$loki":131},{"_id":"5c3d65bd3525a329e0c07ef9","address":"1230 Yadkinville Rd","location":{"type":"Point","coordinates":[-80.861724,35.7724574]},"isApproved":true,"items":[],"keys":["Fast Food","Chicken Wings","Chicken Shop"],"lastUpdated":1547527612417,"name":"KFC","phone":"(336) 753-3000","price":"$","reviewCount":6,"reviewScore":1.5,"meta":{"revision":0,"created":1547531155472,"version":0},"$loki":132},{"_id":"5c3d65bd3525a329e0c0e31b","address":"1004 Crossroads Dr","location":{"type":"Point","coordinates":[-80.8558807522058,35.7706336250305]},"isApproved":true,"items":[],"keys":["Italian"],"lastUpdated":1547527612572,"name":"Sorrento Pizzeria & Italian Restaurant","phone":"(704) 878-0550","price":"$$","reviewCount":60,"reviewScore":4,"meta":{"revision":0,"created":1547531155472,"version":0},"$loki":133},{"_id":"5c3d65bd3525a329e0c03da8","address":"228 Turnersburg Hwy","location":{"type":"Point","coordinates":[-80.8560333,35.7706059]},"isApproved":true,"items":[],"keys":["Fast Food"],"lastUpdated":1547527612313,"name":"Chick-fil-A","phone":"(704) 881-0002","price":"$","reviewCount":15,"reviewScore":4,"meta":{"revision":0,"created":1547531155472,"version":0},"$loki":134},{"_id":"5c3d65bd3525a329e0bfff94","address":"220 S Center St","location":{"type":"Point","coordinates":[-80.8544588461518,35.7692661143379]},"isApproved":true,"items":[],"keys":["Bars","American (New)"],"lastUpdated":1547527612223,"name":"220 Cafe","phone":"(704) 873-7779","price":"$$","reviewCount":63,"reviewScore":4,"meta":{"revision":0,"created":1547531155472,"version":0},"$loki":135},{"_id":"5c3d65bd3525a329e0c0d159","address":"883 Highland Ave SE","location":{"type":"Point","coordinates":[-80.854416,35.768714]},"isApproved":true,"items":[],"keys":["Ice Cream & Frozen Yogurt","Coffee & Tea","Breakfast & Brunch"],"lastUpdated":1547527612545,"name":"Di’lishi Frozen Yogurt Bar","phone":"(828) 855-9553","price":"$","reviewCount":18,"reviewScore":5,"meta":{"revision":0,"created":1547531155472,"version":0},"$loki":136},{"_id":"5c3d65bd3525a329e0c10a67","address":"181 Turnersburg Hwy","location":{"type":"Point","coordinates":[-80.859487,35.771152]},"isApproved":true,"items":[],"keys":["Fast Food","Burgers","Hot Dogs"],"lastUpdated":1547527612631,"name":"Cook Out","phone":"(704) 878-8722","price":"$","reviewCount":25,"reviewScore":3.5,"meta":{"revision":0,"created":1547531155472,"version":0},"$loki":137},{"_id":"5c3d65bd3525a329e0c11371","address":"1529 E Broad St","location":{"type":"Point","coordinates":[-80.8667903020978,35.7705596326128]},"isApproved":true,"items":[],"keys":["Chinese"],"lastUpdated":1547527612642,"name":"Dragon Golden Chinese Restaurant","phone":"(704) 872-1081","price":"$","reviewCount":6,"reviewScore":2.5,"meta":{"revision":0,"created":1547531155472,"version":0},"$loki":138},{"_id":"5c3d65bd3525a329e0c14480","address":"706 Sullivan Rd","location":{"type":"Point","coordinates":[-80.8675935,35.772865]},"isApproved":true,"items":[],"keys":["Diners","Breakfast & Brunch","American (Traditional)"],"lastUpdated":1547527612714,"name":"Waffle House","phone":"(704) 873-0099","price":"$","reviewCount":6,"reviewScore":3,"meta":{"revision":0,"created":1547531155472,"version":0},"$loki":139},{"_id":"5c3d65bd3525a329e0c0beac","address":"100 Smokehouse Ln","location":{"type":"Point","coordinates":[-80.8893366,35.7551188]},"isApproved":true,"items":[],"keys":["Barbeque"],"lastUpdated":1547527612515,"name":"Lexington Barbecue","phone":"(336) 249-9814","price":"$","reviewCount":388,"reviewScore":4,"meta":{"revision":0,"created":1547531155472,"version":0},"$loki":140},{"_id":"5c3d65bd3525a329e0c096f4","address":"2157 Old Mountain Rd","location":{"type":"Point","coordinates":[-80.9087405,35.7800617]},"isApproved":true,"items":[],"keys":["Pizza","Chicken Wings","Sandwiches"],"lastUpdated":1547527612454,"name":"Speedy Pies Pizza","phone":"(704) 872-8899","price":"","reviewCount":2,"reviewScore":5,"meta":{"revision":0,"created":1547531155472,"version":0},"$loki":141},{"_id":"5c3d65bd3525a329e0c13561","address":"1737 Wilkesboro Hwy","location":{"type":"Point","coordinates":[-80.91042,35.78236]},"isApproved":true,"items":[],"keys":["Japanese","Sushi Bars"],"lastUpdated":1547527612696,"name":"Sakura Japanese Restaurant & Sushi Bar","phone":"(704) 380-3232","price":"","reviewCount":3,"reviewScore":3,"meta":{"revision":0,"created":1547531155472,"version":0},"$loki":142},{"_id":"5c3d65bd3525a329e0c0e95e","address":"1049 Yadkinville Rd","location":{"type":"Point","coordinates":[-80.921946,35.7880993515286]},"isApproved":true,"items":[],"keys":["Mexican"],"lastUpdated":1547527612580,"name":"El Taco Shop","phone":"(336) 753-6868","price":"$","reviewCount":32,"reviewScore":4.5,"meta":{"revision":0,"created":1547531155472,"version":0},"$loki":143},{"_id":"5c3d65bd3525a329e0c0ca6b","address":"43 S Talbert Blvd","location":{"type":"Point","coordinates":[-80.9379262,35.7961896]},"isApproved":true,"items":[],"keys":["Mexican"],"lastUpdated":1547527612532,"name":"Don Juan’s Mexican Restaurant","phone":"(336) 249-3328","price":"$$","reviewCount":44,"reviewScore":3.5,"meta":{"revision":0,"created":1547531155472,"version":0},"$loki":144},{"_id":"5c3d65bd3525a329e0c14dc0","address":"2052 N Nc Highway 150","location":{"type":"Point","coordinates":[-80.938936,35.7972527]},"isApproved":true,"items":[],"keys":["Convenience Stores","Delis"],"lastUpdated":1547527612730,"name":"B & E Convenience Store","phone":"(336) 787-5556","price":"$","reviewCount":1,"reviewScore":5,"meta":{"revision":0,"created":1547531155472,"version":0},"$loki":145},{"_id":"5c3d65bd3525a329e0c1b674","address":"1132 Shelton Ave","location":{"type":"Point","coordinates":[-80.940258,35.797502]},"isApproved":true,"items":[],"keys":["Restaurants"],"lastUpdated":1547527612886,"name":"Rolling Pin","phone":"(704) 872-4903","price":"$","reviewCount":1,"reviewScore":3,"meta":{"revision":0,"created":1547531155472,"version":0},"$loki":146},{"_id":"5c3d65bd3525a329e0c17f44","address":"1044 Randolph Street","location":{"type":"Point","coordinates":[-80.940421,35.79627]},"isApproved":true,"items":[],"keys":["Burgers","American (Traditional)"],"lastUpdated":1547527612802,"name":"Ruby Tuesday","phone":"(336) 475-4152","price":"$$","reviewCount":33,"reviewScore":3,"meta":{"revision":0,"created":1547531155472,"version":0},"$loki":147},{"_id":"5c3d65bd3525a329e0c07639","address":"1317 Winston Rd","location":{"type":"Point","coordinates":[-80.9382749222176,35.7941509688128]},"isApproved":true,"items":[],"keys":["Barbeque"],"lastUpdated":1547527612401,"name":"Speedy’s Barbecue Inc of Lexington","phone":"(336) 248-2092","price":"$","reviewCount":64,"reviewScore":4,"meta":{"revision":0,"created":1547531155472,"version":0},"$loki":148},{"_id":"5c3d65bd3525a329e0bff4a1","address":"124 Landmark Aly","location":{"type":"Point","coordinates":[-80.9398474027191,35.7946930405387]},"isApproved":true,"items":[],"keys":["Wine Bars","Tapas Bars"],"lastUpdated":1547527612216,"name":"Unwined Bar and Eatery","phone":"(980) 223-8188","price":"$","reviewCount":8,"reviewScore":4.5,"meta":{"revision":0,"created":1547531155472,"version":0},"$loki":149},{"_id":"5c3d65bd3525a329e0c03a2c","address":"1418 N Center St","location":{"type":"Point","coordinates":[-80.9388872,35.7960482]},"isApproved":true,"items":[],"keys":["Pizza"],"lastUpdated":1547527612311,"name":"Little Caesars Pizza","phone":"(704) 872-9853","price":"$","reviewCount":6,"reviewScore":2.5,"meta":{"revision":0,"created":1547531155472,"version":0},"$loki":150},{"_id":"5c3d65bd3525a329e0c0aed3","address":"3102 Taylorsville Hwy","location":{"type":"Point","coordinates":[-80.9372266262909,35.7952413922212]},"isApproved":true,"items":[],"keys":["Fast Food"],"lastUpdated":1547527612491,"name":"Burger King","phone":"(704) 872-6648","price":"$","reviewCount":7,"reviewScore":2.5,"meta":{"revision":0,"created":1547531155472,"version":0},"$loki":151},{"_id":"5c3d65bd3525a329e0c0ba6b","address":"2147 N Center St","location":{"type":"Point","coordinates":[-80.9122571503541,35.8102582138301]},"isApproved":true,"items":[],"keys":["Seafood"],"lastUpdated":1547527612507,"name":"Standard Oyster Company","phone":"(828) 322-1705","price":"$$","reviewCount":63,"reviewScore":4.5,"meta":{"revision":0,"created":1547531155472,"version":0},"$loki":152},{"_id":"5c3d65bd3525a329e0c0916e","address":"949 Salisbury Rd","location":{"type":"Point","coordinates":[-80.9118732,35.8101648]},"isApproved":true,"items":[],"keys":["Diners","Italian","Pizza"],"lastUpdated":1547527612446,"name":"Zeko’s Village","phone":"(336) 751-6161","price":"$","reviewCount":10,"reviewScore":3.5,"meta":{"revision":0,"created":1547531155472,"version":0},"$loki":153},{"_id":"5c3d65bd3525a329e0c17407","address":"1532 Salisbury Hwy","location":{"type":"Point","coordinates":[-80.911657,35.8087537]},"isApproved":true,"items":[],"keys":["Fast Food","Gas Stations","Convenience Stores"],"lastUpdated":1547527612789,"name":"Sheetz","phone":"(980) 223-8809","price":"$$","reviewCount":5,"reviewScore":3,"meta":{"revision":0,"created":1547531155472,"version":0},"$loki":154},{"_id":"5c3d65bd3525a329e0c0d13b","address":"416 Piedmont Dr","location":{"type":"Point","coordinates":[-80.9071303904057,35.8035876801885]},"isApproved":true,"items":[],"keys":["Chinese"],"lastUpdated":1547527612545,"name":"Panda Panda Chinese Restaurant","phone":"(336) 248-8880","price":"$","reviewCount":32,"reviewScore":4,"meta":{"revision":0,"created":1547531155472,"version":0},"$loki":155},{"_id":"5c3d65bd3525a329e0c10765","address":"1350 Salisbury Rd","location":{"type":"Point","coordinates":[-80.9068487,35.8022764]},"isApproved":true,"items":[],"keys":["Fast Food"],"lastUpdated":1547527612619,"name":"Hardee’s of Mocksville","phone":"(336) 751-7896","price":"","reviewCount":2,"reviewScore":1,"meta":{"revision":0,"created":1547531155472,"version":0},"$loki":156},{"_id":"5c3d65bd3525a329e0c14c66","address":"786 Valley Rd","location":{"type":"Point","coordinates":[-80.9076926,35.80476]},"isApproved":true,"items":[],"keys":["Fast Food","Burgers","Ice Cream & Frozen Yogurt"],"lastUpdated":1547527612729,"name":"Sonic Drive-In","phone":"(336) 751-4800","price":"$","reviewCount":8,"reviewScore":2,"meta":{"revision":0,"created":1547531155472,"version":0},"$loki":157},{"_id":"5c3d65bd3525a329e0c09fe4","address":"114 Venture Ln","location":{"type":"Point","coordinates":[-80.9093454,35.8051335]},"isApproved":true,"items":[],"keys":["Japanese","Sushi Bars"],"lastUpdated":1547527612472,"name":"Shiki 3","phone":"(704) 924-6781","price":"$","reviewCount":13,"reviewScore":3,"meta":{"revision":0,"created":1547531155472,"version":0},"$loki":158},{"_id":"5c3d65bd3525a329e0c0fdbf","address":"23 W 2nd Ave","location":{"type":"Point","coordinates":[-80.9401244,35.8691951]},"isApproved":true,"items":[],"keys":["Bars","American (Traditional)","Tapas/Small Plates"],"lastUpdated":1547527612608,"name":"Sophie’s Cork & Ale","phone":"(336) 300-7338","price":"$$","reviewCount":15,"reviewScore":4,"meta":{"revision":0,"created":1547531155472,"version":0},"$loki":159},{"_id":"5c3d65bd3525a329e0c074c8","address":"4577 N Carolina Hwy 150","location":{"type":"Point","coordinates":[-80.8727596,35.8328391]},"isApproved":true,"items":[],"keys":["Seafood"],"lastUpdated":1547527612400,"name":"Stone Creek Seafood","phone":"(336) 731-8470","price":"$$","reviewCount":10,"reviewScore":3.5,"meta":{"revision":0,"created":1547531155472,"version":0},"$loki":160},{"_id":"5c3d65bd3525a329e0c0731b","address":"1370 US Hwy 601 S","location":{"type":"Point","coordinates":[-80.8703819,35.8357419]},"isApproved":true,"items":[],"keys":["Southern","American (Traditional)"],"lastUpdated":1547527612399,"name":"Kents Kitchen","phone":"(336) 751-5368","price":"$","reviewCount":5,"reviewScore":4,"meta":{"revision":0,"created":1547531155472,"version":0},"$loki":161},{"_id":"5c3d65bd3525a329e0c19ef8","address":"979 Folger Dr","location":{"type":"Point","coordinates":[-80.8707806571868,35.8365878901818]},"isApproved":true,"items":[],"keys":["Steakhouses"],"lastUpdated":1547527612851,"name":"Outback Steakhouse","phone":"(704) 838-1818","price":"$$","reviewCount":42,"reviewScore":3.5,"meta":{"revision":0,"created":1547531155472,"version":0},"$loki":162},{"_id":"5c3d65bd3525a329e0c17dde","address":"3888 Section House Rd","location":{"type":"Point","coordinates":[-80.8624054,35.8465603]},"isApproved":true,"items":[],"keys":["Southern","Desserts","Breakfast & Brunch"],"lastUpdated":1547527612801,"name":"Gold Mine Café","phone":"(828) 256-2640","price":"$","reviewCount":6,"reviewScore":4.5,"meta":{"revision":0,"created":1547531155472,"version":0},"$loki":163},{"_id":"5c3d65bd3525a329e0c15691","address":"1006 Over Mountain Dr","location":{"type":"Point","coordinates":[-81.1449390649796,36.1777954133908]},"isApproved":true,"items":[],"keys":["Fast Food"],"lastUpdated":1547527612746,"name":"Bojangles","phone":"(423) 543-3500","price":"","reviewCount":1,"reviewScore":3,"meta":{"revision":0,"created":1547531155472,"version":0},"$loki":164},{"_id":"5c3d65bd3525a329e0c0cd17","address":"23 Sparta Rd N","location":{"type":"Point","coordinates":[-81.1432632,36.1783043]},"isApproved":true,"items":[],"keys":["Sandwiches","Fast Food"],"lastUpdated":1547527612534,"name":"Subway","phone":"(336) 667-4300","price":"","reviewCount":2,"reviewScore":2.5,"meta":{"revision":0,"created":1547531155472,"version":0},"$loki":165},{"_id":"5c3d65bd3525a329e0c1380f","address":"110 1st Ave","location":{"type":"Point","coordinates":[-81.1435432,36.177757]},"isApproved":true,"items":[],"keys":["Burgers","Fast Food","Coffee & Tea"],"lastUpdated":1547527612697,"name":"McDonald’s","phone":"(423) 725-3551","price":"$","reviewCount":3,"reviewScore":1.5,"meta":{"revision":0,"created":1547531155472,"version":0},"$loki":166},{"_id":"5c3d65bd3525a329e0c09a78","address":"1719 19E Byp","location":{"type":"Point","coordinates":[-81.146,36.17969]},"isApproved":true,"items":[],"keys":["Fast Food","Sandwiches"],"lastUpdated":1547527612463,"name":"Arby’s","phone":"(423) 543-8322","price":"$$","reviewCount":2,"reviewScore":4,"meta":{"revision":0,"created":1547531155472,"version":0},"$loki":167},{"_id":"5c3d65bd3525a329e0c14f5d","address":"8369 Hwy 19 E","location":{"type":"Point","coordinates":[-81.148842549773,36.1806026573514]},"isApproved":true,"items":[],"keys":["Fast Food","Sandwiches"],"lastUpdated":1547527612736,"name":"Subway","phone":"(423) 772-0050","price":"","reviewCount":1,"reviewScore":5,"meta":{"revision":0,"created":1547531155472,"version":0},"$loki":168},{"_id":"5c3d65bd3525a329e0c1412e","address":"633 W Elk Ave","location":{"type":"Point","coordinates":[-81.1478827,36.1816479]},"isApproved":true,"items":[],"keys":["Fast Food","Chicken Wings","Salad"],"lastUpdated":1547527612707,"name":"Zaxby’s Chicken Fingers & Buffalo Wings","phone":"(423) 543-0021","price":"","reviewCount":1,"reviewScore":2,"meta":{"revision":0,"created":1547531155472,"version":0},"$loki":169},{"_id":"5c3d65bd3525a329e0c09238","address":"993 W Elk Avenue","location":{"type":"Point","coordinates":[-81.1495949,36.185075]},"isApproved":true,"items":[],"keys":["Mexican","Tex-Mex","Fast Food"],"lastUpdated":1547527612452,"name":"Taco Bell","phone":"(423) 543-6454","price":"$","reviewCount":2,"reviewScore":3,"meta":{"revision":0,"created":1547531155472,"version":0},"$loki":170},{"_id":"5c3d65bd3525a329e0c12bfe","address":"228 Sparta Rd","location":{"type":"Point","coordinates":[-81.1517181396484,36.1972846984863]},"isApproved":true,"items":[],"keys":["Breakfast & Brunch","Burgers","Sandwiches"],"lastUpdated":1547527612680,"name":"18 North Sandwiches and More","phone":"(336) 990-0150","price":"$","reviewCount":4,"reviewScore":3,"meta":{"revision":0,"created":1547531155472,"version":0},"$loki":171},{"_id":"5c3d65bd3525a329e0c00ab6","address":"635 E Elk Ave","location":{"type":"Point","coordinates":[-81.152858,36.197402]},"isApproved":true,"items":[],"keys":["Desserts","Breakfast & Brunch","Sandwiches"],"lastUpdated":1547527612230,"name":"The Covered Bridge Cafe","phone":"","price":"","reviewCount":1,"reviewScore":1,"meta":{"revision":0,"created":1547531155472,"version":0},"$loki":172},{"_id":"5c3d65bd3525a329e0c1b5ad","address":"1525A Cinema Dr","location":{"type":"Point","coordinates":[-80.68927,35.904]},"isApproved":true,"items":[],"keys":["Latin American","Tacos","Seafood"],"lastUpdated":1547527612886,"name":"Maya Restaurant","phone":"(980) 434-5815","price":"","reviewCount":1,"reviewScore":5,"meta":{"revision":0,"created":1547531155472,"version":0},"$loki":173},{"_id":"5c3d65bd3525a329e0c09f17","address":"26 S Railroad St","location":{"type":"Point","coordinates":[-80.8046355,35.8079581]},"isApproved":true,"items":[],"keys":["Southern","Soul Food","American (Traditional)"],"lastUpdated":1547527612472,"name":"Southern Lunch","phone":"(336) 248-5276","price":"$","reviewCount":50,"reviewScore":4.5,"meta":{"revision":0,"created":1547531155472,"version":0},"$loki":174},{"_id":"5c3d65bd3525a329e0c17672","address":"103 S Main St","location":{"type":"Point","coordinates":[-80.804506,35.807848]},"isApproved":true,"items":[],"keys":["Cafes","Desserts","American (Traditional)"],"lastUpdated":1547527612791,"name":"Cafe 35","phone":"(336) 238-3535","price":"$$","reviewCount":41,"reviewScore":4,"meta":{"revision":0,"created":1547531155472,"version":0},"$loki":175},{"_id":"5c3d65bd3525a329e0c04d86","address":"4395 US 64","location":{"type":"Point","coordinates":[-80.7093786,35.8340172]},"isApproved":true,"items":[],"keys":["Southern"],"lastUpdated":1547527612338,"name":"Laverne’s Southern Bistro & Bakery","phone":"(336) 492-2264","price":"$","reviewCount":10,"reviewScore":5,"meta":{"revision":0,"created":1547531155472,"version":0},"$loki":176},{"_id":"5c3d65bd3525a329e0c1ab19","address":"1800 E 7th St","location":{"type":"Point","coordinates":[-80.7020576,35.8828911]},"isApproved":true,"items":[],"keys":["Cajun/Creole","Jazz & Blues","Seafood"],"lastUpdated":1547527612868,"name":"Cajun Queen","phone":"(704) 377-9017","price":"$$","reviewCount":740,"reviewScore":4,"meta":{"revision":0,"created":1547531155472,"version":0},"$loki":177}],"idIndex":[1,2,3,4,5,6,7,8,9,10,11,12,13,14,15,16,17,18,19,20,21,22,23,24,25,26,27,28,29,30,31,32,33,34,35,36,37,38,39,40,41,42,43,44,45,46,47,48,49,50,51,52,53,54,55,56,57,58,59,60,61,62,63,64,65,66,67,68,69,70,71,72,73,74,75,76,77,78,79,80,81,82,83,84,85,86,87,88,89,90,91,92,93,94,95,96,97,98,99,100,101,102,103,104,105,106,107,108,109,110,111,112,113,114,115,116,117,118,119,120,121,122,123,124,125,126,127,128,129,130,131,132,133,134,135,136,137,138,139,140,141,142,143,144,145,146,147,148,149,150,151,152,153,154,155,156,157,158,159,160,161,162,163,164,165,166,167,168,169,170,171,172,173,174,175,176,177],"binaryIndices":{},"constraints":null,"uniqueNames":[],"transforms":{},"objType":"restaurants","dirty":true,"cachedIndex":null,"cachedBinaryIndex":null,"cachedData":null,"adaptiveBinaryIndices":true,"transactional":false,"cloneObjects":false,"cloneMethod":"parse-stringify","asyncListeners":false,"disableMeta":false,"disableChangesApi":true,"disableDeltaChangesApi":true,"autoupdate":false,"serializableIndices":true,"ttl":null,"maxId":177,"DynamicViews":[],"events":{"insert":[],"update":[],"pre-insert":[],"pre-update":[],"close":[],"flushbuffer":[],"error":[],"delete":[null],"warning":[null]},"changes":[]}],"databaseVersion":1.5,"engineVersion":1.5,"autosave":false,"autosaveInterval":5000,"autosaveHandle":null,"throttledSaves":true,"options":{"serializationMethod":"normal","destructureDelimiter":"$<\n"},"persistenceMethod":"fs","persistenceAdapter":null,"verbose":false,"events":{"init":[null],"loaded":[],"flushChanges":[],"close":[],"changes":[],"warning":[]},"ENV":"NODEJS"}