{"filename":"-81.25-30","collections":[{"name":"restaurants","data":[{"_id":"5c3d65bd3525a329e0c034e0","address":"1404 W University Ave","location":{"type":"Point","coordinates":[-81.3631661277477,29.9149104505954]},"isApproved":true,"items":[],"keys":["Mexican","Fast Food","Tex-Mex"],"lastUpdated":1547527612303,"name":"Taco Bell","phone":"(352) 376-0086","price":"","reviewCount":2,"reviewScore":3,"meta":{"revision":0,"created":1547531152934,"version":0},"$loki":1},{"_id":"5c3d65bd3525a329e0c0c007","address":"2455 State Rd 16","location":{"type":"Point","coordinates":[-81.3630198138496,29.9149403262516]},"isApproved":true,"items":[],"keys":["Diners","American (Traditional)","Breakfast & Brunch"],"lastUpdated":1547527612516,"name":"Denny’s","phone":"(904) 824-1971","price":"$","reviewCount":50,"reviewScore":2.5,"meta":{"revision":0,"created":1547531152934,"version":0},"$loki":2},{"_id":"5c3d65bd3525a329e0c17430","address":"5004 NW 34th St","location":{"type":"Point","coordinates":[-81.3627126998091,29.9148485987325]},"isApproved":true,"items":[],"keys":["Pizza","Italian","Chicken Wings"],"lastUpdated":1547527612789,"name":"Pizza Hut","phone":"(352) 373-7733","price":"$$","reviewCount":5,"reviewScore":3,"meta":{"revision":0,"created":1547531152934,"version":0},"$loki":3},{"_id":"5c3d65bd3525a329e0c15079","address":"25 NW 16th Ave","location":{"type":"Point","coordinates":[-81.3622768,29.9146766]},"isApproved":true,"items":[],"keys":["Pizza"],"lastUpdated":1547527612736,"name":"Domino’s Pizza","phone":"(352) 373-5555","price":"$$","reviewCount":7,"reviewScore":3,"meta":{"revision":0,"created":1547531152934,"version":0},"$loki":4},{"_id":"5c3d65bd3525a329e0c0a289","address":"6017 W Newberry Rd","location":{"type":"Point","coordinates":[-81.347612,29.916324]},"isApproved":true,"items":[],"keys":["Salad","Soup","Sandwiches"],"lastUpdated":1547527612473,"name":"Panera Bread","phone":"(352) 226-8789","price":"$$","reviewCount":62,"reviewScore":3,"meta":{"revision":0,"created":1547531152934,"version":0},"$loki":5},{"_id":"5c3d65bd3525a329e0c03c9a","address":"4401 N W 25th Pl","location":{"type":"Point","coordinates":[-81.3469322747262,29.9154333929287]},"isApproved":true,"items":[],"keys":["Mexican","Bars","Tex-Mex"],"lastUpdated":1547527612312,"name":"Blue Agave Mexican Restaurant","phone":"(352) 363-6969","price":"$$","reviewCount":132,"reviewScore":4,"meta":{"revision":0,"created":1547531152934,"version":0},"$loki":6},{"_id":"5c3d65bd3525a329e0c021bc","address":"15202 NW 147th Dr","location":{"type":"Point","coordinates":[-81.3479067593994,29.9156803212154]},"isApproved":true,"items":[],"keys":["Italian","Pizza"],"lastUpdated":1547527612275,"name":"New York Pizza Plus","phone":"(386) 418-3857","price":"$$","reviewCount":36,"reviewScore":4,"meta":{"revision":0,"created":1547531152934,"version":0},"$loki":7},{"_id":"5c3d65bd3525a329e0c130f1","address":"210 SW 2nd Ave","location":{"type":"Point","coordinates":[-81.3485035795892,29.915971417578]},"isApproved":true,"items":[],"keys":["Food Trucks","Seafood"],"lastUpdated":1547527612688,"name":"Monsta Lobsta","phone":"(407) 492-0350","price":"$$","reviewCount":8,"reviewScore":4.5,"meta":{"revision":0,"created":1547531152934,"version":0},"$loki":8},{"_id":"5c3d65bd3525a329e0c18250","address":"1412 W University Ave","location":{"type":"Point","coordinates":[-81.417135,29.923947]},"isApproved":true,"items":[],"keys":["Sushi Bars"],"lastUpdated":1547527612809,"name":"Sushi-2-Go","phone":"(352) 338-1068","price":"$","reviewCount":58,"reviewScore":3.5,"meta":{"revision":0,"created":1547531152934,"version":0},"$loki":9},{"_id":"5c3d65bd3525a329e0c04096","address":"1245 W University Ave","location":{"type":"Point","coordinates":[-81.417081,29.92261]},"isApproved":true,"items":[],"keys":["Pizza","Coffee & Tea","Italian"],"lastUpdated":1547527612320,"name":"Leonardo’s Pizza by the Slice","phone":"(352) 375-2007","price":"$","reviewCount":189,"reviewScore":3.5,"meta":{"revision":0,"created":1547531152934,"version":0},"$loki":10},{"_id":"5c3d65bd3525a329e0c09af7","address":"2325 State Rd","location":{"type":"Point","coordinates":[-81.407497,29.915874]},"isApproved":true,"items":[],"keys":["Burgers","Fast Food"],"lastUpdated":1547527612464,"name":"Burger King","phone":"(904) 829-2051","price":"$","reviewCount":5,"reviewScore":2.5,"meta":{"revision":0,"created":1547531152934,"version":0},"$loki":11},{"_id":"5c3d65bd3525a329e0c02b02","address":"2369 State Rd 16","location":{"type":"Point","coordinates":[-81.4098142,29.9168227]},"isApproved":true,"items":[],"keys":["American (Traditional)","Greek","Mediterranean"],"lastUpdated":1547527612286,"name":"Blondi’s Oasis Diner","phone":"(904) 819-6605","price":"$","reviewCount":167,"reviewScore":4.5,"meta":{"revision":0,"created":1547531152934,"version":0},"$loki":12},{"_id":"5c3d65bd3525a329e0c06f0d","address":"2340 St Rd 16","location":{"type":"Point","coordinates":[-81.4087953,29.9173912]},"isApproved":true,"items":[],"keys":["Fast Food","Burgers","Coffee & Tea"],"lastUpdated":1547527612388,"name":"McDonald’s","phone":"(904) 824-8646","price":"$","reviewCount":36,"reviewScore":2,"meta":{"revision":0,"created":1547531152934,"version":0},"$loki":13},{"_id":"5c3d65bd3525a329e0c0bcac","address":"10 NW Santa Fe Blvd","location":{"type":"Point","coordinates":[-81.4100618,29.9176309]},"isApproved":true,"items":[],"keys":["Fast Food","American (Traditional)"],"lastUpdated":1547527612509,"name":"Hardee’s","phone":"(386) 454-1933","price":"$","reviewCount":10,"reviewScore":1.5,"meta":{"revision":0,"created":1547531152934,"version":0},"$loki":14},{"_id":"5c3d65bd3525a329e0c18e7e","address":"2375 State Rd 16","location":{"type":"Point","coordinates":[-81.4104911,29.9164482]},"isApproved":true,"items":[],"keys":["Ice Cream & Frozen Yogurt","Fast Food"],"lastUpdated":1547527612831,"name":"Dairy Queen","phone":"(904) 823-0999","price":"$","reviewCount":17,"reviewScore":2,"meta":{"revision":0,"created":1547531152934,"version":0},"$loki":15},{"_id":"5c3d65bd3525a329e0c077b5","address":"","location":{"type":"Point","coordinates":[-81.4130104,29.9151623]},"isApproved":true,"items":[],"keys":["Pizza"],"lastUpdated":1547527612408,"name":"Tony & Al’s ToGo","phone":"","price":"","reviewCount":1,"reviewScore":4,"meta":{"revision":0,"created":1547531152934,"version":0},"$loki":16},{"_id":"5c3d65bd3525a329e0c19130","address":"3720 NW 13th Street","location":{"type":"Point","coordinates":[-81.4133246,29.9158709]},"isApproved":true,"items":[],"keys":["Fast Food","Delis","Sandwiches"],"lastUpdated":1547527612832,"name":"Jersey Mike’s Subs","phone":"(352) 283-8417","price":"$$","reviewCount":3,"reviewScore":4,"meta":{"revision":0,"created":1547531152934,"version":0},"$loki":17},{"_id":"5c3d65bd3525a329e0c1634a","address":"1711 N Main St","location":{"type":"Point","coordinates":[-81.4147123825614,29.9174865428392]},"isApproved":true,"items":[],"keys":["Fast Food","Burgers"],"lastUpdated":1547527612763,"name":"Wendy’s","phone":"(352) 373-0770","price":"$","reviewCount":8,"reviewScore":2.5,"meta":{"revision":0,"created":1547531152934,"version":0},"$loki":18},{"_id":"5c3d65bd3525a329e0c04ef6","address":"2515 County Rd 208","location":{"type":"Point","coordinates":[-81.415586,29.918024]},"isApproved":true,"items":[],"keys":["Fast Food","Chicken Wings","Chicken Shop"],"lastUpdated":1547527612339,"name":"KFC","phone":"(904) 824-2661","price":"$$","reviewCount":3,"reviewScore":1,"meta":{"revision":0,"created":1547531152934,"version":0},"$loki":19},{"_id":"5c3d65bd3525a329e0c10cb8","address":"2453 State Road 16","location":{"type":"Point","coordinates":[-81.413036,29.917372]},"isApproved":true,"items":[],"keys":["Mexican","Tex-Mex","Fast Food"],"lastUpdated":1547527612633,"name":"Taco Bell","phone":"(904) 827-1121","price":"$","reviewCount":14,"reviewScore":2,"meta":{"revision":0,"created":1547531152934,"version":0},"$loki":20},{"_id":"5c3d65bd3525a329e0c15c14","address":"15350 NW 144th Way","location":{"type":"Point","coordinates":[-81.41489,29.92066]},"isApproved":true,"items":[],"keys":["Mexican","Tex-Mex","Fast Food"],"lastUpdated":1547527612754,"name":"Taco Bell","phone":"(386) 418-8105","price":"$","reviewCount":13,"reviewScore":2,"meta":{"revision":0,"created":1547531152934,"version":0},"$loki":21},{"_id":"5c3d65bd3525a329e0c094fc","address":"2710 State Road 16","location":{"type":"Point","coordinates":[-81.4160853,29.9212561]},"isApproved":true,"items":[],"keys":["Fast Food","Burgers"],"lastUpdated":1547527612453,"name":"Wendy’s","phone":"(904) 826-0836","price":"$","reviewCount":11,"reviewScore":1.5,"meta":{"revision":0,"created":1547531152934,"version":0},"$loki":22},{"_id":"5c3d65bd3525a329e0c1749b","address":"2107 NW 13th St","location":{"type":"Point","coordinates":[-81.4160936,29.9219031]},"isApproved":true,"items":[],"keys":["Halal","Indian","Pakistani"],"lastUpdated":1547527612790,"name":"Indian Spice","phone":"(352) 692-4969","price":"","reviewCount":1,"reviewScore":1,"meta":{"revision":0,"created":1547531152934,"version":0},"$loki":23},{"_id":"5c3d65bd3525a329e0c078ff","address":"912 W University Ave","location":{"type":"Point","coordinates":[-81.4155071,29.9219929]},"isApproved":true,"items":[],"keys":["Burgers","Fast Food"],"lastUpdated":1547527612409,"name":"Checkers","phone":"(352) 373-2069","price":"$","reviewCount":9,"reviewScore":2,"meta":{"revision":0,"created":1547531152934,"version":0},"$loki":24},{"_id":"5c3d65bd3525a329e0c00e33","address":"2195 State Road 16","location":{"type":"Point","coordinates":[-81.40252,29.914967]},"isApproved":true,"items":[],"keys":["Sandwiches","Fast Food"],"lastUpdated":1547527612237,"name":"Subway","phone":"(904) 825-0130","price":"$","reviewCount":3,"reviewScore":3.5,"meta":{"revision":0,"created":1547531152934,"version":0},"$loki":25},{"_id":"5c3d65bd3525a329e0c06152","address":"600 NW 75th St","location":{"type":"Point","coordinates":[-81.3993833,29.9146974]},"isApproved":true,"items":[],"keys":["Sushi Bars"],"lastUpdated":1547527612368,"name":"Sushi-2-Go","phone":"(352) 277-5757","price":"$","reviewCount":18,"reviewScore":4,"meta":{"revision":0,"created":1547531152934,"version":0},"$loki":26},{"_id":"5c3d65bd3525a329e0c0b8fe","address":"1728 W University Ave","location":{"type":"Point","coordinates":[-81.5560075,29.8387137]},"isApproved":true,"items":[],"keys":["Sports Bars","American (Traditional)","Tacos"],"lastUpdated":1547527612507,"name":"The Social at Midtown","phone":"(352) 373-7383","price":"$$","reviewCount":97,"reviewScore":2.5,"meta":{"revision":0,"created":1547531152934,"version":0},"$loki":27},{"_id":"5c3d65bd3525a329e0c067ec","address":"2010 N Main St","location":{"type":"Point","coordinates":[-81.380637511611,29.830549803998]},"isApproved":true,"items":[],"keys":["Breakfast & Brunch","Diners"],"lastUpdated":1547527612378,"name":"Clock Restaurant","phone":"(352) 375-1411","price":"$","reviewCount":36,"reviewScore":3.5,"meta":{"revision":0,"created":1547531152934,"version":0},"$loki":28},{"_id":"5c3d65bd3525a329e0c07857","address":"2480 State Rd 207","location":{"type":"Point","coordinates":[-81.375945,29.828231]},"isApproved":true,"items":[],"keys":["Sandwiches","Fast Food"],"lastUpdated":1547527612408,"name":"Subway","phone":"(904) 827-9920","price":"$","reviewCount":3,"reviewScore":2,"meta":{"revision":0,"created":1547531152934,"version":0},"$loki":29},{"_id":"5c3d65bd3525a329e0c1a982","address":"2455 Sr 207","location":{"type":"Point","coordinates":[-81.3763348,29.8290872]},"isApproved":true,"items":[],"keys":["Burgers"],"lastUpdated":1547527612867,"name":"Burger King","phone":"(904) 808-0505","price":"$","reviewCount":10,"reviewScore":2,"meta":{"revision":0,"created":1547531152934,"version":0},"$loki":30},{"_id":"5c3d65bd3525a329e0c08c35","address":"7370 Sr 100","location":{"type":"Point","coordinates":[-81.377225,29.827013]},"isApproved":true,"items":[],"keys":["Fast Food","Burgers","Coffee & Tea"],"lastUpdated":1547527612436,"name":"McDonald’s","phone":"(352) 473-2288","price":"$","reviewCount":4,"reviewScore":2,"meta":{"revision":0,"created":1547531152934,"version":0},"$loki":31},{"_id":"5c3d65bd3525a329e0c1a3e5","address":"7441 W Newberry Rd","location":{"type":"Point","coordinates":[-81.382067,29.801024]},"isApproved":true,"items":[],"keys":["American (Traditional)","Sports Bars","Burgers"],"lastUpdated":1547527612859,"name":"Applebee’s Grill + Bar","phone":"(352) 332-8877","price":"$$","reviewCount":26,"reviewScore":2.5,"meta":{"revision":0,"created":1547531152934,"version":0},"$loki":32},{"_id":"5c3d65bd3525a329e0c1108b","address":"6250 NW 23rd St","location":{"type":"Point","coordinates":[-81.397801,29.8096129]},"isApproved":true,"items":[],"keys":["Chinese"],"lastUpdated":1547527612640,"name":"China Express","phone":"(352) 377-0111","price":"$","reviewCount":8,"reviewScore":3.5,"meta":{"revision":0,"created":1547531152934,"version":0},"$loki":33},{"_id":"5c3d65bd3525a329e0c07fe0","address":"600 NW 75th St","location":{"type":"Point","coordinates":[-81.3534719,29.7649453]},"isApproved":true,"items":[],"keys":["Pizza"],"lastUpdated":1547527612418,"name":"Five Star Pizza","phone":"(352) 333-7979","price":"$","reviewCount":50,"reviewScore":4,"meta":{"revision":0,"created":1547531152934,"version":0},"$loki":34},{"_id":"5c3d65bd3525a329e0c0c4fc","address":"7 SE 1st Ave","location":{"type":"Point","coordinates":[-81.4287982,29.7805386]},"isApproved":true,"items":[],"keys":["Latin American","Spanish"],"lastUpdated":1547527612524,"name":"Emiliano’s Cafe","phone":"(352) 375-7381","price":"$$","reviewCount":179,"reviewScore":4,"meta":{"revision":0,"created":1547531152934,"version":0},"$loki":35}],"idIndex":[1,2,3,4,5,6,7,8,9,10,11,12,13,14,15,16,17,18,19,20,21,22,23,24,25,26,27,28,29,30,31,32,33,34,35],"binaryIndices":{},"constraints":null,"uniqueNames":[],"transforms":{},"objType":"restaurants","dirty":true,"cachedIndex":null,"cachedBinaryIndex":null,"cachedData":null,"adaptiveBinaryIndices":true,"transactional":false,"cloneObjects":false,"cloneMethod":"parse-stringify","asyncListeners":false,"disableMeta":false,"disableChangesApi":true,"disableDeltaChangesApi":true,"autoupdate":false,"serializableIndices":true,"ttl":null,"maxId":35,"DynamicViews":[],"events":{"insert":[],"update":[],"pre-insert":[],"pre-update":[],"close":[],"flushbuffer":[],"error":[],"delete":[null],"warning":[null]},"changes":[]}],"databaseVersion":1.5,"engineVersion":1.5,"autosave":false,"autosaveInterval":5000,"autosaveHandle":null,"throttledSaves":true,"options":{"serializationMethod":"normal","destructureDelimiter":"$<\n"},"persistenceMethod":"fs","persistenceAdapter":null,"verbose":false,"events":{"init":[null],"loaded":[],"flushChanges":[],"close":[],"changes":[],"warning":[]},"ENV":"NODEJS"}