{"filename":"-81.75-31.25","collections":[{"name":"restaurants","data":[{"_id":"5c3d65bd3525a329e0c1adca","address":"5006 Altama Ave.","location":{"type":"Point","coordinates":[-81.3884205,31.1621951]},"isApproved":true,"items":[],"keys":["Mexican"],"lastUpdated":1547527612875,"name":"tacos don pancho","phone":"(912) 342-7111","price":"","reviewCount":11,"reviewScore":4.5,"meta":{"revision":0,"created":1547531150024,"version":0},"$loki":1},{"_id":"5c3d65bd3525a329e0c1a446","address":"5031 New Jesup Hwy","location":{"type":"Point","coordinates":[-81.3888197,31.1624375]},"isApproved":true,"items":[],"keys":["Diners"],"lastUpdated":1547527612859,"name":"Sunrise Diner","phone":"(912) 261-8787","price":"$","reviewCount":42,"reviewScore":4.5,"meta":{"revision":0,"created":1547531150024,"version":0},"$loki":2},{"_id":"5c3d65bd3525a329e0c0591c","address":"307 Longview Plz","location":{"type":"Point","coordinates":[-81.3893962,31.1626618]},"isApproved":true,"items":[],"keys":["Sushi Bars","Thai","Salad"],"lastUpdated":1547527612355,"name":"Tara Thai & Sushi","phone":"(912) 266-8272","price":"$$","reviewCount":66,"reviewScore":4.5,"meta":{"revision":0,"created":1547531150024,"version":0},"$loki":3},{"_id":"5c3d65bd3525a329e0c057a6","address":"70 Retreat Village","location":{"type":"Point","coordinates":[-81.389167,31.162303]},"isApproved":true,"items":[],"keys":["Salad","Pizza"],"lastUpdated":1547527612349,"name":"Ember","phone":"(912) 434-9384","price":"$$","reviewCount":43,"reviewScore":4,"meta":{"revision":0,"created":1547531150024,"version":0},"$loki":4},{"_id":"5c3d65bd3525a329e0c14408","address":"1609 Frederica Rd","location":{"type":"Point","coordinates":[-81.3887947,31.1605996]},"isApproved":true,"items":[],"keys":["Seafood","Steakhouses"],"lastUpdated":1547527612714,"name":"Sapelo Crow","phone":"(912) 268-4219","price":"","reviewCount":12,"reviewScore":3.5,"meta":{"revision":0,"created":1547531150024,"version":0},"$loki":5},{"_id":"5c3d65bd3525a329e0c0b582","address":"Ocean View Trl","location":{"type":"Point","coordinates":[-81.3907426261547,31.1575321370185]},"isApproved":true,"items":[],"keys":["Cafes"],"lastUpdated":1547527612499,"name":"Hibiscus Cafe","phone":"(912) 635-2253","price":"$","reviewCount":4,"reviewScore":2,"meta":{"revision":0,"created":1547531150024,"version":0},"$loki":6},{"_id":"5c3d65bd3525a329e0c04b69","address":"100 Mall Blvd","location":{"type":"Point","coordinates":[-81.390172,31.159728]},"isApproved":true,"items":[],"keys":["American (Traditional)"],"lastUpdated":1547527612331,"name":"American Deli","phone":"(912) 264-6232","price":"$","reviewCount":4,"reviewScore":4,"meta":{"revision":0,"created":1547531150024,"version":0},"$loki":7},{"_id":"5c3d65bd3525a329e0c15a61","address":"50 Ben Fortson Pkwy","location":{"type":"Point","coordinates":[-81.3906966,31.1597278]},"isApproved":true,"items":[],"keys":["Breakfast & Brunch","Burgers","Hot Dogs"],"lastUpdated":1547527612748,"name":"Dairy Queen","phone":"(912) 635-2573","price":"$","reviewCount":11,"reviewScore":2.5,"meta":{"revision":0,"created":1547531150024,"version":0},"$loki":8},{"_id":"5c3d65bd3525a329e0c09d0a","address":"550 N Beachview Dr","location":{"type":"Point","coordinates":[-81.3902653,31.1592706]},"isApproved":true,"items":[],"keys":["Pizza"],"lastUpdated":1547527612465,"name":"Red Bug Motor’s Pizza","phone":"(912) 635-9730","price":"$$","reviewCount":83,"reviewScore":3.5,"meta":{"revision":0,"created":1547531150024,"version":0},"$loki":9},{"_id":"5c3d65bd3525a329e0c19006","address":"2802 Altama Ave","location":{"type":"Point","coordinates":[-81.3902653,31.1592706]},"isApproved":true,"items":[],"keys":["Chinese"],"lastUpdated":1547527612832,"name":"Wok N Roll","phone":"(912) 261-8388","price":"$$","reviewCount":14,"reviewScore":4.5,"meta":{"revision":0,"created":1547531150024,"version":0},"$loki":10},{"_id":"5c3d65bd3525a329e0c08caf","address":"408 Mallery St","location":{"type":"Point","coordinates":[-81.3909568742034,31.1591218366392]},"isApproved":true,"items":[],"keys":["Breakfast & Brunch"],"lastUpdated":1547527612436,"name":"Mallery Street Cafe","phone":"(912) 634-7772","price":"$$","reviewCount":69,"reviewScore":4,"meta":{"revision":0,"created":1547531150024,"version":0},"$loki":11},{"_id":"5c3d65bd3525a329e0c0ebd6","address":"435 Mall Blvd","location":{"type":"Point","coordinates":[-81.3914051,31.1589538]},"isApproved":true,"items":[],"keys":["Sushi Bars"],"lastUpdated":1547527612582,"name":"Easy Q Sushi","phone":"(912) 275-7182","price":"$","reviewCount":2,"reviewScore":5,"meta":{"revision":0,"created":1547531150024,"version":0},"$loki":12},{"_id":"5c3d65bd3525a329e0c04c4c","address":"2210 Demere Rd","location":{"type":"Point","coordinates":[-81.3912222,31.1592718]},"isApproved":true,"items":[],"keys":["American (Traditional)","Diners","Breakfast & Brunch"],"lastUpdated":1547527612337,"name":"Waffle House","phone":"(912) 634-6166","price":"$","reviewCount":16,"reviewScore":4,"meta":{"revision":0,"created":1547531150024,"version":0},"$loki":13},{"_id":"5c3d65bd3525a329e0c07e4e","address":"5004 New Jesup Hwy","location":{"type":"Point","coordinates":[-81.3911045,31.1574683]},"isApproved":true,"items":[],"keys":["Burgers","Pubs"],"lastUpdated":1547527612417,"name":"Craft 44 Burger & Pub","phone":"(912) 289-2054","price":"","reviewCount":13,"reviewScore":3.5,"meta":{"revision":0,"created":1547531150024,"version":0},"$loki":14},{"_id":"5c3d65bd3525a329e0c03a88","address":"127 Altama Connector","location":{"type":"Point","coordinates":[-81.3922065,31.1602691]},"isApproved":true,"items":[],"keys":["Fast Food","Ice Cream & Frozen Yogurt"],"lastUpdated":1547527612311,"name":"Dairy Queen","phone":"(912) 264-2256","price":"$","reviewCount":8,"reviewScore":3,"meta":{"revision":0,"created":1547531150024,"version":0},"$loki":15},{"_id":"5c3d65bd3525a329e0c06077","address":"196 Retreat Pl","location":{"type":"Point","coordinates":[-81.3933210074902,31.1604194051937]},"isApproved":true,"items":[],"keys":["Italian","Wine Bars","Seafood"],"lastUpdated":1547527612368,"name":"Nazzaro’s Italian Cuisine","phone":"(912) 634-6161","price":"$$","reviewCount":50,"reviewScore":4,"meta":{"revision":0,"created":1547531150024,"version":0},"$loki":16},{"_id":"5c3d65bd3525a329e0c04740","address":"1922 1/2 Norwich St","location":{"type":"Point","coordinates":[-81.391277,31.160657]},"isApproved":true,"items":[],"keys":["Restaurants"],"lastUpdated":1547527612329,"name":"Tortilleria Dona Vita","phone":"(912) 265-9255","price":"","reviewCount":1,"reviewScore":5,"meta":{"revision":0,"created":1547531150024,"version":0},"$loki":17},{"_id":"5c3d65bd3525a329e0c0d058","address":"2729 US-17","location":{"type":"Point","coordinates":[-81.3899021,31.1626274]},"isApproved":true,"items":[],"keys":["Southern","Seafood"],"lastUpdated":1547527612544,"name":"Original Jay’s Fish & Chicken","phone":"(912) 265-1800","price":"","reviewCount":32,"reviewScore":4.5,"meta":{"revision":0,"created":1547531150024,"version":0},"$loki":18},{"_id":"5c3d65bd3525a329e0c03386","address":"801 Egmont St","location":{"type":"Point","coordinates":[-81.389519,31.163252]},"isApproved":true,"items":[],"keys":["Delis","Bakeries"],"lastUpdated":1547527612302,"name":"Yellow Deli And Bakery","phone":"(912) 264-1069","price":"$","reviewCount":45,"reviewScore":5,"meta":{"revision":0,"created":1547531150024,"version":0},"$loki":19},{"_id":"5c3d65bd3525a329e0c072bc","address":"3202 Glynn Ave","location":{"type":"Point","coordinates":[-81.3877978,31.1638628]},"isApproved":true,"items":[],"keys":["Chinese","Soup"],"lastUpdated":1547527612399,"name":"New China Restaurant","phone":"(912) 265-6722","price":"$","reviewCount":12,"reviewScore":2.5,"meta":{"revision":0,"created":1547531150024,"version":0},"$loki":20},{"_id":"5c3d65bd3525a329e0c103c1","address":"3599 Altama Ave","location":{"type":"Point","coordinates":[-81.3879268576948,31.163296571549]},"isApproved":true,"items":[],"keys":["American (New)"],"lastUpdated":1547527612617,"name":"Willie’s Wee-Nee Wagon","phone":"(912) 264-1146","price":"$","reviewCount":131,"reviewScore":4.5,"meta":{"revision":0,"created":1547531150024,"version":0},"$loki":21},{"_id":"5c3d65bd3525a329e0c136ce","address":"110 Sylvan Dr","location":{"type":"Point","coordinates":[-81.387896522309,31.1633926915251]},"isApproved":true,"items":[],"keys":["Breakfast & Brunch","American (Traditional)"],"lastUpdated":1547527612696,"name":"Cafe Frederica","phone":"(912) 638-6777","price":"$$","reviewCount":89,"reviewScore":4,"meta":{"revision":0,"created":1547531150024,"version":0},"$loki":22},{"_id":"5c3d65bd3525a329e0c1300d","address":"267 Village At Glynn Pl","location":{"type":"Point","coordinates":[-81.4079184,31.1594779]},"isApproved":true,"items":[],"keys":["Irish","Barbeque","Pubs"],"lastUpdated":1547527612688,"name":"McGarvey’s Wee Pub","phone":"(912) 265-3233","price":"$$","reviewCount":51,"reviewScore":2.5,"meta":{"revision":0,"created":1547531150024,"version":0},"$loki":23},{"_id":"5c3d65bd3525a329e0c0fd5f","address":"102 Marina Dr","location":{"type":"Point","coordinates":[-81.4114363073151,31.1660353290853]},"isApproved":true,"items":[],"keys":["Seafood"],"lastUpdated":1547527612608,"name":"Coastal Kitchen","phone":"(912) 638-7790","price":"$$","reviewCount":232,"reviewScore":4,"meta":{"revision":0,"created":1547531150024,"version":0},"$loki":24},{"_id":"5c3d65bd3525a329e0c14af6","address":"25 Market St","location":{"type":"Point","coordinates":[-81.416153,31.16824]},"isApproved":true,"items":[],"keys":["Fast Food","Chicken Wings","Salad"],"lastUpdated":1547527612728,"name":"Zaxby’s Chicken Fingers & Buffalo Wings","phone":"(912) 638-4010","price":"$","reviewCount":11,"reviewScore":2.5,"meta":{"revision":0,"created":1547531150024,"version":0},"$loki":25},{"_id":"5c3d65bd3525a329e0c13773","address":"3349 Cypress Mill Rd","location":{"type":"Point","coordinates":[-81.4159862,31.1682881]},"isApproved":true,"items":[],"keys":["Cafes","Coffee & Tea"],"lastUpdated":1547527612697,"name":"Wake Up Coffee Co","phone":"(912) 342-8467","price":"$","reviewCount":54,"reviewScore":4.5,"meta":{"revision":0,"created":1547531150024,"version":0},"$loki":26},{"_id":"5c3d65bd3525a329e0c0311e","address":"","location":{"type":"Point","coordinates":[-81.415867,31.168309]},"isApproved":true,"items":[],"keys":["Hot Dogs"],"lastUpdated":1547527612296,"name":"Rich-Seapak Corporation","phone":"(912) 264-0097","price":"","reviewCount":1,"reviewScore":4,"meta":{"revision":0,"created":1547531150024,"version":0},"$loki":27},{"_id":"5c3d65bd3525a329e0c1ae34","address":"3421 Cypress Mill Rd","location":{"type":"Point","coordinates":[-81.4947578,31.216726]},"isApproved":true,"items":[],"keys":["Korean"],"lastUpdated":1547527612876,"name":"Hwang Keum Jung Korean Restaurant","phone":"(912) 261-8040","price":"","reviewCount":1,"reviewScore":3,"meta":{"revision":0,"created":1547531150024,"version":0},"$loki":28},{"_id":"5c3d65bd3525a329e0c06530","address":"701 Glynn Isles","location":{"type":"Point","coordinates":[-81.4941852,31.2172631]},"isApproved":true,"items":[],"keys":["Japanese","Sushi Bars"],"lastUpdated":1547527612377,"name":"Seasons of Japan","phone":"(912) 264-5280","price":"$","reviewCount":32,"reviewScore":3,"meta":{"revision":0,"created":1547531150024,"version":0},"$loki":29},{"_id":"5c3d65bd3525a329e0c15127","address":"250 Golden Isles Plz","location":{"type":"Point","coordinates":[-81.489639,31.217461]},"isApproved":true,"items":[],"keys":["Mexican"],"lastUpdated":1547527612737,"name":"Barberitos","phone":"(912) 261-2840","price":"$","reviewCount":16,"reviewScore":3,"meta":{"revision":0,"created":1547531150024,"version":0},"$loki":30},{"_id":"5c3d65bd3525a329e0c07d5c","address":"202 Harrison Ln","location":{"type":"Point","coordinates":[-81.4892428,31.217574]},"isApproved":true,"items":[],"keys":["Mexican"],"lastUpdated":1547527612411,"name":"Cilantros Grill and Cantina","phone":"(912) 262-5878","price":"$$","reviewCount":52,"reviewScore":3.5,"meta":{"revision":0,"created":1547531150024,"version":0},"$loki":31},{"_id":"5c3d65bd3525a329e0c16cc0","address":"2909 Glynn Ave","location":{"type":"Point","coordinates":[-81.48911,31.2176555]},"isApproved":true,"items":[],"keys":["Delis","Cheesesteaks","Sandwiches"],"lastUpdated":1547527612774,"name":"Larry’s Giant Subs","phone":"(912) 265-0396","price":"$","reviewCount":7,"reviewScore":3,"meta":{"revision":0,"created":1547531150024,"version":0},"$loki":32},{"_id":"5c3d65bd3525a329e0c13f17","address":"1600 Frederica Rd","location":{"type":"Point","coordinates":[-81.489869,31.216407]},"isApproved":true,"items":[],"keys":["Pizza","Chicken Wings","Sandwiches"],"lastUpdated":1547527612706,"name":"Domino’s Pizza","phone":"(912) 638-1166","price":"$$","reviewCount":8,"reviewScore":4,"meta":{"revision":0,"created":1547531150024,"version":0},"$loki":33},{"_id":"5c3d65bd3525a329e0c076ce","address":"210 S Riverview Dr","location":{"type":"Point","coordinates":[-81.4916655293009,31.2131025359168]},"isApproved":true,"items":[],"keys":["Delis","Sandwiches"],"lastUpdated":1547527612402,"name":"Subs Larry’s Giant New York Delicatessen","phone":"(912) 635-9283","price":"","reviewCount":1,"reviewScore":1,"meta":{"revision":0,"created":1547531150024,"version":0},"$loki":34},{"_id":"5c3d65bd3525a329e0c1649d","address":"65 Tourist Dr","location":{"type":"Point","coordinates":[-81.492191,31.213069]},"isApproved":true,"items":[],"keys":["Fast Food","Burgers"],"lastUpdated":1547527612764,"name":"Krystal","phone":"(912) 264-4411","price":"$","reviewCount":18,"reviewScore":2,"meta":{"revision":0,"created":1547531150024,"version":0},"$loki":35},{"_id":"5c3d65bd3525a329e0c0be4f","address":"7445 Blythe Island Hwy","location":{"type":"Point","coordinates":[-81.49076349,31.2115709]},"isApproved":true,"items":[],"keys":["Restaurants"],"lastUpdated":1547527612515,"name":"Fran’s Place Restaurant","phone":"(912) 262-9663","price":"","reviewCount":1,"reviewScore":3,"meta":{"revision":0,"created":1547531150024,"version":0},"$loki":36},{"_id":"5c3d65bd3525a329e0c1955e","address":"919 Glynn Isles","location":{"type":"Point","coordinates":[-81.48993,31.213464]},"isApproved":true,"items":[],"keys":["Sandwiches","Fast Food","Delis"],"lastUpdated":1547527612840,"name":"Firehouse Subs","phone":"(912) 262-2120","price":"$","reviewCount":18,"reviewScore":3.5,"meta":{"revision":0,"created":1547531150024,"version":0},"$loki":37},{"_id":"5c3d65bd3525a329e0c00c39","address":"164 Altama Connector","location":{"type":"Point","coordinates":[-81.4882025,31.2140031]},"isApproved":true,"items":[],"keys":["Fast Food","Burgers"],"lastUpdated":1547527612231,"name":"Wendy’s","phone":"(912) 267-0966","price":"$","reviewCount":8,"reviewScore":2.5,"meta":{"revision":0,"created":1547531150024,"version":0},"$loki":38},{"_id":"5c3d65bd3525a329e0c17aed","address":"125 Palisade Dr","location":{"type":"Point","coordinates":[-81.4875677288361,31.2142482905714]},"isApproved":true,"items":[],"keys":["Diners","Breakfast & Brunch","American (Traditional)"],"lastUpdated":1547527612799,"name":"Waffle House","phone":"(912) 267-9395","price":"$","reviewCount":8,"reviewScore":2.5,"meta":{"revision":0,"created":1547531150024,"version":0},"$loki":39},{"_id":"5c3d65bd3525a329e0c04709","address":"4545 Altama Ave","location":{"type":"Point","coordinates":[-81.4878165,31.2132672]},"isApproved":true,"items":[],"keys":["Fast Food","Burgers","Coffee & Tea"],"lastUpdated":1547527612329,"name":"McDonald’s","phone":"(912) 267-9021","price":"$","reviewCount":3,"reviewScore":2.5,"meta":{"revision":0,"created":1547531150024,"version":0},"$loki":40},{"_id":"5c3d65bd3525a329e0c19fbb","address":"100 Cloister Dr","location":{"type":"Point","coordinates":[-81.484045,31.213295]},"isApproved":true,"items":[],"keys":["American (New)"],"lastUpdated":1547527612851,"name":"Sea Island River Bar","phone":"(866) 534-8940","price":"$$$","reviewCount":13,"reviewScore":2.5,"meta":{"revision":0,"created":1547531150024,"version":0},"$loki":41},{"_id":"5c3d65bd3525a329e0c1820b","address":"185 Dungeness Rd","location":{"type":"Point","coordinates":[-81.4853932,31.2129066]},"isApproved":true,"items":[],"keys":["Fast Food","Burgers"],"lastUpdated":1547527612809,"name":"Burger King","phone":"(912) 265-0559","price":"$","reviewCount":9,"reviewScore":2,"meta":{"revision":0,"created":1547531150024,"version":0},"$loki":42},{"_id":"5c3d65bd3525a329e0c19f28","address":"5437 Altama Ave","location":{"type":"Point","coordinates":[-81.4837427882385,31.2137138549054]},"isApproved":true,"items":[],"keys":["Vietnamese"],"lastUpdated":1547527612851,"name":"Pho #1","phone":"(912) 262-1457","price":"$$","reviewCount":74,"reviewScore":3.5,"meta":{"revision":0,"created":1547531150024,"version":0},"$loki":43},{"_id":"5c3d65bd3525a329e0c17cd2","address":"5028 New Jesup Hwy","location":{"type":"Point","coordinates":[-81.482833,31.213664]},"isApproved":true,"items":[],"keys":["Diners","Breakfast & Brunch","American (Traditional)"],"lastUpdated":1547527612800,"name":"Waffle House","phone":"(912) 264-1584","price":"$$","reviewCount":8,"reviewScore":4.5,"meta":{"revision":0,"created":1547531150024,"version":0},"$loki":44},{"_id":"5c3d65bd3525a329e0c1a5b6","address":"593 Palisade Dr","location":{"type":"Point","coordinates":[-81.4829484,31.214742]},"isApproved":true,"items":[],"keys":["Chinese"],"lastUpdated":1547527612860,"name":"China One","phone":"(912) 262-6911","price":"$","reviewCount":10,"reviewScore":2,"meta":{"revision":0,"created":1547531150024,"version":0},"$loki":45},{"_id":"5c3d65bd3525a329e0c055cf","address":"4727 Altama Ave","location":{"type":"Point","coordinates":[-81.4844316,31.216207]},"isApproved":true,"items":[],"keys":["Fast Food","Burgers","Ice Cream & Frozen Yogurt"],"lastUpdated":1547527612348,"name":"Sonic Drive-In","phone":"(912) 264-4491","price":"$","reviewCount":14,"reviewScore":1.5,"meta":{"revision":0,"created":1547531150024,"version":0},"$loki":46},{"_id":"5c3d65bd3525a329e0c087ea","address":"4428 New Jesup Hwy","location":{"type":"Point","coordinates":[-81.4842256,31.2156265]},"isApproved":true,"items":[],"keys":["Fast Food"],"lastUpdated":1547527612428,"name":"Hardee’s Restaurant","phone":"(912) 261-8751","price":"$","reviewCount":7,"reviewScore":3,"meta":{"revision":0,"created":1547531150024,"version":0},"$loki":47},{"_id":"5c3d65bd3525a329e0c16bc7","address":"2618 Norwich St","location":{"type":"Point","coordinates":[-81.485883705318,31.2151518730029]},"isApproved":true,"items":[],"keys":["Barbeque","American (Traditional)"],"lastUpdated":1547527612773,"name":"Twin Oaks Bbq","phone":"(912) 265-3131","price":"$","reviewCount":35,"reviewScore":4,"meta":{"revision":0,"created":1547531150024,"version":0},"$loki":48},{"_id":"5c3d65bd3525a329e0c122a2","address":"135 Village At Glynn Pl","location":{"type":"Point","coordinates":[-81.4879259167541,31.2151956787769]},"isApproved":true,"items":[],"keys":["Pizza"],"lastUpdated":1547527612669,"name":"Papa John’s Pizza","phone":"(912) 264-9444","price":"","reviewCount":5,"reviewScore":4,"meta":{"revision":0,"created":1547531150024,"version":0},"$loki":49},{"_id":"5c3d65bd3525a329e0c0083a","address":"3636 US Hwy 82","location":{"type":"Point","coordinates":[-81.481186,31.215889]},"isApproved":true,"items":[],"keys":["Barbeque","Butcher","Meat Shops"],"lastUpdated":1547527612228,"name":"Gary Lee’s Market","phone":"(912) 265-1925","price":"$","reviewCount":112,"reviewScore":4.5,"meta":{"revision":0,"created":1547531150024,"version":0},"$loki":50},{"_id":"5c3d65bd3525a329e0c06f45","address":"211 Redfern Village","location":{"type":"Point","coordinates":[-81.480718,31.2153042]},"isApproved":true,"items":[],"keys":["Sushi Bars"],"lastUpdated":1547527612388,"name":"Fancy Q Sushi Bar & Grill","phone":"(912) 634-9570","price":"$$","reviewCount":56,"reviewScore":4,"meta":{"revision":0,"created":1547531150024,"version":0},"$loki":51},{"_id":"5c3d65bd3525a329e0c18ffe","address":"4500 Altama Ave","location":{"type":"Point","coordinates":[-81.480718,31.2153042]},"isApproved":true,"items":[],"keys":["Japanese"],"lastUpdated":1547527612832,"name":"New Hong Kong Restaurant","phone":"(912) 264-9333","price":"$","reviewCount":9,"reviewScore":2.5,"meta":{"revision":0,"created":1547531150024,"version":0},"$loki":52},{"_id":"5c3d65bd3525a329e0c0facb","address":"260 Redfern Village","location":{"type":"Point","coordinates":[-81.4814704,31.2154651]},"isApproved":true,"items":[],"keys":["Seafood","Southern","Cajun/Creole"],"lastUpdated":1547527612601,"name":"Blackwater Grill","phone":"(912) 634-6333","price":"$$","reviewCount":126,"reviewScore":3.5,"meta":{"revision":0,"created":1547531150024,"version":0},"$loki":53},{"_id":"5c3d65bd3525a329e0c08124","address":"163 Flash Foods Dr","location":{"type":"Point","coordinates":[-81.4815952248649,31.2132659446898]},"isApproved":true,"items":[],"keys":["Burgers","Fast Food"],"lastUpdated":1547527612419,"name":"Krystal","phone":"(912) 265-9184","price":"$","reviewCount":23,"reviewScore":2,"meta":{"revision":0,"created":1547531150024,"version":0},"$loki":54},{"_id":"5c3d65bd3525a329e0c13d80","address":"2990 US Hwy 17 S","location":{"type":"Point","coordinates":[-81.48231,31.2090034]},"isApproved":true,"items":[],"keys":["American (Traditional)","Breakfast & Brunch","Diners"],"lastUpdated":1547527612706,"name":"Denny’s","phone":"(912) 554-2004","price":"$","reviewCount":29,"reviewScore":3.5,"meta":{"revision":0,"created":1547531150024,"version":0},"$loki":55},{"_id":"5c3d65bd3525a329e0c19720","address":"911 Glynn Isle","location":{"type":"Point","coordinates":[-81.47578,31.213082]},"isApproved":true,"items":[],"keys":["Chicken Wings","Burgers","Sandwiches"],"lastUpdated":1547527612841,"name":"Skinny Pete’s Wings","phone":"(912) 262-9988","price":"$$","reviewCount":13,"reviewScore":3.5,"meta":{"revision":0,"created":1547531150024,"version":0},"$loki":56},{"_id":"5c3d65bd3525a329e0c085a9","address":"2815 Glynn Ave","location":{"type":"Point","coordinates":[-81.4680207,31.2030072]},"isApproved":true,"items":[],"keys":["Seafood"],"lastUpdated":1547527612427,"name":"Jinright’s Seafood House","phone":"(912) 267-1590","price":"$$","reviewCount":31,"reviewScore":3,"meta":{"revision":0,"created":1547531150024,"version":0},"$loki":57},{"_id":"5c3d65bd3525a329e0c0d5a1","address":"70 Golden Isles Plz","location":{"type":"Point","coordinates":[-81.4747342,31.1713734]},"isApproved":true,"items":[],"keys":["Fast Food"],"lastUpdated":1547527612548,"name":"Chick-fil-A","phone":"(912) 466-9911","price":"$","reviewCount":35,"reviewScore":3,"meta":{"revision":0,"created":1547531150024,"version":0},"$loki":58},{"_id":"5c3d65bd3525a329e0c046d2","address":"116 Marina Dr","location":{"type":"Point","coordinates":[-81.4748844,31.1704286]},"isApproved":true,"items":[],"keys":["Bars","American (Traditional)"],"lastUpdated":1547527612329,"name":"Brogen’s","phone":"(912) 634-4549","price":"$","reviewCount":16,"reviewScore":3,"meta":{"revision":0,"created":1547531150024,"version":0},"$loki":59},{"_id":"5c3d65bd3525a329e0c1212f","address":"202 Retreat Village","location":{"type":"Point","coordinates":[-81.475295,31.170082]},"isApproved":true,"items":[],"keys":["American (New)","Seafood","Cocktail Bars"],"lastUpdated":1547527612663,"name":"Bonefish Grill","phone":"(912) 634-0246","price":"$$","reviewCount":52,"reviewScore":3.5,"meta":{"revision":0,"created":1547531150024,"version":0},"$loki":60},{"_id":"5c3d65bd3525a329e0c07a8d","address":"1821 Glynn Ave Hwy 17","location":{"type":"Point","coordinates":[-81.4904991,31.1778481]},"isApproved":true,"items":[],"keys":["Fast Food","Burgers","Coffee & Tea"],"lastUpdated":1547527612409,"name":"McDonald’s","phone":"(912) 265-6640","price":"","reviewCount":8,"reviewScore":2,"meta":{"revision":0,"created":1547531150024,"version":0},"$loki":61},{"_id":"5c3d65bd3525a329e0bffc9e","address":"228 Redfern Vlg","location":{"type":"Point","coordinates":[-81.4896393,31.1809103]},"isApproved":true,"items":[],"keys":["Seafood","Bars","American (Traditional)"],"lastUpdated":1547527612221,"name":"Catch 228 Oyster Bar & Grille","phone":"(912) 634-6228","price":"$$","reviewCount":138,"reviewScore":3.5,"meta":{"revision":0,"created":1547531150024,"version":0},"$loki":62},{"_id":"5c3d65bd3525a329e0c1a482","address":"3601 Altama Ave","location":{"type":"Point","coordinates":[-81.4898322,31.1813005]},"isApproved":true,"items":[],"keys":["Barbeque"],"lastUpdated":1547527612859,"name":"Big A BBQ","phone":"(912) 342-7685","price":"","reviewCount":3,"reviewScore":5,"meta":{"revision":0,"created":1547531150024,"version":0},"$loki":63},{"_id":"5c3d65bd3525a329e0c06049","address":"177 Altama Connector","location":{"type":"Point","coordinates":[-81.4732167,31.1746606]},"isApproved":true,"items":[],"keys":["Sports Bars","Burgers","American (Traditional)"],"lastUpdated":1547527612368,"name":"Applebee’s Grill + Bar","phone":"(912) 262-5800","price":"$$","reviewCount":42,"reviewScore":2,"meta":{"revision":0,"created":1547531150024,"version":0},"$loki":64},{"_id":"5c3d65bd3525a329e0c14a47","address":"26 Market St","location":{"type":"Point","coordinates":[-81.4792453,31.1942736]},"isApproved":true,"items":[],"keys":["Coffee & Tea","Cafes"],"lastUpdated":1547527612728,"name":"Local Brew Coffee Makers","phone":"(912) 434-9590","price":"","reviewCount":3,"reviewScore":4.5,"meta":{"revision":0,"created":1547531150024,"version":0},"$loki":65},{"_id":"5c3d65bd3525a329e0c09036","address":"710 Glynn Isles","location":{"type":"Point","coordinates":[-81.4797058105469,31.1939392089844]},"isApproved":true,"items":[],"keys":["Pizza","Salad","Sandwiches"],"lastUpdated":1547527612439,"name":"Pie Guys Pizza","phone":"(912) 289-9046","price":"$$","reviewCount":23,"reviewScore":4.5,"meta":{"revision":0,"created":1547531150024,"version":0},"$loki":66},{"_id":"5c3d65bd3525a329e0c08b6f","address":"3611 Frederica Rd","location":{"type":"Point","coordinates":[-81.4804351329803,31.1939799770611]},"isApproved":true,"items":[],"keys":["Seafood","Steakhouses"],"lastUpdated":1547527612436,"name":"Frederica House","phone":"(912) 638-6789","price":"$$","reviewCount":31,"reviewScore":3.5,"meta":{"revision":0,"created":1547531150024,"version":0},"$loki":67},{"_id":"5c3d65bd3525a329e0c02a6f","address":"3365 Cypress Mill Rd","location":{"type":"Point","coordinates":[-81.4824893746336,31.1954282202392]},"isApproved":true,"items":[],"keys":["Cafes"],"lastUpdated":1547527612286,"name":"Angel’s Cafe’","phone":"(912) 280-0206","price":"$","reviewCount":11,"reviewScore":4.5,"meta":{"revision":0,"created":1547531150024,"version":0},"$loki":68},{"_id":"5c3d65bd3525a329e0c18ad4","address":"320 Hyde Park Cmns","location":{"type":"Point","coordinates":[-81.4797744,31.1946422]},"isApproved":true,"items":[],"keys":["Delis","Sandwiches"],"lastUpdated":1547527612823,"name":"Larry’s Giant Subs","phone":"(912) 267-1871","price":"$","reviewCount":10,"reviewScore":4,"meta":{"revision":0,"created":1547531150024,"version":0},"$loki":69},{"_id":"5c3d65bd3525a329e0c07255","address":"5701 Altama Ave","location":{"type":"Point","coordinates":[-81.4825658163605,31.2051839466112]},"isApproved":true,"items":[],"keys":["Mexican"],"lastUpdated":1547527612398,"name":"La Salsa Taqueria","phone":"(912) 466-9343","price":"$","reviewCount":105,"reviewScore":4,"meta":{"revision":0,"created":1547531150024,"version":0},"$loki":70},{"_id":"5c3d65bd3525a329e0c0c2bf","address":"114 Golden Isles Plz","location":{"type":"Point","coordinates":[-81.482764,31.203345]},"isApproved":true,"items":[],"keys":["American (Traditional)","Buffets"],"lastUpdated":1547527612518,"name":"Golden Corral","phone":"(912) 262-1945","price":"$$","reviewCount":8,"reviewScore":3,"meta":{"revision":0,"created":1547531150024,"version":0},"$loki":71},{"_id":"5c3d65bd3525a329e0c08eba","address":"204 Marina Dr","location":{"type":"Point","coordinates":[-81.4822235107422,31.2026119232178]},"isApproved":true,"items":[],"keys":["Fast Food"],"lastUpdated":1547527612438,"name":"Burger King General Office","phone":"(912) 634-8348","price":"","reviewCount":1,"reviewScore":5,"meta":{"revision":0,"created":1547531150024,"version":0},"$loki":72},{"_id":"5c3d65bd3525a329e0c0d984","address":"267 Village At Glynn Pl","location":{"type":"Point","coordinates":[-81.482154,31.20286]},"isApproved":true,"items":[],"keys":["Pubs","Irish"],"lastUpdated":1547527612555,"name":"Wee Pub North","phone":"(912) 265-3233","price":"","reviewCount":5,"reviewScore":2.5,"meta":{"revision":0,"created":1547531150024,"version":0},"$loki":73},{"_id":"5c3d65bd3525a329e0c07088","address":"1600 Frederica Rd","location":{"type":"Point","coordinates":[-81.482194,31.201834]},"isApproved":true,"items":[],"keys":["Delis","Chicken Wings","Sandwiches"],"lastUpdated":1547527612389,"name":"Larry’s Giant Subs","phone":"(912) 634-0424","price":"$","reviewCount":19,"reviewScore":4,"meta":{"revision":0,"created":1547531150024,"version":0},"$loki":74},{"_id":"5c3d65bd3525a329e0c0d14f","address":"1000 Glynn Isles","location":{"type":"Point","coordinates":[-81.4823160859075,31.2014313928216]},"isApproved":true,"items":[],"keys":["Steakhouses","American (Traditional)","Barbeque"],"lastUpdated":1547527612545,"name":"LongHorn Steakhouse","phone":"(912) 261-4702","price":"$$","reviewCount":38,"reviewScore":3,"meta":{"revision":0,"created":1547531150024,"version":0},"$loki":75},{"_id":"5c3d65bd3525a329e0c11f3b","address":"513 Mall Blvd","location":{"type":"Point","coordinates":[-81.482037,31.201658]},"isApproved":true,"items":[],"keys":["Burgers","American (Traditional)"],"lastUpdated":1547527612662,"name":"Ruby Tuesday","phone":"(912) 264-5525","price":"$$","reviewCount":16,"reviewScore":3,"meta":{"revision":0,"created":1547531150024,"version":0},"$loki":76},{"_id":"5c3d65bd3525a329e0c12413","address":"3451 Cypress Mill Road","location":{"type":"Point","coordinates":[-81.4821269191185,31.201699745333]},"isApproved":true,"items":[],"keys":["Breakfast & Brunch","Fast Food"],"lastUpdated":1547527612670,"name":"Grandy’s","phone":"(912) 264-3700","price":"$","reviewCount":27,"reviewScore":3.5,"meta":{"revision":0,"created":1547531150024,"version":0},"$loki":77},{"_id":"5c3d65bd3525a329e0c1b50d","address":"100 Retreat Ave","location":{"type":"Point","coordinates":[-81.4805676,31.2028247]},"isApproved":true,"items":[],"keys":["Southern"],"lastUpdated":1547527612885,"name":"Oak Room","phone":"(912) 638-3611","price":"$$$","reviewCount":10,"reviewScore":4,"meta":{"revision":0,"created":1547531150024,"version":0},"$loki":78},{"_id":"5c3d65bd3525a329e0c18ee0","address":"2766 US Hwy 17 S","location":{"type":"Point","coordinates":[-81.4855581521987,31.1978918681586]},"isApproved":true,"items":[],"keys":["Sandwiches","Fast Food"],"lastUpdated":1547527612831,"name":"Subway","phone":"(912) 264-2777","price":"","reviewCount":3,"reviewScore":1.5,"meta":{"revision":0,"created":1547531150024,"version":0},"$loki":79},{"_id":"5c3d65bd3525a329e0c0d3cf","address":"Newcastle St","location":{"type":"Point","coordinates":[-81.4829449436279,31.2017200754134]},"isApproved":true,"items":[],"keys":["Seafood","American (Traditional)"],"lastUpdated":1547527612546,"name":"The Buccaneer Club","phone":"(912) 275-8300","price":"$$","reviewCount":3,"reviewScore":2.5,"meta":{"revision":0,"created":1547531150024,"version":0},"$loki":80},{"_id":"5c3d65bd3525a329e0c15808","address":"718 Glynn Isles Pkwy","location":{"type":"Point","coordinates":[-81.4829091355205,31.2046260220195]},"isApproved":true,"items":[],"keys":["Chicken Wings","American (Traditional)","Sports Bars"],"lastUpdated":1547527612747,"name":"Buffalo Wild Wings","phone":"(912) 554-1203","price":"$$","reviewCount":30,"reviewScore":3,"meta":{"revision":0,"created":1547531150024,"version":0},"$loki":81},{"_id":"5c3d65bd3525a329e0c057e0","address":"2412 Norwich St","location":{"type":"Point","coordinates":[-81.4868086,31.1959081]},"isApproved":true,"items":[],"keys":["Restaurants"],"lastUpdated":1547527612349,"name":"Chic King","phone":"(912) 264-1131","price":"","reviewCount":1,"reviewScore":1,"meta":{"revision":0,"created":1547531150024,"version":0},"$loki":82},{"_id":"5c3d65bd3525a329e0c1b314","address":"240 Retreat Village","location":{"type":"Point","coordinates":[-81.4861009,31.1957502]},"isApproved":true,"items":[],"keys":["Pizza","Sandwiches"],"lastUpdated":1547527612883,"name":"Fox’s Pizza Den","phone":"(912) 634-9806","price":"$","reviewCount":26,"reviewScore":3.5,"meta":{"revision":0,"created":1547531150024,"version":0},"$loki":83},{"_id":"5c3d65bd3525a329e0c0f085","address":"2205 Demere Rd","location":{"type":"Point","coordinates":[-81.48312,31.1952194]},"isApproved":true,"items":[],"keys":["Fast Food"],"lastUpdated":1547527612590,"name":"Chick-fil-A - St. Simons","phone":"(912) 638-2695","price":"$","reviewCount":16,"reviewScore":2.5,"meta":{"revision":0,"created":1547531150024,"version":0},"$loki":84},{"_id":"5c3d65bd3525a329e0c04408","address":"5701 Altama Ave","location":{"type":"Point","coordinates":[-81.4836347,31.1952536]},"isApproved":true,"items":[],"keys":["Chinese"],"lastUpdated":1547527612322,"name":"Wok N Roll","phone":"(912) 265-2727","price":"$","reviewCount":10,"reviewScore":3,"meta":{"revision":0,"created":1547531150024,"version":0},"$loki":85},{"_id":"5c3d65bd3525a329e0c00585","address":"3319 Altama Ave","location":{"type":"Point","coordinates":[-81.485404,31.1935617]},"isApproved":true,"items":[],"keys":["Chicken Wings","Fast Food"],"lastUpdated":1547527612227,"name":"Popeyes Louisiana Kitchen","phone":"(912) 265-0064","price":"$","reviewCount":3,"reviewScore":2,"meta":{"revision":0,"created":1547531150024,"version":0},"$loki":86},{"_id":"5c3d65bd3525a329e0c11c13","address":"4933 New Jesup Hwy","location":{"type":"Point","coordinates":[-81.4837205,31.1945489]},"isApproved":true,"items":[],"keys":["Chicken Wings","Fast Food","American (Traditional)"],"lastUpdated":1547527612660,"name":"Popeyes Louisiana Kitchen","phone":"(912) 577-7028","price":"","reviewCount":2,"reviewScore":3,"meta":{"revision":0,"created":1547531150024,"version":0},"$loki":87},{"_id":"5c3d65bd3525a329e0c0ea38","address":"135 Altama Connector","location":{"type":"Point","coordinates":[-81.4836776,31.1921928]},"isApproved":true,"items":[],"keys":["Sushi Bars","Japanese"],"lastUpdated":1547527612581,"name":"Sumo Hibachi & Sushi Japanese Restaurant","phone":"(912) 342-8772","price":"$","reviewCount":31,"reviewScore":3.5,"meta":{"revision":0,"created":1547531150024,"version":0},"$loki":88},{"_id":"5c3d65bd3525a329e0c1a16a","address":"120 Old Jesup Rd","location":{"type":"Point","coordinates":[-81.48547,31.19333]},"isApproved":true,"items":[],"keys":["Soul Food"],"lastUpdated":1547527612857,"name":"Sista’s Kitchen","phone":"(912) 554-3800","price":"","reviewCount":11,"reviewScore":4.5,"meta":{"revision":0,"created":1547531150024,"version":0},"$loki":89},{"_id":"5c3d65bd3525a329e0c18993","address":"3460 Cypress Mill Rd","location":{"type":"Point","coordinates":[-81.4854361,31.1929755]},"isApproved":true,"items":[],"keys":["Mexican"],"lastUpdated":1547527612823,"name":"El Potro Mexican Restaurant","phone":"(912) 264-1619","price":"$","reviewCount":7,"reviewScore":3,"meta":{"revision":0,"created":1547531150024,"version":0},"$loki":90},{"_id":"5c3d65bd3525a329e0c031be","address":"4957 New Jesup Hwy","location":{"type":"Point","coordinates":[-81.4862528443337,31.1941727074494]},"isApproved":true,"items":[],"keys":["Fast Food","Burgers","Coffee & Tea"],"lastUpdated":1547527612296,"name":"McDonald’s","phone":"(912) 264-1130","price":"$","reviewCount":16,"reviewScore":2.5,"meta":{"revision":0,"created":1547531150024,"version":0},"$loki":91},{"_id":"5c3d65bd3525a329e0c0105b","address":"20 Market St","location":{"type":"Point","coordinates":[-81.4867228,31.1919064]},"isApproved":true,"items":[],"keys":["Mexican"],"lastUpdated":1547527612238,"name":"Cilantros Grill and Cantina","phone":"(912) 434-9699","price":"$$","reviewCount":26,"reviewScore":4,"meta":{"revision":0,"created":1547531150024,"version":0},"$loki":92},{"_id":"5c3d65bd3525a329e0bff8d7","address":"935 Beachview Dr","location":{"type":"Point","coordinates":[-81.5067861521855,31.2003275371392]},"isApproved":true,"items":[],"keys":["American (New)","Seafood"],"lastUpdated":1547527612219,"name":"The Rooftop at Ocean Lodge","phone":"(912) 291-4300","price":"$$$","reviewCount":66,"reviewScore":2.5,"meta":{"revision":0,"created":1547531150024,"version":0},"$loki":93},{"_id":"5c3d65bd3525a329e0c0e661","address":"5015 New Jesup Hwy","location":{"type":"Point","coordinates":[-81.508529,31.2049612]},"isApproved":true,"items":[],"keys":["Burgers"],"lastUpdated":1547527612574,"name":"Burger King","phone":"(912) 265-9501","price":"$","reviewCount":8,"reviewScore":3,"meta":{"revision":0,"created":1547531150024,"version":0},"$loki":94},{"_id":"5c3d65bd3525a329e0c02818","address":"4601 Altama Ave","location":{"type":"Point","coordinates":[-81.4967583,31.1654838]},"isApproved":true,"items":[],"keys":["Delis","Sandwiches"],"lastUpdated":1547527612285,"name":"Michael’s Deli & Seafood","phone":"(912) 262-1628","price":"$$","reviewCount":14,"reviewScore":3.5,"meta":{"revision":0,"created":1547531150024,"version":0},"$loki":95},{"_id":"5c3d65bd3525a329e0c04427","address":"606 Gloucester St","location":{"type":"Point","coordinates":[-81.4943705923943,31.1469878941316]},"isApproved":true,"items":[],"keys":["American (Traditional)","Breakfast & Brunch"],"lastUpdated":1547527612322,"name":"Hungry Hannah’s","phone":"(912) 265-8108","price":"$","reviewCount":24,"reviewScore":4,"meta":{"revision":0,"created":1547531150024,"version":0},"$loki":96},{"_id":"5c3d65bd3525a329e0c1310d","address":"440 King Way","location":{"type":"Point","coordinates":[-81.4951073,31.1477641]},"isApproved":true,"items":[],"keys":["Pizza","Sandwiches","Bars"],"lastUpdated":1547527612688,"name":"Mellow Mushroom","phone":"(912) 291-9108","price":"$$","reviewCount":80,"reviewScore":3.5,"meta":{"revision":0,"created":1547531150024,"version":0},"$loki":97},{"_id":"5c3d65bd3525a329e0c0ed7e","address":"1414 Newcastle St","location":{"type":"Point","coordinates":[-81.4948707818985,31.148599406784]},"isApproved":true,"items":[],"keys":["Music Venues","Bars","American (Traditional)"],"lastUpdated":1547527612582,"name":"Tipsy McSway’s","phone":"(912) 267-9991","price":"$$","reviewCount":100,"reviewScore":4.5,"meta":{"revision":0,"created":1547531150024,"version":0},"$loki":98},{"_id":"5c3d65bd3525a329e0c0f57e","address":"2809 Glynn Ave","location":{"type":"Point","coordinates":[-81.4954336084112,31.1488926754097]},"isApproved":true,"items":[],"keys":["Mexican","Tex-Mex","Cocktail Bars"],"lastUpdated":1547527612593,"name":"5 De Mayo Mexican Grill","phone":"(912) 289-9288","price":"$","reviewCount":20,"reviewScore":4,"meta":{"revision":0,"created":1547531150024,"version":0},"$loki":99},{"_id":"5c3d65bd3525a329e0c16541","address":"3350 Cypress Mill Rd","location":{"type":"Point","coordinates":[-81.495513,31.150062]},"isApproved":true,"items":[],"keys":["Sushi Bars","Bars","American (Traditional)"],"lastUpdated":1547527612764,"name":"Zhang’s Fancy Q Sushi Bar and Grill","phone":"(912) 264-8989","price":"$$","reviewCount":42,"reviewScore":4,"meta":{"revision":0,"created":1547531150024,"version":0},"$loki":100},{"_id":"5c3d65bd3525a329e0c126d5","address":"222 Redfern Village","location":{"type":"Point","coordinates":[-81.4959602,31.1500026]},"isApproved":true,"items":[],"keys":["Peruvian","Accessories","Art Galleries"],"lastUpdated":1547527612671,"name":"Peruvian Craft & Label Boutique","phone":"(912) 506-8002","price":"","reviewCount":2,"reviewScore":5,"meta":{"revision":0,"created":1547531150024,"version":0},"$loki":101},{"_id":"5c3d65bd3525a329e0c0a721","address":"415 Palisade Dr","location":{"type":"Point","coordinates":[-81.4963,31.148959]},"isApproved":true,"items":[],"keys":["Seafood","Steakhouses"],"lastUpdated":1547527612481,"name":"Zachry’s","phone":"(912) 265-9080","price":"$$","reviewCount":71,"reviewScore":3.5,"meta":{"revision":0,"created":1547531150024,"version":0},"$loki":102},{"_id":"5c3d65bd3525a329e0c07567","address":"109 Village Cir","location":{"type":"Point","coordinates":[-81.4986459,31.1581874]},"isApproved":true,"items":[],"keys":["Chinese"],"lastUpdated":1547527612400,"name":"China One","phone":"(912) 267-7388","price":"$$","reviewCount":26,"reviewScore":3.5,"meta":{"revision":0,"created":1547531150024,"version":0},"$loki":103},{"_id":"5c3d65bd3525a329e0c0593b","address":"5008 New Jesup Hwy","location":{"type":"Point","coordinates":[-81.495932,31.162727]},"isApproved":true,"items":[],"keys":["Sandwiches","Fast Food"],"lastUpdated":1547527612355,"name":"Subway","phone":"(912) 261-8555","price":"","reviewCount":1,"reviewScore":4,"meta":{"revision":0,"created":1547531150024,"version":0},"$loki":104},{"_id":"5c3d65bd3525a329e0c1ac33","address":"1201 Ocean Blvd","location":{"type":"Point","coordinates":[-81.4917984,31.160022]},"isApproved":true,"items":[],"keys":["Cafes"],"lastUpdated":1547527612869,"name":"Boulevard Cafe","phone":"(912) 634-2415","price":"$","reviewCount":37,"reviewScore":4,"meta":{"revision":0,"created":1547531150024,"version":0},"$loki":105},{"_id":"5c3d65bd3525a329e0c1650c","address":"224 Retreat Village","location":{"type":"Point","coordinates":[-81.4935634,31.1564119]},"isApproved":true,"items":[],"keys":["Chinese"],"lastUpdated":1547527612764,"name":"Fortune House Chinese Restaurant","phone":"(912) 638-0788","price":"$","reviewCount":10,"reviewScore":2,"meta":{"revision":0,"created":1547531150024,"version":0},"$loki":106},{"_id":"5c3d65bd3525a329e0c095e0","address":"351 Sea Island Rd","location":{"type":"Point","coordinates":[-81.4935004,31.1543396]},"isApproved":true,"items":[],"keys":["Grocery","Coffee & Tea","Sandwiches"],"lastUpdated":1547527612453,"name":"The Market Sea Island","phone":"(912) 634-3994","price":"","reviewCount":3,"reviewScore":4,"meta":{"revision":0,"created":1547531150024,"version":0},"$loki":107},{"_id":"5c3d65bd3525a329e0c00ebb","address":"161 Altama Connector","location":{"type":"Point","coordinates":[-81.4797066,31.1570382]},"isApproved":true,"items":[],"keys":["Seafood","Fast Food","American (Traditional)"],"lastUpdated":1547527612237,"name":"Captain D’s","phone":"(912) 264-6455","price":"$","reviewCount":6,"reviewScore":2.5,"meta":{"revision":0,"created":1547531150024,"version":0},"$loki":108},{"_id":"5c3d65bd3525a329e0c07748","address":"115 Golden Isles Plz","location":{"type":"Point","coordinates":[-81.4797072,31.157545]},"isApproved":true,"items":[],"keys":["Restaurants"],"lastUpdated":1547527612402,"name":"Burger King","phone":"(912) 265-0020","price":"$","reviewCount":6,"reviewScore":2.5,"meta":{"revision":0,"created":1547531150024,"version":0},"$loki":109},{"_id":"5c3d65bd3525a329e0c1a58a","address":"2463 Demere Road","location":{"type":"Point","coordinates":[-81.4762921,31.1504203]},"isApproved":true,"items":[],"keys":["Sports Bars","American (Traditional)"],"lastUpdated":1547527612860,"name":"Demere Grill","phone":"(912) 634-2002","price":"","reviewCount":4,"reviewScore":3.5,"meta":{"revision":0,"created":1547531150024,"version":0},"$loki":110},{"_id":"5c3d65bd3525a329e0c09586","address":"4420 Altama Ave","location":{"type":"Point","coordinates":[-81.4871517,31.1509016]},"isApproved":true,"items":[],"keys":["American (Traditional)","Sports Bars"],"lastUpdated":1547527612453,"name":"Bourbon Street Bar and Grille","phone":"(912) 267-1388","price":"$$","reviewCount":2,"reviewScore":4,"meta":{"revision":0,"created":1547531150024,"version":0},"$loki":111},{"_id":"5c3d65bd3525a329e0c184cd","address":"1401 Newcastle St","location":{"type":"Point","coordinates":[-81.4934991,31.1492789]},"isApproved":true,"items":[],"keys":["Asian Fusion","Sushi Bars","Thai"],"lastUpdated":1547527612814,"name":"Basil Thai & Sushi","phone":"(912) 342-7625","price":"$$","reviewCount":87,"reviewScore":4,"meta":{"revision":0,"created":1547531150024,"version":0},"$loki":112},{"_id":"5c3d65bd3525a329e0c1b579","address":"100 Cloister Dr","location":{"type":"Point","coordinates":[-81.4932858,31.1487847]},"isApproved":true,"items":[],"keys":["Italian"],"lastUpdated":1547527612886,"name":"Tavola","phone":"(855) 572-4975","price":"$$$","reviewCount":16,"reviewScore":3.5,"meta":{"revision":0,"created":1547531150024,"version":0},"$loki":113},{"_id":"5c3d65bd3525a329e0c19e8a","address":"1402 Reynolds St","location":{"type":"Point","coordinates":[-81.4936063,31.1482406]},"isApproved":true,"items":[],"keys":["American (New)","Southern"],"lastUpdated":1547527612851,"name":"Indigo Coastal Shanty","phone":"(912) 265-2007","price":"$$","reviewCount":252,"reviewScore":4.5,"meta":{"revision":0,"created":1547531150024,"version":0},"$loki":114},{"_id":"5c3d65bd3525a329e0c1b4ef","address":"1519 New Castle St","location":{"type":"Point","coordinates":[-81.4890603,31.1404788]},"isApproved":true,"items":[],"keys":["Caribbean","Salad"],"lastUpdated":1547527612885,"name":"Island Jerk","phone":"(912) 267-4742","price":"$","reviewCount":37,"reviewScore":4.5,"meta":{"revision":0,"created":1547531150024,"version":0},"$loki":115},{"_id":"5c3d65bd3525a329e0c05eae","address":"1805 Norwich St","location":{"type":"Point","coordinates":[-81.40571,31.139334]},"isApproved":true,"items":[],"keys":["Mexican"],"lastUpdated":1547527612367,"name":"El Puerto Azteca","phone":"(912) 466-8957","price":"","reviewCount":6,"reviewScore":4.5,"meta":{"revision":0,"created":1547531150024,"version":0},"$loki":116},{"_id":"5c3d65bd3525a329e0c1ab1b","address":"301 Long View Dr","location":{"type":"Point","coordinates":[-81.5905998662713,31.1545208438545]},"isApproved":true,"items":[],"keys":["Mexican"],"lastUpdated":1547527612868,"name":"Chile Peppers","phone":"(912) 268-4635","price":"$$","reviewCount":62,"reviewScore":4.5,"meta":{"revision":0,"created":1547531150024,"version":0},"$loki":117},{"_id":"5c3d65bd3525a329e0c037ea","address":"2303 Demere Rd","location":{"type":"Point","coordinates":[-81.5808708,31.1391079]},"isApproved":true,"items":[],"keys":["Burgers","Fast Food","Coffee & Tea"],"lastUpdated":1547527612304,"name":"McDonald’s","phone":"(912) 638-3139","price":"$","reviewCount":12,"reviewScore":2.5,"meta":{"revision":0,"created":1547531150024,"version":0},"$loki":118},{"_id":"5c3d65bd3525a329e0c0edd7","address":"106 Scranton Connector","location":{"type":"Point","coordinates":[-81.5807729,31.137854]},"isApproved":true,"items":[],"keys":["Delis","Meat Shops","Sandwiches"],"lastUpdated":1547527612582,"name":"Honey Baked Ham Company","phone":"(912) 264-1823","price":"$","reviewCount":2,"reviewScore":2.5,"meta":{"revision":0,"created":1547531150024,"version":0},"$loki":119},{"_id":"5c3d65bd3525a329e0c1634f","address":"4510 Altama Ave","location":{"type":"Point","coordinates":[-81.5798299716164,31.1382565089403]},"isApproved":true,"items":[],"keys":["American (Traditional)","Diners","Breakfast & Brunch"],"lastUpdated":1547527612763,"name":"Waffle House","phone":"(912) 265-8792","price":"$","reviewCount":5,"reviewScore":1.5,"meta":{"revision":0,"created":1547531150024,"version":0},"$loki":120},{"_id":"5c3d65bd3525a329e0c16c0e","address":"9 Pier Rd","location":{"type":"Point","coordinates":[-81.5783062577248,31.1401790974251]},"isApproved":true,"items":[],"keys":["American (New)","Fast Food"],"lastUpdated":1547527612774,"name":"Doc’s Snack Shop","phone":"","price":"$","reviewCount":2,"reviewScore":2.5,"meta":{"revision":0,"created":1547531150024,"version":0},"$loki":121},{"_id":"5c3d65bd3525a329e0c12513","address":"501 Mallory St","location":{"type":"Point","coordinates":[-81.5726328,31.1358662]},"isApproved":true,"items":[],"keys":["Fast Food","Ice Cream & Frozen Yogurt"],"lastUpdated":1547527612670,"name":"Dairy Queen","phone":"(912) 638-1765","price":"$","reviewCount":21,"reviewScore":2,"meta":{"revision":0,"created":1547531150024,"version":0},"$loki":122},{"_id":"5c3d65bd3525a329e0c11105","address":"260 Frontage Rd","location":{"type":"Point","coordinates":[-81.5719221,31.1375499]},"isApproved":true,"items":[],"keys":["Burgers","Fast Food","Coffee & Tea"],"lastUpdated":1547527612641,"name":"McDonald’s","phone":"(912) 554-4502","price":"$","reviewCount":17,"reviewScore":2,"meta":{"revision":0,"created":1547531150024,"version":0},"$loki":123},{"_id":"5c3d65bd3525a329e0c123d2","address":"371 N Riverview Dr","location":{"type":"Point","coordinates":[-81.5701725829099,31.1351246908746]},"isApproved":true,"items":[],"keys":["Seafood","Breakfast & Brunch","Diners"],"lastUpdated":1547527612670,"name":"Grand Dining Room","phone":"(912) 635-5155","price":"$$","reviewCount":64,"reviewScore":3.5,"meta":{"revision":0,"created":1547531150024,"version":0},"$loki":124},{"_id":"5c3d65bd3525a329e0c0c415","address":"2207 Demere Rd","location":{"type":"Point","coordinates":[-81.5684239,31.134176]},"isApproved":true,"items":[],"keys":["Fast Food","Burgers"],"lastUpdated":1547527612523,"name":"Burger King","phone":"(912) 638-2207","price":"$","reviewCount":7,"reviewScore":4,"meta":{"revision":0,"created":1547531150024,"version":0},"$loki":125},{"_id":"5c3d65bd3525a329e0c0727c","address":"4938 New Jesup Hwy","location":{"type":"Point","coordinates":[-81.5681794984357,31.1337761384934]},"isApproved":true,"items":[],"keys":["Fast Food"],"lastUpdated":1547527612399,"name":"Wendy’s","phone":"(912) 262-6830","price":"","reviewCount":6,"reviewScore":1.5,"meta":{"revision":0,"created":1547531150024,"version":0},"$loki":126},{"_id":"5c3d65bd3525a329e0c002d1","address":"3378 Cypress Mill Rd","location":{"type":"Point","coordinates":[-81.5846228599548,31.1397704592442]},"isApproved":true,"items":[],"keys":["Noodles"],"lastUpdated":1547527612225,"name":"The Eastern Noodle","phone":"(912) 267-6889","price":"$","reviewCount":29,"reviewScore":3.5,"meta":{"revision":0,"created":1547531150024,"version":0},"$loki":127},{"_id":"5c3d65bd3525a329e0c0be2d","address":"Hwy 341","location":{"type":"Point","coordinates":[-81.587256,31.141695]},"isApproved":true,"items":[],"keys":["Burgers","Fast Food"],"lastUpdated":1547527612515,"name":"Wendys","phone":"(912) 262-6830","price":"","reviewCount":1,"reviewScore":1,"meta":{"revision":0,"created":1547531150024,"version":0},"$loki":128},{"_id":"5c3d65bd3525a329e0c00c38","address":"115 Mallery St","location":{"type":"Point","coordinates":[-81.5871246,31.1408017]},"isApproved":true,"items":[],"keys":["Seafood","Sandwiches","Mexican"],"lastUpdated":1547527612231,"name":"Blue Water Cafe","phone":"(912) 268-2663","price":"$$","reviewCount":26,"reviewScore":2.5,"meta":{"revision":0,"created":1547531150024,"version":0},"$loki":129},{"_id":"5c3d65bd3525a329e0c1613c","address":"428 Mall Blvd","location":{"type":"Point","coordinates":[-81.5875101,31.1389651]},"isApproved":true,"items":[],"keys":["Pizza","Salad","Chicken Wings"],"lastUpdated":1547527612762,"name":"Zoner’s Pizza, Wings and Waffles","phone":"(912) 574-5931","price":"","reviewCount":10,"reviewScore":2.5,"meta":{"revision":0,"created":1547531150024,"version":0},"$loki":130},{"_id":"5c3d65bd3525a329e0c03c49","address":"185 Dungeness Dr","location":{"type":"Point","coordinates":[-81.5214768,31.2190027]},"isApproved":true,"items":[],"keys":["Sandwiches","Fast Food"],"lastUpdated":1547527612312,"name":"Subway","phone":"(912) 279-3386","price":"$","reviewCount":4,"reviewScore":3,"meta":{"revision":0,"created":1547531150024,"version":0},"$loki":131},{"_id":"5c3d65bd3525a329e0c0f663","address":"103 Altama Connector","location":{"type":"Point","coordinates":[-81.5192475,31.2165469]},"isApproved":true,"items":[],"keys":["Pizza"],"lastUpdated":1547527612598,"name":"Little Caesars Pizza","phone":"(912) 262-0171","price":"$","reviewCount":4,"reviewScore":2.5,"meta":{"revision":0,"created":1547531150024,"version":0},"$loki":132},{"_id":"5c3d65bd3525a329e0c1533d","address":"126 Altama Connector","location":{"type":"Point","coordinates":[-81.518416,31.216207]},"isApproved":true,"items":[],"keys":["Fast Food","Chicken Wings","Salad"],"lastUpdated":1547527612738,"name":"Zaxby’s Chicken Fingers & Buffalo Wings","phone":"(912) 554-0580","price":"$","reviewCount":19,"reviewScore":2.5,"meta":{"revision":0,"created":1547531150024,"version":0},"$loki":133},{"_id":"5c3d65bd3525a329e0c042b8","address":"222 Hyde Park Cmns","location":{"type":"Point","coordinates":[-81.5177999809384,31.2169998766859]},"isApproved":true,"items":[],"keys":["Pizza","Chicken Wings","Sandwiches"],"lastUpdated":1547527612321,"name":"Domino’s Pizza","phone":"(912) 264-5055","price":"$","reviewCount":9,"reviewScore":1.5,"meta":{"revision":0,"created":1547531150024,"version":0},"$loki":134},{"_id":"5c3d65bd3525a329e0c1a334","address":"4950 New Jesup Hwy","location":{"type":"Point","coordinates":[-81.5176272422738,31.2167334766773]},"isApproved":true,"items":[],"keys":["Pizza","Italian","Chicken Wings"],"lastUpdated":1547527612858,"name":"Pizza Hut","phone":"(912) 267-6688","price":"$","reviewCount":7,"reviewScore":2.5,"meta":{"revision":0,"created":1547531150024,"version":0},"$loki":135},{"_id":"5c3d65bd3525a329e0c12de5","address":"150 Altama Connector","location":{"type":"Point","coordinates":[-81.518493,31.218132]},"isApproved":true,"items":[],"keys":["Sandwiches","Fast Food"],"lastUpdated":1547527612681,"name":"Subway","phone":"(912) 261-0401","price":"","reviewCount":1,"reviewScore":3,"meta":{"revision":0,"created":1547531150024,"version":0},"$loki":136},{"_id":"5c3d65bd3525a329e0c1a174","address":"4930 New Jesup Hwy","location":{"type":"Point","coordinates":[-81.517972,31.21734]},"isApproved":true,"items":[],"keys":["Mexican","Tex-Mex","Fast Food"],"lastUpdated":1547527612857,"name":"Taco Bell","phone":"(912) 267-7188","price":"$","reviewCount":11,"reviewScore":2.5,"meta":{"revision":0,"created":1547531150024,"version":0},"$loki":137},{"_id":"5c3d65bd3525a329e0c18d8b","address":"163 Altama Connector","location":{"type":"Point","coordinates":[-81.5181972,31.2173432]},"isApproved":true,"items":[],"keys":["Fast Food","Sandwiches"],"lastUpdated":1547527612831,"name":"Arby’s","phone":"(912) 267-7798","price":"$$","reviewCount":8,"reviewScore":2.5,"meta":{"revision":0,"created":1547531150024,"version":0},"$loki":138},{"_id":"5c3d65bd3525a329e0c14b73","address":"206 Marina Dr St","location":{"type":"Point","coordinates":[-81.5190118452786,31.2177602001174]},"isApproved":true,"items":[],"keys":["Festivals","Food Stands","Synagogues"],"lastUpdated":1547527612729,"name":"Temple Beth Tefilloh Jewish Food and Culture Festival","phone":"(912) 265-7575","price":"","reviewCount":1,"reviewScore":5,"meta":{"revision":0,"created":1547531150024,"version":0},"$loki":139},{"_id":"5c3d65bd3525a329e0c03f7c","address":"500 Glynn Isle","location":{"type":"Point","coordinates":[-81.5191576151497,31.2180861359919]},"isApproved":true,"items":[],"keys":["Burgers","Ice Cream & Frozen Yogurt","American (Traditional)"],"lastUpdated":1547527612319,"name":"Hwy 55 Burgers Shakes & Fries","phone":"(912) 289-9673","price":"$$","reviewCount":20,"reviewScore":2.5,"meta":{"revision":0,"created":1547531150024,"version":0},"$loki":140},{"_id":"5c3d65bd3525a329e0c06d60","address":"3527 Community Rd","location":{"type":"Point","coordinates":[-81.5198906,31.2173003]},"isApproved":true,"items":[],"keys":["Fast Food","Sandwiches"],"lastUpdated":1547527612387,"name":"Subway","phone":"(912) 265-1456","price":"$","reviewCount":3,"reviewScore":3.5,"meta":{"revision":0,"created":1547531150024,"version":0},"$loki":141},{"_id":"5c3d65bd3525a329e0c18751","address":"1200 Glynn Ave","location":{"type":"Point","coordinates":[-81.5204265,31.2177569]},"isApproved":true,"items":[],"keys":["Seafood","Southern","Steakhouses"],"lastUpdated":1547527612821,"name":"Marshside Grill","phone":"(912) 342-7981","price":"$$","reviewCount":135,"reviewScore":3.5,"meta":{"revision":0,"created":1547531150024,"version":0},"$loki":142}],"idIndex":[1,2,3,4,5,6,7,8,9,10,11,12,13,14,15,16,17,18,19,20,21,22,23,24,25,26,27,28,29,30,31,32,33,34,35,36,37,38,39,40,41,42,43,44,45,46,47,48,49,50,51,52,53,54,55,56,57,58,59,60,61,62,63,64,65,66,67,68,69,70,71,72,73,74,75,76,77,78,79,80,81,82,83,84,85,86,87,88,89,90,91,92,93,94,95,96,97,98,99,100,101,102,103,104,105,106,107,108,109,110,111,112,113,114,115,116,117,118,119,120,121,122,123,124,125,126,127,128,129,130,131,132,133,134,135,136,137,138,139,140,141,142],"binaryIndices":{},"constraints":null,"uniqueNames":[],"transforms":{},"objType":"restaurants","dirty":true,"cachedIndex":null,"cachedBinaryIndex":null,"cachedData":null,"adaptiveBinaryIndices":true,"transactional":false,"cloneObjects":false,"cloneMethod":"parse-stringify","asyncListeners":false,"disableMeta":false,"disableChangesApi":true,"disableDeltaChangesApi":true,"autoupdate":false,"serializableIndices":true,"ttl":null,"maxId":142,"DynamicViews":[],"events":{"insert":[],"update":[],"pre-insert":[],"pre-update":[],"close":[],"flushbuffer":[],"error":[],"delete":[null],"warning":[null]},"changes":[]}],"databaseVersion":1.5,"engineVersion":1.5,"autosave":false,"autosaveInterval":5000,"autosaveHandle":null,"throttledSaves":true,"options":{"serializationMethod":"normal","destructureDelimiter":"$<\n"},"persistenceMethod":"fs","persistenceAdapter":null,"verbose":false,"events":{"init":[null],"loaded":[],"flushChanges":[],"close":[],"changes":[],"warning":[]},"ENV":"NODEJS"}