{"filename":"-82-36","collections":[{"name":"restaurants","data":[{"_id":"5c3d65bd3525a329e0c18e86","address":"201 Highway 321","location":{"type":"Point","coordinates":[-82.1704072,36.286657]},"isApproved":true,"items":[],"keys":["Burgers","Sandwiches","Breakfast & Brunch"],"lastUpdated":1547527612831,"name":"Laurel Fork Restaurant","phone":"(423) 725-2091","price":"$","reviewCount":5,"reviewScore":4,"meta":{"revision":0,"created":1547531150072,"version":0},"$loki":1},{"_id":"5c3d65bd3525a329e0c1aac1","address":"1733 Highway 19 E","location":{"type":"Point","coordinates":[-82.1770897,36.2789472]},"isApproved":true,"items":[],"keys":["Seafood"],"lastUpdated":1547527612868,"name":"Mayflower Seafood Restaurant","phone":"(423) 542-3667","price":"","reviewCount":3,"reviewScore":2.5,"meta":{"revision":0,"created":1547531150072,"version":0},"$loki":2},{"_id":"5c3d65bd3525a329e0c126b7","address":"207 Broad St","location":{"type":"Point","coordinates":[-82.1739877018524,36.2882199368255]},"isApproved":true,"items":[],"keys":["Fast Food","Chicken Wings","Chicken Shop"],"lastUpdated":1547527612671,"name":"KFC","phone":"(423) 543-2271","price":"","reviewCount":3,"reviewScore":2.5,"meta":{"revision":0,"created":1547531150072,"version":0},"$loki":3},{"_id":"5c3d65bd3525a329e0c19ce9","address":"1200 Blowing Rock Rd","location":{"type":"Point","coordinates":[-82.171427,36.2869152]},"isApproved":true,"items":[],"keys":["Chinese"],"lastUpdated":1547527612850,"name":"New China Buffet","phone":"(828) 262-0088","price":"$","reviewCount":16,"reviewScore":3,"meta":{"revision":0,"created":1547531150072,"version":0},"$loki":4},{"_id":"5c3d65bd3525a329e0c10e74","address":"435 E Elk Ave","location":{"type":"Point","coordinates":[-82.1826373,36.2653737]},"isApproved":true,"items":[],"keys":["Korean","Asian Fusion"],"lastUpdated":1547527612634,"name":"Red Chili","phone":"(423) 213-2104","price":"$$","reviewCount":34,"reviewScore":4,"meta":{"revision":0,"created":1547531150072,"version":0},"$loki":5},{"_id":"5c3d65bd3525a329e0c070d4","address":"170 Stadium Dr","location":{"type":"Point","coordinates":[-82.1852831,36.2278843]},"isApproved":true,"items":[],"keys":["Salad","Delis","Sandwiches"],"lastUpdated":1547527612389,"name":"McAlister’s Deli","phone":"(828) 262-7980","price":"$$","reviewCount":3,"reviewScore":3.5,"meta":{"revision":0,"created":1547531150072,"version":0},"$loki":6},{"_id":"5c3d65bd3525a329e0c04b13","address":"2124 Blowing Rock Rd","location":{"type":"Point","coordinates":[-82.1222,36.21087]},"isApproved":true,"items":[],"keys":["Japanese","Sushi Bars","Steakhouses"],"lastUpdated":1547527612331,"name":"Makoto’s Japanese Steak House & Sushi Bar","phone":"(828) 264-7976","price":"$$","reviewCount":69,"reviewScore":3.5,"meta":{"revision":0,"created":1547531150072,"version":0},"$loki":7},{"_id":"5c3d65bd3525a329e0c09ab1","address":"246 Wilson Dr","location":{"type":"Point","coordinates":[-82.06479,36.196362]},"isApproved":true,"items":[],"keys":["Cafes","Sandwiches"],"lastUpdated":1547527612464,"name":"Basil’s","phone":"(828) 386-4066","price":"$$","reviewCount":37,"reviewScore":4,"meta":{"revision":0,"created":1547531150072,"version":0},"$loki":8},{"_id":"5c3d65bd3525a329e0c0f8ca","address":"1179 Blowing Rock Rd","location":{"type":"Point","coordinates":[-82.0641992691098,36.1962133297693]},"isApproved":true,"items":[],"keys":["Burgers","Fast Food","Hot Dogs"],"lastUpdated":1547527612600,"name":"Cook Out","phone":"","price":"$","reviewCount":32,"reviewScore":3,"meta":{"revision":0,"created":1547531150072,"version":0},"$loki":9},{"_id":"5c3d65bd3525a329e0c0d70f","address":"8210 US Highway 321 N","location":{"type":"Point","coordinates":[-82.0656219,36.1973662]},"isApproved":true,"items":[],"keys":["Grocery","Delis"],"lastUpdated":1547527612554,"name":"Riverview Grocery I Deli","phone":"(828) 297-5040","price":"$","reviewCount":1,"reviewScore":5,"meta":{"revision":0,"created":1547531150072,"version":0},"$loki":10},{"_id":"5c3d65bd3525a329e0c089d0","address":"102 S Lynn Ave","location":{"type":"Point","coordinates":[-82.0719305,36.1992302]},"isApproved":true,"items":[],"keys":["Barbeque"],"lastUpdated":1547527612429,"name":"J’s Corner","phone":"(423) 547-3300","price":"$","reviewCount":9,"reviewScore":4.5,"meta":{"revision":0,"created":1547531150072,"version":0},"$loki":11},{"_id":"5c3d65bd3525a329e0c0af09","address":"831 W King St","location":{"type":"Point","coordinates":[-82.0610332816351,36.1928189733958]},"isApproved":true,"items":[],"keys":["Wine Bars","American (New)"],"lastUpdated":1547527612491,"name":"Vidalia Restaurant and Wine Bar","phone":"(828) 263-9176","price":"$$","reviewCount":99,"reviewScore":4,"meta":{"revision":0,"created":1547531150072,"version":0},"$loki":12},{"_id":"5c3d65bd3525a329e0c01680","address":"970 Rivers St","location":{"type":"Point","coordinates":[-82.045353,36.190677]},"isApproved":true,"items":[],"keys":["Bars","American (Traditional)"],"lastUpdated":1547527612250,"name":"Cafe Portofino","phone":"(828) 264-7772","price":"$$","reviewCount":54,"reviewScore":3.5,"meta":{"revision":0,"created":1547531150072,"version":0},"$loki":13},{"_id":"5c3d65bd3525a329e0c0107c","address":"112 Sunset Dr","location":{"type":"Point","coordinates":[-82.0535255,36.3172302]},"isApproved":true,"items":[],"keys":["Japanese","Steakhouses"],"lastUpdated":1547527612239,"name":"Hana Steak House","phone":"(423) 928-0688","price":"$$","reviewCount":25,"reviewScore":3.5,"meta":{"revision":0,"created":1547531150072,"version":0},"$loki":14},{"_id":"5c3d65bd3525a329e0c17dd1","address":"2935 N Nc Hwy 16","location":{"type":"Point","coordinates":[-82.0535255,36.3172302]},"isApproved":true,"items":[],"keys":["Chinese"],"lastUpdated":1547527612801,"name":"Great China","phone":"(336) 838-8228","price":"$","reviewCount":8,"reviewScore":3.5,"meta":{"revision":0,"created":1547531150072,"version":0},"$loki":15},{"_id":"5c3d65bd3525a329e0c0237c","address":"1286 Hwy 105","location":{"type":"Point","coordinates":[-82.053521,36.3172302]},"isApproved":true,"items":[],"keys":["Diners","Breakfast & Brunch","Burgers"],"lastUpdated":1547527612277,"name":"Troy’s 105 Diner","phone":"(828) 265-1344","price":"$","reviewCount":106,"reviewScore":4,"meta":{"revision":0,"created":1547531150072,"version":0},"$loki":16},{"_id":"5c3d65bd3525a329e0c0aa4f","address":"203 E Main St","location":{"type":"Point","coordinates":[-82.053521,36.3172302]},"isApproved":true,"items":[],"keys":["German"],"lastUpdated":1547527612488,"name":"Freiberg’s German Resturant","phone":"(423) 928-4106","price":"$$","reviewCount":121,"reviewScore":4,"meta":{"revision":0,"created":1547531150072,"version":0},"$loki":17},{"_id":"5c3d65bd3525a329e0c18864","address":"501 Beech Mountain Pkwy","location":{"type":"Point","coordinates":[-81.8779951,36.1946784]},"isApproved":true,"items":[],"keys":["Delis"],"lastUpdated":1547527612822,"name":"Fred’s Backside Deli","phone":"(828) 387-9331","price":"$","reviewCount":20,"reviewScore":3,"meta":{"revision":0,"created":1547531150072,"version":0},"$loki":18},{"_id":"5c3d65bd3525a329e0c1a3e6","address":"539 W King St","location":{"type":"Point","coordinates":[-81.877315,36.1966139]},"isApproved":true,"items":[],"keys":["American (Traditional)"],"lastUpdated":1547527612859,"name":"Macado’s","phone":"(828) 264-1375","price":"$","reviewCount":119,"reviewScore":2.5,"meta":{"revision":0,"created":1547531150072,"version":0},"$loki":19},{"_id":"5c3d65bd3525a329e0c02bc8","address":"11888 Hwy 421 S","location":{"type":"Point","coordinates":[-81.8776743113994,36.19693428191]},"isApproved":true,"items":[],"keys":["American (Traditional)","Breakfast & Brunch"],"lastUpdated":1547527612287,"name":"Sharpie’s Restaurant","phone":"(423) 460-1404","price":"$","reviewCount":6,"reviewScore":4.5,"meta":{"revision":0,"created":1547531150072,"version":0},"$loki":20},{"_id":"5c3d65bd3525a329e0c17b7a","address":"173 Howard St","location":{"type":"Point","coordinates":[-81.8733339,36.1876947]},"isApproved":true,"items":[],"keys":["Thai"],"lastUpdated":1547527612799,"name":"Cha Da Thai","phone":"(828) 268-0434","price":"$$","reviewCount":77,"reviewScore":3.5,"meta":{"revision":0,"created":1547531150072,"version":0},"$loki":21},{"_id":"5c3d65bd3525a329e0c19726","address":"174 Jefferson Rd","location":{"type":"Point","coordinates":[-81.8730992,36.1905647]},"isApproved":true,"items":[],"keys":["Seafood"],"lastUpdated":1547527612841,"name":"Mike’s Inland Seafood","phone":"(828) 262-5605","price":"$$","reviewCount":22,"reviewScore":4,"meta":{"revision":0,"created":1547531150072,"version":0},"$loki":22},{"_id":"5c3d65bd3525a329e0c1290f","address":"130 Hardin St","location":{"type":"Point","coordinates":[-81.8733152,36.1914568]},"isApproved":true,"items":[],"keys":["American (Traditional)"],"lastUpdated":1547527612679,"name":"Dan’l Boone Inn","phone":"(828) 264-8657","price":"$$","reviewCount":149,"reviewScore":3.5,"meta":{"revision":0,"created":1547531150072,"version":0},"$loki":23},{"_id":"5c3d65bd3525a329e0c0eed9","address":"608 Beech Mountain Pkwy","location":{"type":"Point","coordinates":[-81.8736898899078,36.1847941660809]},"isApproved":true,"items":[],"keys":["Mexican"],"lastUpdated":1547527612583,"name":"Valle de Bravo Mexican Grill","phone":"(828) 387-4344","price":"$$","reviewCount":29,"reviewScore":4,"meta":{"revision":0,"created":1547531150072,"version":0},"$loki":24},{"_id":"5c3d65bd3525a329e0c1948a","address":"1711 Hwy 105","location":{"type":"Point","coordinates":[-81.873823,36.186903]},"isApproved":true,"items":[],"keys":["Burgers","American (Traditional)","Cocktail Bars"],"lastUpdated":1547527612840,"name":"The Cardinal","phone":"(828) 355-9600","price":"$$","reviewCount":108,"reviewScore":4.5,"meta":{"revision":0,"created":1547531150072,"version":0},"$loki":25},{"_id":"5c3d65bd3525a329e0c19b0b","address":"2545 Broadstone Rd","location":{"type":"Point","coordinates":[-81.8745445,36.1859179]},"isApproved":true,"items":[],"keys":["Southern","American (Traditional)","American (New)"],"lastUpdated":1547527612849,"name":"Simplicity","phone":"(828) 963-5857","price":"","reviewCount":2,"reviewScore":3.5,"meta":{"revision":0,"created":1547531150072,"version":0},"$loki":26},{"_id":"5c3d65bd3525a329e0c00e01","address":"455 Blowing Rock Rd","location":{"type":"Point","coordinates":[-81.6603961,36.1185902]},"isApproved":true,"items":[],"keys":["Chicken Wings","Sandwiches"],"lastUpdated":1547527612237,"name":"Coop’s","phone":"(828) 832-8032","price":"","reviewCount":3,"reviewScore":1.5,"meta":{"revision":0,"created":1547531150072,"version":0},"$loki":27},{"_id":"5c3d65bd3525a329e0c0f852","address":"444 E Elk Ave","location":{"type":"Point","coordinates":[-81.6603961,36.1185902]},"isApproved":true,"items":[],"keys":["Coffee & Tea","Bakeries","Sandwiches"],"lastUpdated":1547527612600,"name":"The Coffee Company","phone":"(423) 542-3438","price":"$","reviewCount":31,"reviewScore":4,"meta":{"revision":0,"created":1547531150072,"version":0},"$loki":28},{"_id":"5c3d65bd3525a329e0c10a91","address":"753 W Elk Ave","location":{"type":"Point","coordinates":[-81.6603961,36.1185902]},"isApproved":true,"items":[],"keys":["Fast Food"],"lastUpdated":1547527612631,"name":"Chick-fil-A","phone":"(423) 297-1266","price":"$","reviewCount":2,"reviewScore":5,"meta":{"revision":0,"created":1547531150072,"version":0},"$loki":29},{"_id":"5c3d65bd3525a329e0c12fd0","address":"454 W King St","location":{"type":"Point","coordinates":[-81.6603961,36.1185902]},"isApproved":true,"items":[],"keys":["Thai","Vietnamese","Sushi Bars"],"lastUpdated":1547527612688,"name":"Sabeing Boone King","phone":"(828) 832-8189","price":"$","reviewCount":37,"reviewScore":4,"meta":{"revision":0,"created":1547531150072,"version":0},"$loki":30},{"_id":"5c3d65bd3525a329e0c186d6","address":"115 New Market Ctr","location":{"type":"Point","coordinates":[-81.6603961,36.1185902]},"isApproved":true,"items":[],"keys":["French","American (New)","Italian"],"lastUpdated":1547527612815,"name":"Joy Bistro","phone":"(828) 265-0500","price":"$$$","reviewCount":66,"reviewScore":4.5,"meta":{"revision":0,"created":1547531150072,"version":0},"$loki":31},{"_id":"5c3d65bd3525a329e0c0caa0","address":"203 Boone Heights Dr","location":{"type":"Point","coordinates":[-81.7034328753295,36.2073890856518]},"isApproved":true,"items":[],"keys":["Indian"],"lastUpdated":1547527612533,"name":"Mint Indian Cuisine","phone":"(828) 386-1441","price":"$$","reviewCount":137,"reviewScore":4.5,"meta":{"revision":0,"created":1547531150072,"version":0},"$loki":32},{"_id":"5c3d65bd3525a329e0c1149a","address":"606 Beech Mountain Pkwy","location":{"type":"Point","coordinates":[-81.7057259,36.207595]},"isApproved":true,"items":[],"keys":["Pizza","Italian","Sports Bars"],"lastUpdated":1547527612643,"name":"Bullwinkels","phone":"(828) 387-2354","price":"$","reviewCount":23,"reviewScore":4,"meta":{"revision":0,"created":1547531150072,"version":0},"$loki":33},{"_id":"5c3d65bd3525a329e0c100fe","address":"2968-A Hwy 105","location":{"type":"Point","coordinates":[-81.6985552,36.2061872]},"isApproved":true,"items":[],"keys":["Barbeque"],"lastUpdated":1547527612610,"name":"The Pedalin’ Pig-Boone","phone":"(828) 355-9559","price":"$$","reviewCount":83,"reviewScore":4,"meta":{"revision":0,"created":1547531150072,"version":0},"$loki":34},{"_id":"5c3d65bd3525a329e0c1554c","address":"4021 Unicoi Dr","location":{"type":"Point","coordinates":[-81.6964595,36.2051571]},"isApproved":true,"items":[],"keys":["Diners"],"lastUpdated":1547527612745,"name":"Clarence’s Drive-In","phone":"(423) 845-4181","price":"$","reviewCount":27,"reviewScore":4,"meta":{"revision":0,"created":1547531150072,"version":0},"$loki":35},{"_id":"5c3d65bd3525a329e0c07a1a","address":"8315 Highway 19 E","location":{"type":"Point","coordinates":[-81.7143564,36.222077]},"isApproved":true,"items":[],"keys":["Barbeque"],"lastUpdated":1547527612409,"name":"Highlander Bbq","phone":"(423) 772-0016","price":"$","reviewCount":14,"reviewScore":4,"meta":{"revision":0,"created":1547531150072,"version":0},"$loki":36},{"_id":"5c3d65bd3525a329e0c04a7c","address":"276 Watauga Village Dr","location":{"type":"Point","coordinates":[-81.7226600646973,36.2046677333957]},"isApproved":true,"items":[],"keys":["Bars","American (New)"],"lastUpdated":1547527612331,"name":"The Rock Bar & Grill","phone":"(828) 386-1723","price":"","reviewCount":6,"reviewScore":3.5,"meta":{"revision":0,"created":1547531150072,"version":0},"$loki":37},{"_id":"5c3d65bd3525a329e0c075e4","address":"187 New Market Ctr","location":{"type":"Point","coordinates":[-81.7770359,36.209345]},"isApproved":true,"items":[],"keys":["Mexican"],"lastUpdated":1547527612401,"name":"Dos Amigos","phone":"(828) 265-1674","price":"$","reviewCount":52,"reviewScore":3,"meta":{"revision":0,"created":1547531150072,"version":0},"$loki":38},{"_id":"5c3d65bd3525a329e0c1911e","address":"11504 Hwy 421 S","location":{"type":"Point","coordinates":[-81.7716242,36.2070614]},"isApproved":true,"items":[],"keys":["American (Traditional)"],"lastUpdated":1547527612832,"name":"Katie’s Country Kitchen","phone":"(423) 727-8778","price":"","reviewCount":1,"reviewScore":5,"meta":{"revision":0,"created":1547531150072,"version":0},"$loki":39},{"_id":"5c3d65bd3525a329e0c162c8","address":"2340 Hwy 321","location":{"type":"Point","coordinates":[-81.7456494,36.1941019]},"isApproved":true,"items":[],"keys":["Seafood"],"lastUpdated":1547527612763,"name":"Captain’s Table","phone":"(423) 725-2201","price":"$$","reviewCount":23,"reviewScore":3.5,"meta":{"revision":0,"created":1547531150072,"version":0},"$loki":40},{"_id":"5c3d65bd3525a329e0c12731","address":"9239 Valley Bld","location":{"type":"Point","coordinates":[-81.7809334,36.2096047]},"isApproved":true,"items":[],"keys":["American (New)"],"lastUpdated":1547527612672,"name":"Chestnut Grille","phone":"(828) 414-9230","price":"$$","reviewCount":9,"reviewScore":3.5,"meta":{"revision":0,"created":1547531150072,"version":0},"$loki":41},{"_id":"5c3d65bd3525a329e0bff8aa","address":"208 Faculty St","location":{"type":"Point","coordinates":[-81.7676372331352,36.2457640629454]},"isApproved":true,"items":[],"keys":["Sports Bars","Burgers","American (Traditional)"],"lastUpdated":1547527612219,"name":"Elevation 3333","phone":"(828) 386-6000","price":"$$","reviewCount":18,"reviewScore":4,"meta":{"revision":0,"created":1547531150072,"version":0},"$loki":42},{"_id":"5c3d65bd3525a329e0c0057c","address":"2608 State Line Rd","location":{"type":"Point","coordinates":[-82.2458021342754,36.1902404852212]},"isApproved":true,"items":[],"keys":["American (Traditional)"],"lastUpdated":1547527612227,"name":"Wayne & Nancy’s Family Restaurant","phone":"(423) 543-2454","price":"","reviewCount":5,"reviewScore":5,"meta":{"revision":0,"created":1547531150072,"version":0},"$loki":43}],"idIndex":[1,2,3,4,5,6,7,8,9,10,11,12,13,14,15,16,17,18,19,20,21,22,23,24,25,26,27,28,29,30,31,32,33,34,35,36,37,38,39,40,41,42,43],"binaryIndices":{},"constraints":null,"uniqueNames":[],"transforms":{},"objType":"restaurants","dirty":true,"cachedIndex":null,"cachedBinaryIndex":null,"cachedData":null,"adaptiveBinaryIndices":true,"transactional":false,"cloneObjects":false,"cloneMethod":"parse-stringify","asyncListeners":false,"disableMeta":false,"disableChangesApi":true,"disableDeltaChangesApi":true,"autoupdate":false,"serializableIndices":true,"ttl":null,"maxId":43,"DynamicViews":[],"events":{"insert":[],"update":[],"pre-insert":[],"pre-update":[],"close":[],"flushbuffer":[],"error":[],"delete":[null],"warning":[null]},"changes":[]}],"databaseVersion":1.5,"engineVersion":1.5,"autosave":false,"autosaveInterval":5000,"autosaveHandle":null,"throttledSaves":true,"options":{"serializationMethod":"normal","destructureDelimiter":"$<\n"},"persistenceMethod":"fs","persistenceAdapter":null,"verbose":false,"events":{"init":[null],"loaded":[],"flushChanges":[],"close":[],"changes":[],"warning":[]},"ENV":"NODEJS"}