{"filename":"-82.25-29.5","collections":[{"name":"restaurants","data":[{"_id":"5c3d65bd3525a329e0c014bd","address":"2224 E University Ave","location":{"type":"Point","coordinates":[-82.1759786,29.7925874]},"isApproved":true,"items":[],"keys":["Seafood","Chicken Shop"],"lastUpdated":1547527612249,"name":"Gville Seafood and Chicken","phone":"(352) 204-2323","price":"","reviewCount":3,"reviewScore":4.5,"meta":{"revision":0,"created":1547531154838,"version":0},"$loki":1},{"_id":"5c3d65bd3525a329e0c01fd7","address":"2130 S.W. 34th St","location":{"type":"Point","coordinates":[-82.1667529,29.7909674]},"isApproved":true,"items":[],"keys":["Breakfast & Brunch","American (Traditional)","Diners"],"lastUpdated":1547527612274,"name":"Metro Diner","phone":"(352) 353-2889","price":"$$","reviewCount":536,"reviewScore":4.5,"meta":{"revision":0,"created":1547531154838,"version":0},"$loki":2},{"_id":"5c3d65bd3525a329e0c0c668","address":"14805 NE Waldo Rd","location":{"type":"Point","coordinates":[-82.1667529,29.7909674]},"isApproved":true,"items":[],"keys":["Barbeque"],"lastUpdated":1547527612525,"name":"Gator Q’s","phone":"","price":"$","reviewCount":3,"reviewScore":3,"meta":{"revision":0,"created":1547531154838,"version":0},"$loki":3},{"_id":"5c3d65bd3525a329e0c14895","address":"14805 NE Waldo Rd","location":{"type":"Point","coordinates":[-82.1667529,29.7909674]},"isApproved":true,"items":[],"keys":["Barbeque"],"lastUpdated":1547527612727,"name":"Randy’s Rib Shack","phone":"(352) 468-1345","price":"$$","reviewCount":64,"reviewScore":4,"meta":{"revision":0,"created":1547531154838,"version":0},"$loki":4},{"_id":"5c3d65bd3525a329e0c0f9ac","address":"14985 NE US Hwy 301","location":{"type":"Point","coordinates":[-82.1674129,29.7932224]},"isApproved":true,"items":[],"keys":["Mexican"],"lastUpdated":1547527612600,"name":"El Molino","phone":"(352) 468-1300","price":"$","reviewCount":6,"reviewScore":3,"meta":{"revision":0,"created":1547531154838,"version":0},"$loki":5},{"_id":"5c3d65bd3525a329e0c08a75","address":"4860 NW 39th Ave","location":{"type":"Point","coordinates":[-82.1681128,29.7966551]},"isApproved":true,"items":[],"keys":["American (Traditional)","Bars","Comfort Food"],"lastUpdated":1547527612430,"name":"The Crafty Bastards Restaurant & Pub","phone":"(352) 872-5970","price":"$$","reviewCount":130,"reviewScore":3.5,"meta":{"revision":0,"created":1547531154838,"version":0},"$loki":6},{"_id":"5c3d65bd3525a329e0c08082","address":"319 Wynnwood Ave","location":{"type":"Point","coordinates":[-82.039187,29.69711]},"isApproved":true,"items":[],"keys":["Pizza"],"lastUpdated":1547527612419,"name":"Betty’s Pizza & Subs","phone":"(352) 475-5717","price":"$$","reviewCount":24,"reviewScore":3,"meta":{"revision":0,"created":1547531154838,"version":0},"$loki":7},{"_id":"5c3d65bd3525a329e0c1ae52","address":"304 State Rd 26","location":{"type":"Point","coordinates":[-82.047383,29.710096]},"isApproved":true,"items":[],"keys":["American (Traditional)","Burgers","Sandwiches"],"lastUpdated":1547527612876,"name":"Gator Bait Sports Grill","phone":"(352) 475-1360","price":"$$","reviewCount":24,"reviewScore":3.5,"meta":{"revision":0,"created":1547531154838,"version":0},"$loki":8},{"_id":"5c3d65bd3525a329e0c02615","address":"321 State Rd 26","location":{"type":"Point","coordinates":[-82.0450342,29.7094444]},"isApproved":true,"items":[],"keys":["Chicken Wings","Burgers"],"lastUpdated":1547527612284,"name":"Fryer’s Chicken","phone":"(352) 475-5970","price":"$","reviewCount":33,"reviewScore":4,"meta":{"revision":0,"created":1547531154838,"version":0},"$loki":9},{"_id":"5c3d65bd3525a329e0c14210","address":"319 State Rd 26","location":{"type":"Point","coordinates":[-82.045731,29.7093911]},"isApproved":true,"items":[],"keys":["Seafood","Cajun/Creole","Buffets"],"lastUpdated":1547527612713,"name":"Blue Water Bay Restaurant","phone":"(352) 475-1928","price":"$$","reviewCount":66,"reviewScore":3.5,"meta":{"revision":0,"created":1547531154838,"version":0},"$loki":10},{"_id":"5c3d65bd3525a329e0c0e5a2","address":"407 NW 13th St","location":{"type":"Point","coordinates":[-82.1142845,29.660149]},"isApproved":true,"items":[],"keys":["Mexican"],"lastUpdated":1547527612573,"name":"El Indio Real Mexican Food","phone":"(352) 377-5828","price":"$","reviewCount":150,"reviewScore":3.5,"meta":{"revision":0,"created":1547531154838,"version":0},"$loki":11},{"_id":"5c3d65bd3525a329e0c048c9","address":"50 Williamson Blvd","location":{"type":"Point","coordinates":[-82.194552,29.266313]},"isApproved":true,"items":[],"keys":["Tex-Mex","Fast Food","Mexican"],"lastUpdated":1547527612330,"name":"Taco Bell","phone":"(386) 672-7220","price":"$","reviewCount":9,"reviewScore":3.5,"meta":{"revision":0,"created":1547531154838,"version":0},"$loki":12},{"_id":"5c3d65bd3525a329e0bff950","address":"709 S Nova Rd","location":{"type":"Point","coordinates":[-82.1503527,29.2607543]},"isApproved":true,"items":[],"keys":["Bars","Seafood","Sandwiches"],"lastUpdated":1547527612219,"name":"Past Times Restaurant and Bar","phone":"(386) 944-9293","price":"$$","reviewCount":9,"reviewScore":3,"meta":{"revision":0,"created":1547531154838,"version":0},"$loki":13},{"_id":"5c3d65bd3525a329e0c019f6","address":"7119 N US Hwy 441","location":{"type":"Point","coordinates":[-82.1503123,29.260617]},"isApproved":true,"items":[],"keys":["Seafood"],"lastUpdated":1547527612257,"name":"Sam’s St Johns Seafood","phone":"(352) 622-2927","price":"$$","reviewCount":38,"reviewScore":3.5,"meta":{"revision":0,"created":1547531154838,"version":0},"$loki":14},{"_id":"5c3d65bd3525a329e0bff5fd","address":"1310 W Granada Blvd","location":{"type":"Point","coordinates":[-82.112993,29.259951]},"isApproved":true,"items":[],"keys":["Salad","Soup","Sandwiches"],"lastUpdated":1547527612217,"name":"Panera Bread","phone":"(386) 671-1773","price":"$$","reviewCount":24,"reviewScore":2,"meta":{"revision":0,"created":1547531154838,"version":0},"$loki":15},{"_id":"5c3d65bd3525a329e0c0b284","address":"Jacksonville Rd","location":{"type":"Point","coordinates":[-82.119778,29.237588]},"isApproved":true,"items":[],"keys":["Food Trucks","Barbeque"],"lastUpdated":1547527612498,"name":"Smokin Swamp BBQ","phone":"(352) 817-1200","price":"$","reviewCount":7,"reviewScore":4.5,"meta":{"revision":0,"created":1547531154838,"version":0},"$loki":16},{"_id":"5c3d65bd3525a329e0c15b98","address":"488 S Yonge St","location":{"type":"Point","coordinates":[-82.1121497,29.2887174]},"isApproved":true,"items":[],"keys":["Restaurants"],"lastUpdated":1547527612754,"name":"Howard’s Restaurant","phone":"(386) 673-1222","price":"$","reviewCount":13,"reviewScore":4,"meta":{"revision":0,"created":1547531154838,"version":0},"$loki":17},{"_id":"5c3d65bd3525a329e0c07624","address":"1834 Ridgewood Ave","location":{"type":"Point","coordinates":[-82.2515234,29.2365869]},"isApproved":true,"items":[],"keys":["Japanese","Sushi Bars","Asian Fusion"],"lastUpdated":1547527612401,"name":"Wasabi","phone":"(386) 281-5788","price":"$$","reviewCount":13,"reviewScore":4,"meta":{"revision":0,"created":1547531154838,"version":0},"$loki":18},{"_id":"5c3d65bd3525a329e0c0cc69","address":"7249 NW 4th Blvd","location":{"type":"Point","coordinates":[-82.294984459877,29.6522760030011]},"isApproved":true,"items":[],"keys":["Nicaraguan","Food Trucks"],"lastUpdated":1547527612533,"name":"The Charcoal Grill","phone":"(352) 225-8192","price":"","reviewCount":8,"reviewScore":5,"meta":{"revision":0,"created":1547531154838,"version":0},"$loki":19},{"_id":"5c3d65bd3525a329e0c154db","address":"1216 North Main St","location":{"type":"Point","coordinates":[-82.375964,29.649736]},"isApproved":true,"items":[],"keys":["Chinese","Asian Fusion"],"lastUpdated":1547527612745,"name":"China Garden","phone":"(352) 372-1855","price":"$","reviewCount":13,"reviewScore":4,"meta":{"revision":0,"created":1547531154838,"version":0},"$loki":20},{"_id":"5c3d65bd3525a329e0c0883e","address":"16181 NW US Hwy 441","location":{"type":"Point","coordinates":[-82.3797505,29.6524317]},"isApproved":true,"items":[],"keys":["Chinese"],"lastUpdated":1547527612428,"name":"China Express","phone":"(386) 418-2222","price":"","reviewCount":5,"reviewScore":4,"meta":{"revision":0,"created":1547531154838,"version":0},"$loki":21},{"_id":"5c3d65bd3525a329e0c172e0","address":"120 SW 1st Ave","location":{"type":"Point","coordinates":[-82.3817507815238,29.6539113191689]},"isApproved":true,"items":[],"keys":["Pubs","Karaoke","Burgers"],"lastUpdated":1547527612783,"name":"Loosey’s","phone":"(352) 672-6465","price":"$$","reviewCount":122,"reviewScore":4,"meta":{"revision":0,"created":1547531154838,"version":0},"$loki":22},{"_id":"5c3d65bd3525a329e0c0575c","address":"2502 Reid St","location":{"type":"Point","coordinates":[-82.381573,29.653803]},"isApproved":true,"items":[],"keys":["Italian"],"lastUpdated":1547527612349,"name":"Italian Latin Grill","phone":"(386) 328-9600","price":"","reviewCount":1,"reviewScore":5,"meta":{"revision":0,"created":1547531154838,"version":0},"$loki":23},{"_id":"5c3d65bd3525a329e0c0eeb4","address":"2015 NW 43rd St","location":{"type":"Point","coordinates":[-82.381277462726,29.6536869581202]},"isApproved":true,"items":[],"keys":["Sandwiches","Fast Food","Delis"],"lastUpdated":1547527612583,"name":"Jersey Mike’s Subs","phone":"(352) 672-6606","price":"$","reviewCount":32,"reviewScore":3.5,"meta":{"revision":0,"created":1547531154838,"version":0},"$loki":24},{"_id":"5c3d65bd3525a329e0c0a7d6","address":"101 N Hwy 17","location":{"type":"Point","coordinates":[-82.3810309327991,29.6528210193112]},"isApproved":true,"items":[],"keys":["Italian","Pizza","Latin American"],"lastUpdated":1547527612481,"name":"Italian Latin Grill","phone":"(386) 328-9600","price":"$$","reviewCount":27,"reviewScore":4.5,"meta":{"revision":0,"created":1547531154838,"version":0},"$loki":25},{"_id":"5c3d65bd3525a329e0c12f72","address":"2225 NW 13th St","location":{"type":"Point","coordinates":[-82.3817445,29.652999]},"isApproved":true,"items":[],"keys":["Mexican","Fast Food"],"lastUpdated":1547527612687,"name":"Chipotle Mexican Grill","phone":"(352) 378-7751","price":"$","reviewCount":18,"reviewScore":3,"meta":{"revision":0,"created":1547531154838,"version":0},"$loki":26},{"_id":"5c3d65bd3525a329e0c171f8","address":"14933 Main St","location":{"type":"Point","coordinates":[-82.3849141,29.6549095]},"isApproved":true,"items":[],"keys":["Pizza","Salad","Italian"],"lastUpdated":1547527612783,"name":"Main Street Pie","phone":"(386) 462-0661","price":"$","reviewCount":35,"reviewScore":4.5,"meta":{"revision":0,"created":1547531154838,"version":0},"$loki":27},{"_id":"5c3d65bd3525a329e0c02110","address":"15935 NW U.S. Highway 441","location":{"type":"Point","coordinates":[-82.3743644768876,29.6511296434801]},"isApproved":true,"items":[],"keys":["Barbeque","American (New)"],"lastUpdated":1547527612275,"name":"Sonny’s BBQ","phone":"(386) 462-3180","price":"$$","reviewCount":45,"reviewScore":3,"meta":{"revision":0,"created":1547531154838,"version":0},"$loki":28},{"_id":"5c3d65bd3525a329e0c10d11","address":"114 SW 34th St","location":{"type":"Point","coordinates":[-82.374588,29.6511283]},"isApproved":true,"items":[],"keys":["Cuban","Latin American","Spanish"],"lastUpdated":1547527612633,"name":"Mi Apá Latin Cafe","phone":"(352) 376-7020","price":"$","reviewCount":332,"reviewScore":3.5,"meta":{"revision":0,"created":1547531154838,"version":0},"$loki":29},{"_id":"5c3d65bd3525a329e0c016f7","address":"604 NW 13th St","location":{"type":"Point","coordinates":[-82.3729036,29.6508212]},"isApproved":true,"items":[],"keys":["Indian","Pakistani"],"lastUpdated":1547527612250,"name":"Kabab House","phone":"(352) 792-6764","price":"$$","reviewCount":119,"reviewScore":3.5,"meta":{"revision":0,"created":1547531154838,"version":0},"$loki":30},{"_id":"5c3d65bd3525a329e0c12156","address":"4860 NW 39th Ave","location":{"type":"Point","coordinates":[-82.372880757657,29.6516992667962]},"isApproved":true,"items":[],"keys":["Vietnamese","Sushi Bars","Asian Fusion"],"lastUpdated":1547527612663,"name":"Taste Sushi Bar & Asian Cuisine","phone":"(352) 372-8686","price":"$$","reviewCount":125,"reviewScore":3.5,"meta":{"revision":0,"created":1547531154838,"version":0},"$loki":31},{"_id":"5c3d65bd3525a329e0c08ed5","address":"3880 NE 39th Ave","location":{"type":"Point","coordinates":[-82.3728286,29.6521269]},"isApproved":true,"items":[],"keys":["American (Traditional)","Bars"],"lastUpdated":1547527612438,"name":"Tailwinds","phone":"(352) 275-5457","price":"$$","reviewCount":8,"reviewScore":3.5,"meta":{"revision":0,"created":1547531154838,"version":0},"$loki":32},{"_id":"5c3d65bd3525a329e0bff638","address":"2826 N.W. 13th Street","location":{"type":"Point","coordinates":[-82.3715272,29.6521233]},"isApproved":true,"items":[],"keys":["Burgers","Fast Food"],"lastUpdated":1547527612217,"name":"Checkers","phone":"(352) 376-4498","price":"$","reviewCount":6,"reviewScore":1.5,"meta":{"revision":0,"created":1547531154838,"version":0},"$loki":33},{"_id":"5c3d65bd3525a329e0c1adf5","address":"15530 State Rd 441","location":{"type":"Point","coordinates":[-82.3718974,29.651832]},"isApproved":true,"items":[],"keys":["Fast Food","Sandwiches"],"lastUpdated":1547527612875,"name":"Subway","phone":"(386) 462-2250","price":"","reviewCount":3,"reviewScore":4.5,"meta":{"revision":0,"created":1547531154838,"version":0},"$loki":34},{"_id":"5c3d65bd3525a329e0c054ad","address":"7410 W Newberry Rd","location":{"type":"Point","coordinates":[-82.371202,29.6517234]},"isApproved":true,"items":[],"keys":["Mexican","Tex-Mex","Fast Food"],"lastUpdated":1547527612347,"name":"Taco Bell","phone":"(352) 332-4009","price":"$","reviewCount":19,"reviewScore":4,"meta":{"revision":0,"created":1547531154838,"version":0},"$loki":35},{"_id":"5c3d65bd3525a329e0c06d64","address":"1916 Waldo Rd","location":{"type":"Point","coordinates":[-82.3710889,29.6517315]},"isApproved":true,"items":[],"keys":["Barbeque"],"lastUpdated":1547527612387,"name":"Terrell’s Bar-B Que","phone":"(352) 843-2015","price":"$","reviewCount":23,"reviewScore":4,"meta":{"revision":0,"created":1547531154838,"version":0},"$loki":36},{"_id":"5c3d65bd3525a329e0c01988","address":"8181 NW 39th Ave","location":{"type":"Point","coordinates":[-82.3451991,29.6522796]},"isApproved":true,"items":[],"keys":["Mexican"],"lastUpdated":1547527612257,"name":"Taco Del Mar","phone":"(352) 872-5129","price":"","reviewCount":3,"reviewScore":1.5,"meta":{"revision":0,"created":1547531154838,"version":0},"$loki":37},{"_id":"5c3d65bd3525a329e0c09921","address":"601 NW 6th St","location":{"type":"Point","coordinates":[-82.345415,29.6522666]},"isApproved":true,"items":[],"keys":["Barbeque"],"lastUpdated":1547527612463,"name":"George’s Florida Style Bar-B Cue","phone":"(352) 538-0144","price":"$$","reviewCount":4,"reviewScore":4.5,"meta":{"revision":0,"created":1547531154838,"version":0},"$loki":38},{"_id":"5c3d65bd3525a329e0c03c4d","address":"16135 NW US Hwy 441","location":{"type":"Point","coordinates":[-82.3454947028487,29.6522351356944]},"isApproved":true,"items":[],"keys":["Italian","Chicken Wings","Pizza"],"lastUpdated":1547527612312,"name":"Hungry Howie’s Pizza & Subs","phone":"(386) 518-5255","price":"","reviewCount":2,"reviewScore":3,"meta":{"revision":0,"created":1547531154838,"version":0},"$loki":39},{"_id":"5c3d65bd3525a329e0c16946","address":"507 NW 5th Ave","location":{"type":"Point","coordinates":[-82.3455474150811,29.6522323026421]},"isApproved":true,"items":[],"keys":["Caribbean"],"lastUpdated":1547527612772,"name":"Caribbean Queen","phone":"(352) 374-8111","price":"$","reviewCount":26,"reviewScore":3.5,"meta":{"revision":0,"created":1547531154838,"version":0},"$loki":40},{"_id":"5c3d65bd3525a329e0c18aaf","address":"1120 W University Ave","location":{"type":"Point","coordinates":[-82.345612727084,29.6523095087566]},"isApproved":true,"items":[],"keys":["Szechuan"],"lastUpdated":1547527612823,"name":"Yummy City","phone":"(352) 367-8999","price":"$$","reviewCount":31,"reviewScore":3.5,"meta":{"revision":0,"created":1547531154838,"version":0},"$loki":41},{"_id":"5c3d65bd3525a329e0c0df16","address":"5408 NW 8th Ave","location":{"type":"Point","coordinates":[-82.346544,29.652606]},"isApproved":true,"items":[],"keys":["Sandwiches","Salad","Breakfast & Brunch"],"lastUpdated":1547527612564,"name":"Root & Pecker","phone":"(352) 301-3309","price":"$$","reviewCount":164,"reviewScore":3.5,"meta":{"revision":0,"created":1547531154838,"version":0},"$loki":42},{"_id":"5c3d65bd3525a329e0c00586","address":"16 NW 18th St","location":{"type":"Point","coordinates":[-82.3464675,29.652584]},"isApproved":true,"items":[],"keys":["Greek","Sandwiches"],"lastUpdated":1547527612227,"name":"The Spot","phone":"(352) 505-5774","price":"$","reviewCount":101,"reviewScore":4.5,"meta":{"revision":0,"created":1547531154838,"version":0},"$loki":43},{"_id":"5c3d65bd3525a329e0c011f3","address":"2441 NW 43rd St","location":{"type":"Point","coordinates":[-82.3439145,29.6524507]},"isApproved":true,"items":[],"keys":["Asian Fusion","Vietnamese"],"lastUpdated":1547527612239,"name":"Chop Stix Bistro","phone":"(352) 505-3131","price":"$$","reviewCount":78,"reviewScore":3,"meta":{"revision":0,"created":1547531154838,"version":0},"$loki":44},{"_id":"5c3d65bd3525a329e0c1138d","address":"4131 NW 16th Blvd","location":{"type":"Point","coordinates":[-82.3439145,29.6524476]},"isApproved":true,"items":[],"keys":["Pizza","Italian","Sandwiches"],"lastUpdated":1547527612642,"name":"Leonardo’s Pizza of Millhopper","phone":"(352) 376-2001","price":"$$","reviewCount":102,"reviewScore":4,"meta":{"revision":0,"created":1547531154838,"version":0},"$loki":45},{"_id":"5c3d65bd3525a329e0bfff92","address":"5121 NW 39th Ave","location":{"type":"Point","coordinates":[-82.345129,29.6524179]},"isApproved":true,"items":[],"keys":["Barbeque"],"lastUpdated":1547527612223,"name":"David’s Real Pit BBQ","phone":"(352) 373-2002","price":"$","reviewCount":96,"reviewScore":3.5,"meta":{"revision":0,"created":1547531154838,"version":0},"$loki":46},{"_id":"5c3d65bd3525a329e0c01604","address":"1432 W University Ave","location":{"type":"Point","coordinates":[-82.345129,29.6524179]},"isApproved":true,"items":[],"keys":["Fast Food","Mexican"],"lastUpdated":1547527612250,"name":"Chipotle Mexican Grill","phone":"(352) 372-5330","price":"$","reviewCount":54,"reviewScore":3,"meta":{"revision":0,"created":1547531154838,"version":0},"$loki":47},{"_id":"5c3d65bd3525a329e0c03ae3","address":"9155 Cr 13 N","location":{"type":"Point","coordinates":[-82.345129,29.6524179]},"isApproved":true,"items":[],"keys":["Italian","Chicken Wings","Pizza"],"lastUpdated":1547527612312,"name":"Antonio’s Pizza & Grill","phone":"(904) 940-6060","price":"$","reviewCount":17,"reviewScore":3.5,"meta":{"revision":0,"created":1547531154838,"version":0},"$loki":48},{"_id":"5c3d65bd3525a329e0c0f271","address":"19975 NW 244th St","location":{"type":"Point","coordinates":[-82.345129,29.6524179]},"isApproved":true,"items":[],"keys":["Pizza"],"lastUpdated":1547527612591,"name":"Pepperoni’s Pizza","phone":"(386) 454-3858","price":"$$","reviewCount":16,"reviewScore":3.5,"meta":{"revision":0,"created":1547531154838,"version":0},"$loki":49},{"_id":"5c3d65bd3525a329e0c13608","address":"624 N State Rd","location":{"type":"Point","coordinates":[-82.345129,29.6524179]},"isApproved":true,"items":[],"keys":["Fast Food","Seafood"],"lastUpdated":1547527612696,"name":"Hook Fish & Chicken","phone":"(386) 325-2345","price":"","reviewCount":8,"reviewScore":1.5,"meta":{"revision":0,"created":1547531154838,"version":0},"$loki":50},{"_id":"5c3d65bd3525a329e0c05e88","address":"12 W University Ave","location":{"type":"Point","coordinates":[-82.3445851868886,29.6522899506272]},"isApproved":true,"items":[],"keys":["Indian"],"lastUpdated":1547527612362,"name":"Andaz","phone":"(352) 377-9468","price":"$$","reviewCount":144,"reviewScore":3.5,"meta":{"revision":0,"created":1547531154838,"version":0},"$loki":51},{"_id":"5c3d65bd3525a329e0c09a86","address":"125 NW 23rd Ave","location":{"type":"Point","coordinates":[-82.3447492,29.6522204]},"isApproved":true,"items":[],"keys":["Seafood","Caterers"],"lastUpdated":1547527612463,"name":"Krab Daddy’s","phone":"(352) 281-9310","price":"","reviewCount":3,"reviewScore":4.5,"meta":{"revision":0,"created":1547531154838,"version":0},"$loki":52},{"_id":"5c3d65bd3525a329e0c19272","address":"2441 State Rd 16","location":{"type":"Point","coordinates":[-82.3406577250842,29.6522918547088]},"isApproved":true,"items":[],"keys":["American (Traditional)","Southern","Breakfast & Brunch"],"lastUpdated":1547527612833,"name":"Cracker Barrel Old Country Store","phone":"(904) 829-9222","price":"$","reviewCount":66,"reviewScore":3.5,"meta":{"revision":0,"created":1547531154838,"version":0},"$loki":53},{"_id":"5c3d65bd3525a329e0c107b2","address":"1404 W University Ave","location":{"type":"Point","coordinates":[-82.3408232,29.652345]},"isApproved":true,"items":[],"keys":["Tacos","American (Traditional)"],"lastUpdated":1547527612619,"name":"Hurricane BTW","phone":"(352) 727-4222","price":"$$","reviewCount":58,"reviewScore":3.5,"meta":{"revision":0,"created":1547531154838,"version":0},"$loki":54},{"_id":"5c3d65bd3525a329e0c181ac","address":"1712 W University Ave","location":{"type":"Point","coordinates":[-82.3410775,29.6523597]},"isApproved":true,"items":[],"keys":["Chicken Wings","Dive Bars","Sandwiches"],"lastUpdated":1547527612809,"name":"Salty Dog Saloon","phone":"(352) 375-6969","price":"$","reviewCount":33,"reviewScore":4,"meta":{"revision":0,"created":1547531154838,"version":0},"$loki":55},{"_id":"5c3d65bd3525a329e0c0bd7e","address":"2720 S.R. 16","location":{"type":"Point","coordinates":[-82.3410843,29.6523597]},"isApproved":true,"items":[],"keys":["Barbeque","American (New)","Basque"],"lastUpdated":1547527612515,"name":"Sonny’s BBQ","phone":"(904) 824-3315","price":"$$","reviewCount":53,"reviewScore":2.5,"meta":{"revision":0,"created":1547531154838,"version":0},"$loki":56},{"_id":"5c3d65bd3525a329e0c0b134","address":"3832 W Newberry Rd","location":{"type":"Point","coordinates":[-82.341512,29.6523095]},"isApproved":true,"items":[],"keys":["Mexican","Tex-Mex"],"lastUpdated":1547527612497,"name":"Moe’s Southwest Grill","phone":"(352) 337-2850","price":"$","reviewCount":18,"reviewScore":3,"meta":{"revision":0,"created":1547531154838,"version":0},"$loki":57},{"_id":"5c3d65bd3525a329e0c0a3ae","address":"5001 NW 34th St","location":{"type":"Point","coordinates":[-82.3407256,29.6537672]},"isApproved":true,"items":[],"keys":["Greek","American (Traditional)","Italian"],"lastUpdated":1547527612474,"name":"Sandy’s Place","phone":"(352) 367-9993","price":"$","reviewCount":51,"reviewScore":3.5,"meta":{"revision":0,"created":1547531154838,"version":0},"$loki":58},{"_id":"5c3d65bd3525a329e0c153cb","address":"3307 W University Ave","location":{"type":"Point","coordinates":[-82.3377809800857,29.6522228620773]},"isApproved":true,"items":[],"keys":["Chinese"],"lastUpdated":1547527612738,"name":"Gator China","phone":"(352) 373-2555","price":"$","reviewCount":14,"reviewScore":4,"meta":{"revision":0,"created":1547531154838,"version":0},"$loki":59},{"_id":"5c3d65bd3525a329e0c1388d","address":"5141 NW 43rd St","location":{"type":"Point","coordinates":[-82.3374170064926,29.6522556071219]},"isApproved":true,"items":[],"keys":["Pizza"],"lastUpdated":1547527612698,"name":"Little Caesars Pizza","phone":"(352) 378-5775","price":"$","reviewCount":9,"reviewScore":3.5,"meta":{"revision":0,"created":1547531154838,"version":0},"$loki":60},{"_id":"5c3d65bd3525a329e0c19071","address":"525 State Road 16","location":{"type":"Point","coordinates":[-82.3374472245369,29.6518723568843]},"isApproved":true,"items":[],"keys":["Cafes"],"lastUpdated":1547527612832,"name":"Luna Cafe","phone":"(904) 209-5094","price":"","reviewCount":14,"reviewScore":5,"meta":{"revision":0,"created":1547531154838,"version":0},"$loki":61},{"_id":"5c3d65bd3525a329e0c17658","address":"3006 NW 13th St","location":{"type":"Point","coordinates":[-82.3386210417216,29.6518645232599]},"isApproved":true,"items":[],"keys":["Chinese"],"lastUpdated":1547527612791,"name":"Hot Wok","phone":"(352) 271-8816","price":"$","reviewCount":23,"reviewScore":3.5,"meta":{"revision":0,"created":1547531154838,"version":0},"$loki":62},{"_id":"5c3d65bd3525a329e0c1421e","address":"315 NE Santa Fe Blvd","location":{"type":"Point","coordinates":[-82.338637,29.6518385]},"isApproved":true,"items":[],"keys":["Burgers","Barbeque","Cafes"],"lastUpdated":1547527612713,"name":"Bev’s Burger Cafe","phone":"(386) 454-9434","price":"$","reviewCount":54,"reviewScore":4,"meta":{"revision":0,"created":1547531154838,"version":0},"$loki":63},{"_id":"5c3d65bd3525a329e0c08fcf","address":"5200 NW 43rd St","location":{"type":"Point","coordinates":[-82.3389515861221,29.6522734806918]},"isApproved":true,"items":[],"keys":["Pizza"],"lastUpdated":1547527612438,"name":"Piesanos Stone Fired Pizza","phone":"(352) 371-7437","price":"$$","reviewCount":107,"reviewScore":4,"meta":{"revision":0,"created":1547531154838,"version":0},"$loki":64},{"_id":"5c3d65bd3525a329e0c13fe0","address":"615 NE Santa Fe Blvd","location":{"type":"Point","coordinates":[-82.3395416,29.6526206]},"isApproved":true,"items":[],"keys":["Burgers"],"lastUpdated":1547527612707,"name":"Bev’s Better Burgers","phone":"(386) 454-3131","price":"$","reviewCount":9,"reviewScore":4.5,"meta":{"revision":0,"created":1547531154838,"version":0},"$loki":65},{"_id":"5c3d65bd3525a329e0c15983","address":"14236 W Newberry Rd","location":{"type":"Point","coordinates":[-82.3395549,29.652282]},"isApproved":true,"items":[],"keys":["Chinese"],"lastUpdated":1547527612747,"name":"Green Tree","phone":"(352) 331-9920","price":"$$","reviewCount":9,"reviewScore":3,"meta":{"revision":0,"created":1547531154838,"version":0},"$loki":66},{"_id":"5c3d65bd3525a329e0c10054","address":"5200 NW 43rd St","location":{"type":"Point","coordinates":[-82.3345283,29.6518684]},"isApproved":true,"items":[],"keys":["Sandwiches","Fast Food"],"lastUpdated":1547527612610,"name":"Subway","phone":"(352) 376-8155","price":"$","reviewCount":4,"reviewScore":4.5,"meta":{"revision":0,"created":1547531154838,"version":0},"$loki":67},{"_id":"5c3d65bd3525a329e0c151a4","address":"17010 W Newberry Rd","location":{"type":"Point","coordinates":[-82.3345283,29.6518684]},"isApproved":true,"items":[],"keys":["Food Trucks","Latin American"],"lastUpdated":1547527612737,"name":"Arepas Milko","phone":"(352) 505-1273","price":"$$","reviewCount":11,"reviewScore":5,"meta":{"revision":0,"created":1547531154838,"version":0},"$loki":68},{"_id":"5c3d65bd3525a329e0c05af1","address":"9513 NW 39th Ave","location":{"type":"Point","coordinates":[-82.3356,29.651904]},"isApproved":true,"items":[],"keys":["Mexican"],"lastUpdated":1547527612356,"name":"La Fiesta Mexican Restaurant","phone":"(352) 335-8484","price":"$$","reviewCount":67,"reviewScore":3.5,"meta":{"revision":0,"created":1547531154838,"version":0},"$loki":69},{"_id":"5c3d65bd3525a329e0c19546","address":"1412 N Main St","location":{"type":"Point","coordinates":[-82.3353076,29.6518606]},"isApproved":true,"items":[],"keys":["Fast Food","Chicken Wings"],"lastUpdated":1547527612840,"name":"Popeyes Louisiana Kitchen","phone":"(352) 377-1733","price":"$","reviewCount":27,"reviewScore":2.5,"meta":{"revision":0,"created":1547531154838,"version":0},"$loki":70},{"_id":"5c3d65bd3525a329e0c01ca2","address":"210 W Walker Dr","location":{"type":"Point","coordinates":[-82.3357959569222,29.6518969285674]},"isApproved":true,"items":[],"keys":["Fast Food","Burgers"],"lastUpdated":1547527612259,"name":"Wendy’s","phone":"(352) 473-3636","price":"$$","reviewCount":8,"reviewScore":3,"meta":{"revision":0,"created":1547531154838,"version":0},"$loki":71},{"_id":"5c3d65bd3525a329e0c09dd4","address":"1999 NW 43rd St","location":{"type":"Point","coordinates":[-82.3359401,29.6519156]},"isApproved":true,"items":[],"keys":["Pubs","Sports Bars","American (Traditional)"],"lastUpdated":1547527612471,"name":"Beef ‘O’ Brady’s","phone":"(352) 338-7771","price":"$$","reviewCount":24,"reviewScore":3,"meta":{"revision":0,"created":1547531154838,"version":0},"$loki":72},{"_id":"5c3d65bd3525a329e0bff78d","address":"3720 NW 13th St","location":{"type":"Point","coordinates":[-82.3365958,29.6522859]},"isApproved":true,"items":[],"keys":["Japanese","Sushi Bars","Steakhouses"],"lastUpdated":1547527612218,"name":"Samurai Japanese Steakhouse and Sushi Bar","phone":"(352) 337-0038","price":"$$","reviewCount":56,"reviewScore":3.5,"meta":{"revision":0,"created":1547531154838,"version":0},"$loki":73},{"_id":"5c3d65bd3525a329e0c11d6f","address":"1 NW 10th Ave","location":{"type":"Point","coordinates":[-82.335169455601,29.6555862713357]},"isApproved":true,"items":[],"keys":["Fast Food","Chicken Wings","Salad"],"lastUpdated":1547527612661,"name":"Zaxby’s Chicken Fingers & Buffalo Wings","phone":"(352) 377-8889","price":"$$","reviewCount":12,"reviewScore":2.5,"meta":{"revision":0,"created":1547531154838,"version":0},"$loki":74},{"_id":"5c3d65bd3525a329e0c085b1","address":"15010 N Main St","location":{"type":"Point","coordinates":[-82.3388521,29.6560331]},"isApproved":true,"items":[],"keys":["Burgers"],"lastUpdated":1547527612427,"name":"Bev’s Better Burgers","phone":"(386) 462-2670","price":"$","reviewCount":58,"reviewScore":4,"meta":{"revision":0,"created":1547531154838,"version":0},"$loki":75},{"_id":"5c3d65bd3525a329e0c0e8ea","address":"115 SE 1st St","location":{"type":"Point","coordinates":[-82.3393561,29.6566275]},"isApproved":true,"items":[],"keys":["Cocktail Bars","Pizza"],"lastUpdated":1547527612575,"name":"Sidecar Gainesville","phone":"(352) 888-7533","price":"$$","reviewCount":9,"reviewScore":4.5,"meta":{"revision":0,"created":1547531154838,"version":0},"$loki":76},{"_id":"5c3d65bd3525a329e0c006b8","address":"6500 W Newberry Rd","location":{"type":"Point","coordinates":[-82.3307856356401,29.6566491582415]},"isApproved":true,"items":[],"keys":["Sandwiches","American (New)"],"lastUpdated":1547527612227,"name":"The Sandwich Depot","phone":"","price":"$","reviewCount":12,"reviewScore":3,"meta":{"revision":0,"created":1547531154838,"version":0},"$loki":77},{"_id":"5c3d65bd3525a329e0c1ae92","address":"16135 NW US Highway 441","location":{"type":"Point","coordinates":[-82.3299756,29.6554805]},"isApproved":true,"items":[],"keys":["Mexican"],"lastUpdated":1547527612876,"name":"El Patio","phone":"(386) 418-0294","price":"$","reviewCount":14,"reviewScore":3.5,"meta":{"revision":0,"created":1547531154838,"version":0},"$loki":78},{"_id":"5c3d65bd3525a329e0c08fd5","address":"2700 N Waldo Road","location":{"type":"Point","coordinates":[-82.324689,29.657835]},"isApproved":true,"items":[],"keys":["Barbeque","American (New)"],"lastUpdated":1547527612438,"name":"Sonny’s BBQ","phone":"(352) 378-7881","price":"$$","reviewCount":36,"reviewScore":3.5,"meta":{"revision":0,"created":1547531154838,"version":0},"$loki":79},{"_id":"5c3d65bd3525a329e0c07d90","address":"3501 SW 2nd Ave","location":{"type":"Point","coordinates":[-82.3270169,29.6518869]},"isApproved":true,"items":[],"keys":["American (Traditional)","Pubs"],"lastUpdated":1547527612411,"name":"Copper Monkey Restaurant","phone":"(352) 505-3595","price":"$","reviewCount":55,"reviewScore":3,"meta":{"revision":0,"created":1547531154838,"version":0},"$loki":80},{"_id":"5c3d65bd3525a329e0c10514","address":"110 NE 16th Ave","location":{"type":"Point","coordinates":[-82.32643319967,29.6511872426202]},"isApproved":true,"items":[],"keys":["Sandwiches","Fast Food"],"lastUpdated":1547527612618,"name":"Sandwich Inn","phone":"(352) 376-0924","price":"$","reviewCount":47,"reviewScore":4,"meta":{"revision":0,"created":1547531154838,"version":0},"$loki":81},{"_id":"5c3d65bd3525a329e0c00a46","address":"425 N State Road 19","location":{"type":"Point","coordinates":[-82.3264667037767,29.6516244337028]},"isApproved":true,"items":[],"keys":["Barbeque","American (New)"],"lastUpdated":1547527612230,"name":"Sonny’s BBQ","phone":"(386) 328-4655","price":"$$","reviewCount":20,"reviewScore":3.5,"meta":{"revision":0,"created":1547531154838,"version":0},"$loki":82},{"_id":"5c3d65bd3525a329e0c06524","address":"15530 NW US Hwy 441","location":{"type":"Point","coordinates":[-82.3266541318103,29.652147205197]},"isApproved":true,"items":[],"keys":["Chinese"],"lastUpdated":1547527612377,"name":"Rose Garden","phone":"(386) 462-5054","price":"$","reviewCount":19,"reviewScore":4,"meta":{"revision":0,"created":1547531154838,"version":0},"$loki":83},{"_id":"5c3d65bd3525a329e0c0d2fa","address":"14128 W Newberry Rd","location":{"type":"Point","coordinates":[-82.325613,29.652225]},"isApproved":true,"items":[],"keys":["Barbeque"],"lastUpdated":1547527612546,"name":"Top Hog BBQ","phone":"(352) 331-6035","price":"$","reviewCount":27,"reviewScore":4,"meta":{"revision":0,"created":1547531154838,"version":0},"$loki":84},{"_id":"5c3d65bd3525a329e0c0670e","address":"30 N Main St","location":{"type":"Point","coordinates":[-82.325153803657,29.65257190148]},"isApproved":true,"items":[],"keys":["American (New)","Bars"],"lastUpdated":1547527612378,"name":"The Top","phone":"(352) 337-1188","price":"$$","reviewCount":782,"reviewScore":4,"meta":{"revision":0,"created":1547531154838,"version":0},"$loki":85},{"_id":"5c3d65bd3525a329e0c0f591","address":"2626 NE 39th Ave","location":{"type":"Point","coordinates":[-82.3247192,29.6530255]},"isApproved":true,"items":[],"keys":["Caterers","Barbeque"],"lastUpdated":1547527612593,"name":"Hill’s Bar-B Que & Catering","phone":"(352) 376-8072","price":"","reviewCount":5,"reviewScore":5,"meta":{"revision":0,"created":1547531154838,"version":0},"$loki":86},{"_id":"5c3d65bd3525a329e0c0cd5f","address":"1250 W University Ave","location":{"type":"Point","coordinates":[-82.3235373,29.6518056]},"isApproved":true,"items":[],"keys":["Pizza","Italian","Burgers"],"lastUpdated":1547527612534,"name":"Piesanos Stone Fired Pizza","phone":"(352) 375-2337","price":"$$","reviewCount":97,"reviewScore":4,"meta":{"revision":0,"created":1547531154838,"version":0},"$loki":87},{"_id":"5c3d65bd3525a329e0c0131c","address":"808 W University Ave","location":{"type":"Point","coordinates":[-82.323895,29.651053]},"isApproved":true,"items":[],"keys":["Vietnamese"],"lastUpdated":1547527612241,"name":"Faith Vietnamese","phone":"(352) 505-0162","price":"$","reviewCount":131,"reviewScore":3.5,"meta":{"revision":0,"created":1547531154838,"version":0},"$loki":88},{"_id":"5c3d65bd3525a329e0c0a832","address":"104 SE 1st Ave","location":{"type":"Point","coordinates":[-82.323873,29.650643]},"isApproved":true,"items":[],"keys":["Vegetarian","Indonesian","Music Venues"],"lastUpdated":1547527612482,"name":"Steamers","phone":"(352) 505-5777","price":"$","reviewCount":47,"reviewScore":3.5,"meta":{"revision":0,"created":1547531154838,"version":0},"$loki":89},{"_id":"5c3d65bd3525a329e0c0786b","address":"7380 State Rd 100","location":{"type":"Point","coordinates":[-82.3241641,29.650773]},"isApproved":true,"items":[],"keys":["Chinese"],"lastUpdated":1547527612408,"name":"China Wok","phone":"(352) 473-1998","price":"$","reviewCount":7,"reviewScore":3.5,"meta":{"revision":0,"created":1547531154838,"version":0},"$loki":90},{"_id":"5c3d65bd3525a329e0c0c905","address":"1202 NE 8th Ave","location":{"type":"Point","coordinates":[-82.324388,29.6507592]},"isApproved":true,"items":[],"keys":["American (Traditional)","Breakfast & Brunch"],"lastUpdated":1547527612526,"name":"East End Eatery","phone":"(352) 378-9870","price":"$$","reviewCount":153,"reviewScore":4,"meta":{"revision":0,"created":1547531154838,"version":0},"$loki":91},{"_id":"5c3d65bd3525a329e0c09968","address":"1511 NW 2nd St","location":{"type":"Point","coordinates":[-82.3246543,29.6508015]},"isApproved":true,"items":[],"keys":["American (New)","Vegetarian","Breakfast & Brunch"],"lastUpdated":1547527612463,"name":"Civilization","phone":"(352) 380-0544","price":"$$","reviewCount":216,"reviewScore":4,"meta":{"revision":0,"created":1547531154838,"version":0},"$loki":92},{"_id":"5c3d65bd3525a329e0c15473","address":"1011 W University Ave","location":{"type":"Point","coordinates":[-82.32451,29.650803]},"isApproved":true,"items":[],"keys":["Greek","Mediterranean","Vegetarian"],"lastUpdated":1547527612745,"name":"Gyro Plus Grocery","phone":"(352) 336-5323","price":"$","reviewCount":103,"reviewScore":4,"meta":{"revision":0,"created":1547531154838,"version":0},"$loki":93},{"_id":"5c3d65bd3525a329e0c122ae","address":"104 S Main St","location":{"type":"Point","coordinates":[-82.3253081,29.6508139]},"isApproved":true,"items":[],"keys":["Thai","Sushi Bars","Coffee & Tea"],"lastUpdated":1547527612669,"name":"If It Is Kitchen & Café","phone":"(352) 792-6877","price":"$$","reviewCount":67,"reviewScore":3.5,"meta":{"revision":0,"created":1547531154838,"version":0},"$loki":94},{"_id":"5c3d65bd3525a329e0c0f55b","address":"3720 NW 13th St","location":{"type":"Point","coordinates":[-82.3252763,29.6512185]},"isApproved":true,"items":[],"keys":["Chinese"],"lastUpdated":1547527612592,"name":"China 1","phone":"(352) 374-8886","price":"","reviewCount":7,"reviewScore":2.5,"meta":{"revision":0,"created":1547531154838,"version":0},"$loki":95},{"_id":"5c3d65bd3525a329e0c026b9","address":"100 N Main St","location":{"type":"Point","coordinates":[-82.3253965405764,29.6512064375394]},"isApproved":true,"items":[],"keys":["Fast Food"],"lastUpdated":1547527612284,"name":"The Chicken Koop","phone":"(904) 692-1063","price":"","reviewCount":3,"reviewScore":4.5,"meta":{"revision":0,"created":1547531154838,"version":0},"$loki":96},{"_id":"5c3d65bd3525a329e0c15910","address":"4915 State Rd 207","location":{"type":"Point","coordinates":[-82.3252329,29.6517016]},"isApproved":true,"items":[],"keys":["American (New)","Pizza"],"lastUpdated":1547527612747,"name":"Jim’s Place","phone":"(904) 692-1222","price":"$$","reviewCount":26,"reviewScore":4.5,"meta":{"revision":0,"created":1547531154838,"version":0},"$loki":97},{"_id":"5c3d65bd3525a329e0c0fd72","address":"140 SW 128th St","location":{"type":"Point","coordinates":[-82.3255588,29.6519535]},"isApproved":true,"items":[],"keys":["Pubs","American (Traditional)"],"lastUpdated":1547527612608,"name":"World of Beer","phone":"(352) 727-4714","price":"$$","reviewCount":37,"reviewScore":4,"meta":{"revision":0,"created":1547531154838,"version":0},"$loki":98},{"_id":"5c3d65bd3525a329e0c0fd4e","address":"16 NW 18th St","location":{"type":"Point","coordinates":[-82.325649,29.651248]},"isApproved":true,"items":[],"keys":["Vietnamese"],"lastUpdated":1547527612608,"name":"Vietnamese Grille","phone":"(352) 505-6987","price":"$","reviewCount":80,"reviewScore":4.5,"meta":{"revision":0,"created":1547531154838,"version":0},"$loki":99},{"_id":"5c3d65bd3525a329e0c17439","address":"110 SE 1st St","location":{"type":"Point","coordinates":[-82.324388,29.6504936]},"isApproved":true,"items":[],"keys":["American (Traditional)","Seafood","Bars"],"lastUpdated":1547527612790,"name":"Harry’s Seafood Bar and Grille","phone":"(352) 372-1555","price":"$$","reviewCount":242,"reviewScore":4,"meta":{"revision":0,"created":1547531154838,"version":0},"$loki":100},{"_id":"5c3d65bd3525a329e0c128cd","address":"1620 W University Ave","location":{"type":"Point","coordinates":[-82.323949,29.650484]},"isApproved":true,"items":[],"keys":["Asian Fusion"],"lastUpdated":1547527612679,"name":"Sushi Chao","phone":"(352) 373-2277","price":"$","reviewCount":49,"reviewScore":3,"meta":{"revision":0,"created":1547531154838,"version":0},"$loki":101},{"_id":"5c3d65bd3525a329e0c00357","address":"14423 NW US Highway 441","location":{"type":"Point","coordinates":[-82.3239388810342,29.6505792088992]},"isApproved":true,"items":[],"keys":["Buffets","Southern","Breakfast & Brunch"],"lastUpdated":1547527612225,"name":"Brown’s Country Buffet","phone":"(386) 462-3000","price":"$","reviewCount":50,"reviewScore":3.5,"meta":{"revision":0,"created":1547531154838,"version":0},"$loki":102},{"_id":"5c3d65bd3525a329e0bffe1c","address":"15634 NW Hwy 441","location":{"type":"Point","coordinates":[-82.323710378534,29.650104774157]},"isApproved":true,"items":[],"keys":["Cuban","Spanish","Latin American"],"lastUpdated":1547527612222,"name":"Mi Apa Latin Cafe","phone":"(386) 418-0838","price":"$","reviewCount":99,"reviewScore":4,"meta":{"revision":0,"created":1547531154838,"version":0},"$loki":103},{"_id":"5c3d65bd3525a329e0c17d8a","address":"1222 W University Ave","location":{"type":"Point","coordinates":[-82.3235101,29.6498345]},"isApproved":true,"items":[],"keys":["Breakfast & Brunch","Noodles","Bagels"],"lastUpdated":1547527612801,"name":"Bagels & Noodles","phone":"(352) 872-5789","price":"$","reviewCount":140,"reviewScore":3.5,"meta":{"revision":0,"created":1547531154838,"version":0},"$loki":104},{"_id":"5c3d65bd3525a329e0c0c076","address":"6791 W Newberry Rd","location":{"type":"Point","coordinates":[-82.3269746,29.6505705]},"isApproved":true,"items":[],"keys":["Delis","Sandwiches","Salad"],"lastUpdated":1547527612516,"name":"Jason’s Deli","phone":"(352) 333-6923","price":"$","reviewCount":59,"reviewScore":4,"meta":{"revision":0,"created":1547531154838,"version":0},"$loki":105},{"_id":"5c3d65bd3525a329e0c0f8cb","address":"60 N Main St","location":{"type":"Point","coordinates":[-82.3269746,29.6505705]},"isApproved":true,"items":[],"keys":["Mexican"],"lastUpdated":1547527612600,"name":"EL Patio","phone":"(386) 454-1330","price":"$$","reviewCount":51,"reviewScore":3.5,"meta":{"revision":0,"created":1547531154838,"version":0},"$loki":106},{"_id":"5c3d65bd3525a329e0c105b6","address":"923 W University Ave","location":{"type":"Point","coordinates":[-82.3269447497857,29.6506965988692]},"isApproved":true,"items":[],"keys":["Chicken Wings","Fast Food","Sandwiches"],"lastUpdated":1547527612618,"name":"Wing Zone","phone":"(352) 377-2473","price":"$","reviewCount":26,"reviewScore":2.5,"meta":{"revision":0,"created":1547531154838,"version":0},"$loki":107},{"_id":"5c3d65bd3525a329e0c1b1d1","address":"113 N Main St","location":{"type":"Point","coordinates":[-82.3313912,29.6518218]},"isApproved":true,"items":[],"keys":["Wine Bars","American (Traditional)"],"lastUpdated":1547527612877,"name":"Downtown Wine and Cheese","phone":"(352) 222-1348","price":"$$","reviewCount":52,"reviewScore":4,"meta":{"revision":0,"created":1547531154838,"version":0},"$loki":108},{"_id":"5c3d65bd3525a329e0c19ab0","address":"2095 Sr 16","location":{"type":"Point","coordinates":[-82.3319115,29.6525281]},"isApproved":true,"items":[],"keys":["Fast Food"],"lastUpdated":1547527612849,"name":"Bojangles’","phone":"(904) 671-7165","price":"","reviewCount":12,"reviewScore":4.5,"meta":{"revision":0,"created":1547531154838,"version":0},"$loki":109},{"_id":"5c3d65bd3525a329e0c1acfd","address":"2560 State Rd 16","location":{"type":"Point","coordinates":[-82.3340488132459,29.6522830514097]},"isApproved":true,"items":[],"keys":["Breakfast & Brunch","American (Traditional)","Burgers"],"lastUpdated":1547527612875,"name":"IHOP","phone":"(904) 829-2215","price":"$","reviewCount":35,"reviewScore":2.5,"meta":{"revision":0,"created":1547531154838,"version":0},"$loki":110},{"_id":"5c3d65bd3525a329e0c1114e","address":"1231 E University Ave","location":{"type":"Point","coordinates":[-82.3337110893248,29.6522514023614]},"isApproved":true,"items":[],"keys":["Chicken Wings","Fast Food","Chicken Shop"],"lastUpdated":1547527612641,"name":"KFC","phone":"(352) 372-2984","price":"$","reviewCount":2,"reviewScore":1,"meta":{"revision":0,"created":1547531154838,"version":0},"$loki":111},{"_id":"5c3d65bd3525a329e0bff60b","address":"14230 W Newberry Rd","location":{"type":"Point","coordinates":[-82.3332576,29.6522448]},"isApproved":true,"items":[],"keys":["Italian"],"lastUpdated":1547527612217,"name":"O Sole Mio Cucina Italiana","phone":"(352) 332-0916","price":"$$","reviewCount":47,"reviewScore":4.5,"meta":{"revision":0,"created":1547531154838,"version":0},"$loki":112},{"_id":"5c3d65bd3525a329e0c1a2ab","address":"2700 State Rd 16","location":{"type":"Point","coordinates":[-82.312678,29.652272]},"isApproved":true,"items":[],"keys":["Chinese"],"lastUpdated":1547527612858,"name":"China Max","phone":"(904) 823-0705","price":"","reviewCount":3,"reviewScore":3.5,"meta":{"revision":0,"created":1547531154838,"version":0},"$loki":113},{"_id":"5c3d65bd3525a329e0c11a7e","address":"1209 W University Ave","location":{"type":"Point","coordinates":[-82.3143316,29.6519369]},"isApproved":true,"items":[],"keys":["Bars","Mexican"],"lastUpdated":1547527612652,"name":"Felipe’s Mexican Taqueria","phone":"(352) 888-6262","price":"$","reviewCount":84,"reviewScore":3.5,"meta":{"revision":0,"created":1547531154838,"version":0},"$loki":114},{"_id":"5c3d65bd3525a329e0c0da8c","address":"24 S Main St","location":{"type":"Point","coordinates":[-82.3227767944336,29.6519508361816]},"isApproved":true,"items":[],"keys":["American (New)","Sports Bars","Sandwiches"],"lastUpdated":1547527612556,"name":"Jack’s Bar & Grill","phone":"(352) 336-1111","price":"$","reviewCount":5,"reviewScore":3,"meta":{"revision":0,"created":1547531154838,"version":0},"$loki":115},{"_id":"5c3d65bd3525a329e0bff759","address":"3000 NW 83rd St","location":{"type":"Point","coordinates":[-82.3096,29.6517]},"isApproved":true,"items":[],"keys":["Sandwiches","Fast Food"],"lastUpdated":1547527612218,"name":"Subway","phone":"(352) 377-7100","price":"","reviewCount":1,"reviewScore":4,"meta":{"revision":0,"created":1547531154838,"version":0},"$loki":116},{"_id":"5c3d65bd3525a329e0c0c743","address":"1720 W University Ave","location":{"type":"Point","coordinates":[-82.307564,29.652446]},"isApproved":true,"items":[],"keys":["Mexican","Tex-Mex"],"lastUpdated":1547527612525,"name":"Tijuana Flats","phone":"(352) 692-3093","price":"$","reviewCount":57,"reviewScore":4,"meta":{"revision":0,"created":1547531154838,"version":0},"$loki":117},{"_id":"5c3d65bd3525a329e0c036b0","address":"18592 High Springs Main St","location":{"type":"Point","coordinates":[-82.3064168,29.6513185]},"isApproved":true,"items":[],"keys":["Cafes","Vegan","American (New)"],"lastUpdated":1547527612303,"name":"Bambi’s Country Market & Restaurant","phone":"(386) 454-1600","price":"","reviewCount":3,"reviewScore":5,"meta":{"revision":0,"created":1547531154838,"version":0},"$loki":118},{"_id":"5c3d65bd3525a329e0c0a652","address":"201 SE 2nd Ave","location":{"type":"Point","coordinates":[-82.3055686,29.6507294]},"isApproved":true,"items":[],"keys":["Steakhouses","Seafood"],"lastUpdated":1547527612481,"name":"Mark’s Prime Steakhouse and Seafood","phone":"(352) 336-0077","price":"$$$","reviewCount":109,"reviewScore":3.5,"meta":{"revision":0,"created":1547531154838,"version":0},"$loki":119},{"_id":"5c3d65bd3525a329e0c0b633","address":"3812 W Newberry Rd","location":{"type":"Point","coordinates":[-82.3099543,29.659563]},"isApproved":true,"items":[],"keys":["Korean","Barbeque"],"lastUpdated":1547527612499,"name":"Beque Holic","phone":"(352) 505-6534","price":"$$","reviewCount":223,"reviewScore":4.5,"meta":{"revision":0,"created":1547531154838,"version":0},"$loki":120},{"_id":"5c3d65bd3525a329e0c04201","address":"4200 NW 97th Blvd","location":{"type":"Point","coordinates":[-82.3225939,29.666227]},"isApproved":true,"items":[],"keys":["American (Traditional)"],"lastUpdated":1547527612321,"name":"Gators Den Sports Grill","phone":"(352) 575-9802","price":"$$","reviewCount":52,"reviewScore":4,"meta":{"revision":0,"created":1547531154838,"version":0},"$loki":121},{"_id":"5c3d65bd3525a329e0c09f0c","address":"6944 NW 10th Pl","location":{"type":"Point","coordinates":[-82.3234127,29.6668332]},"isApproved":true,"items":[],"keys":["Dim Sum","Bars"],"lastUpdated":1547527612472,"name":"Mr Han’s Restaurant & Night Club","phone":"(352) 331-6400","price":"$$","reviewCount":81,"reviewScore":4,"meta":{"revision":0,"created":1547531154838,"version":0},"$loki":122},{"_id":"5c3d65bd3525a329e0c0b91a","address":"1000 NE 16th Ave","location":{"type":"Point","coordinates":[-82.3133663855442,29.6673063081513]},"isApproved":true,"items":[],"keys":["Bars","American (Traditional)"],"lastUpdated":1547527612507,"name":"Public & General","phone":"(352) 745-7358","price":"$$","reviewCount":137,"reviewScore":4.5,"meta":{"revision":0,"created":1547531154838,"version":0},"$loki":123},{"_id":"5c3d65bd3525a329e0c17171","address":"4126 NW 6th St","location":{"type":"Point","coordinates":[-82.3193077370524,29.6730770646127]},"isApproved":true,"items":[],"keys":["Pizza"],"lastUpdated":1547527612782,"name":"Tony’s Pizza","phone":"(352) 264-7867","price":"","reviewCount":1,"reviewScore":4,"meta":{"revision":0,"created":1547531154838,"version":0},"$loki":124},{"_id":"5c3d65bd3525a329e0c12759","address":"5001 NW 34th Blvd","location":{"type":"Point","coordinates":[-82.3231773,29.6715815]},"isApproved":true,"items":[],"keys":["Pizza"],"lastUpdated":1547527612672,"name":"Five Star Pizza","phone":"(352) 378-9606","price":"$$","reviewCount":7,"reviewScore":5,"meta":{"revision":0,"created":1547531154838,"version":0},"$loki":125},{"_id":"5c3d65bd3525a329e0c05ce0","address":"401 NE 23rd Ave","location":{"type":"Point","coordinates":[-82.3207884,29.6734784]},"isApproved":true,"items":[],"keys":["Ramen"],"lastUpdated":1547527612357,"name":"Electric Ramen","phone":"","price":"$","reviewCount":96,"reviewScore":4,"meta":{"revision":0,"created":1547531154838,"version":0},"$loki":126},{"_id":"5c3d65bd3525a329e0c00917","address":"4405 NW 39th Ave","location":{"type":"Point","coordinates":[-82.3198759,29.673496]},"isApproved":true,"items":[],"keys":["Mexican"],"lastUpdated":1547527612229,"name":"Las Margarita’s Mexican Restaurant","phone":"(352) 374-6699","price":"$$","reviewCount":202,"reviewScore":3,"meta":{"revision":0,"created":1547531154838,"version":0},"$loki":127},{"_id":"5c3d65bd3525a329e0c036e9","address":"5240 NW 34th St","location":{"type":"Point","coordinates":[-82.3019107,29.6739674]},"isApproved":true,"items":[],"keys":["Breakfast & Brunch","American (New)","Korean"],"lastUpdated":1547527612304,"name":"Country Foodly","phone":"(352) 377-7863","price":"$","reviewCount":182,"reviewScore":4.5,"meta":{"revision":0,"created":1547531154838,"version":0},"$loki":128},{"_id":"5c3d65bd3525a329e0c038a9","address":"3360 FL-207","location":{"type":"Point","coordinates":[-82.3220931,29.6879321]},"isApproved":true,"items":[],"keys":["American (Traditional)"],"lastUpdated":1547527612304,"name":"Snowy Mountain Cafe","phone":"(904) 217-7695","price":"","reviewCount":1,"reviewScore":1,"meta":{"revision":0,"created":1547531154838,"version":0},"$loki":129},{"_id":"5c3d65bd3525a329e0c09714","address":"4989 NW 40th Pl","location":{"type":"Point","coordinates":[-82.3324370557503,29.6906369976557]},"isApproved":true,"items":[],"keys":["Cafes","Salad","Sandwiches"],"lastUpdated":1547527612454,"name":"One Love Cafe","phone":"(352) 509-3131","price":"$$","reviewCount":118,"reviewScore":4,"meta":{"revision":0,"created":1547531154838,"version":0},"$loki":130},{"_id":"5c3d65bd3525a329e0c0c14a","address":"904 E University Ave","location":{"type":"Point","coordinates":[-82.3268861,29.6888236]},"isApproved":true,"items":[],"keys":["Burgers","Chicken Wings","Food Trucks"],"lastUpdated":1547527612517,"name":"Swamp Religion","phone":"(352) 359-9125","price":"","reviewCount":3,"reviewScore":4.5,"meta":{"revision":0,"created":1547531154838,"version":0},"$loki":131},{"_id":"5c3d65bd3525a329e0c0f166","address":"15551 NW US Highway 441","location":{"type":"Point","coordinates":[-82.3344643,29.6977949]},"isApproved":true,"items":[],"keys":["Chinese"],"lastUpdated":1547527612591,"name":"Wok and Roll","phone":"(386) 462-6442","price":"","reviewCount":6,"reviewScore":5,"meta":{"revision":0,"created":1547531154838,"version":0},"$loki":132},{"_id":"5c3d65bd3525a329e0c1396b","address":"6419 Newberry Rd","location":{"type":"Point","coordinates":[-82.3435237,29.7026036]},"isApproved":true,"items":[],"keys":["Delis"],"lastUpdated":1547527612698,"name":"Great Wraps","phone":"(352) 872-5600","price":"","reviewCount":6,"reviewScore":3.5,"meta":{"revision":0,"created":1547531154838,"version":0},"$loki":133},{"_id":"5c3d65bd3525a329e0c021cc","address":"Hwy 9","location":{"type":"Point","coordinates":[-82.342491,29.7017255]},"isApproved":true,"items":[],"keys":["Barbeque"],"lastUpdated":1547527612276,"name":"Sunny’s BBQ","phone":"","price":"","reviewCount":1,"reviewScore":4,"meta":{"revision":0,"created":1547531154838,"version":0},"$loki":134},{"_id":"5c3d65bd3525a329e0c0232e","address":"16070 NW US Hwy 441","location":{"type":"Point","coordinates":[-82.3392,29.6867]},"isApproved":true,"items":[],"keys":["Fast Food","Burgers"],"lastUpdated":1547527612276,"name":"Wendy’s","phone":"(386) 418-4291","price":"$","reviewCount":11,"reviewScore":2,"meta":{"revision":0,"created":1547531154838,"version":0},"$loki":135},{"_id":"5c3d65bd3525a329e0c05875","address":"","location":{"type":"Point","coordinates":[-82.3406329,29.6873784]},"isApproved":true,"items":[],"keys":["Food Trucks","Barbeque"],"lastUpdated":1547527612354,"name":"Not Your Daddy’s Ribs","phone":"(850) 212-3594","price":"$$","reviewCount":5,"reviewScore":4.5,"meta":{"revision":0,"created":1547531154838,"version":0},"$loki":136},{"_id":"5c3d65bd3525a329e0c102ba","address":"1702 West University Ave","location":{"type":"Point","coordinates":[-82.3406329,29.6873784]},"isApproved":true,"items":[],"keys":["Sandwiches","Mediterranean","Fast Food"],"lastUpdated":1547527612617,"name":"Pita Pit","phone":"(352) 692-4400","price":"$","reviewCount":37,"reviewScore":3,"meta":{"revision":0,"created":1547531154838,"version":0},"$loki":137},{"_id":"5c3d65bd3525a329e0bff85e","address":"505 N State Road 19","location":{"type":"Point","coordinates":[-82.342061,29.674295]},"isApproved":true,"items":[],"keys":["Burgers","Fast Food"],"lastUpdated":1547527612218,"name":"Krystal","phone":"(904) 328-9020","price":"$","reviewCount":5,"reviewScore":2,"meta":{"revision":0,"created":1547531154838,"version":0},"$loki":138},{"_id":"5c3d65bd3525a329e0c0bf1a","address":"12921 SW 1st Rd","location":{"type":"Point","coordinates":[-82.3406087157071,29.6729454822193]},"isApproved":true,"items":[],"keys":["Delis","Cheesesteaks","Sandwiches"],"lastUpdated":1547527612516,"name":"Dave’s New York Deli","phone":"(352) 333-0291","price":"$","reviewCount":44,"reviewScore":3.5,"meta":{"revision":0,"created":1547531154838,"version":0},"$loki":139},{"_id":"5c3d65bd3525a329e0c19e43","address":"1800 NE 23rd Ave","location":{"type":"Point","coordinates":[-82.33989,29.674339]},"isApproved":true,"items":[],"keys":["Pizza","Vegan"],"lastUpdated":1547527612851,"name":"Satchel’s Pizza","phone":"(352) 335-7272","price":"$$","reviewCount":572,"reviewScore":4,"meta":{"revision":0,"created":1547531154838,"version":0},"$loki":140},{"_id":"5c3d65bd3525a329e0c0b329","address":"1245 W University Ave","location":{"type":"Point","coordinates":[-82.3378306126893,29.6754149517402]},"isApproved":true,"items":[],"keys":["American (New)"],"lastUpdated":1547527612498,"name":"Bistro 1245","phone":"(352) 376-0000","price":"$$","reviewCount":112,"reviewScore":4,"meta":{"revision":0,"created":1547531154838,"version":0},"$loki":141},{"_id":"5c3d65bd3525a329e0c145f1","address":"5110 NW 43rd St","location":{"type":"Point","coordinates":[-82.3396972,29.6742873]},"isApproved":true,"items":[],"keys":["Fast Food","Burgers","Coffee & Tea"],"lastUpdated":1547527612715,"name":"McDonald’s","phone":"(352) 376-1965","price":"$","reviewCount":14,"reviewScore":2.5,"meta":{"revision":0,"created":1547531154838,"version":0},"$loki":142},{"_id":"5c3d65bd3525a329e0c0e607","address":"16088 NW US Highway 441","location":{"type":"Point","coordinates":[-82.3389374996455,29.673661947237]},"isApproved":true,"items":[],"keys":["Fast Food","Salad","Chicken Wings"],"lastUpdated":1547527612574,"name":"Zaxby’s Chicken Fingers & Buffalo Wings","phone":"(386) 462-2222","price":"$$","reviewCount":16,"reviewScore":3,"meta":{"revision":0,"created":1547531154838,"version":0},"$loki":143},{"_id":"5c3d65bd3525a329e0c109e0","address":"1005 W University Ave","location":{"type":"Point","coordinates":[-82.339075,29.672216]},"isApproved":true,"items":[],"keys":["Sandwiches","Fast Food"],"lastUpdated":1547527612626,"name":"Subway","phone":"(352) 376-1161","price":"$","reviewCount":3,"reviewScore":4.5,"meta":{"revision":0,"created":1547531154838,"version":0},"$loki":144},{"_id":"5c3d65bd3525a329e0c08c6c","address":"3309 W University Ave","location":{"type":"Point","coordinates":[-82.3389776,29.6724033]},"isApproved":true,"items":[],"keys":["Pizza"],"lastUpdated":1547527612436,"name":"Gator Domino’s Pizza","phone":"(352) 377-4992","price":"","reviewCount":3,"reviewScore":3.5,"meta":{"revision":0,"created":1547531154838,"version":0},"$loki":145},{"_id":"5c3d65bd3525a329e0c0488d","address":"4125 NW 16th Blvd","location":{"type":"Point","coordinates":[-82.3388755,29.6726433]},"isApproved":true,"items":[],"keys":["Juice Bars & Smoothies","Sandwiches"],"lastUpdated":1547527612330,"name":"Tropical Smoothie Cafe","phone":"(352) 363-6227","price":"$","reviewCount":3,"reviewScore":3.5,"meta":{"revision":0,"created":1547531154838,"version":0},"$loki":146},{"_id":"5c3d65bd3525a329e0c17b22","address":"3885 NW 24th Blvd","location":{"type":"Point","coordinates":[-82.3388744,29.6729001]},"isApproved":true,"items":[],"keys":["American (Traditional)","Fish & Chips","Bars"],"lastUpdated":1547527612799,"name":"Red Onion Neighborhood Grill","phone":"(352) 505-0088","price":"$$","reviewCount":159,"reviewScore":3.5,"meta":{"revision":0,"created":1547531154838,"version":0},"$loki":147},{"_id":"5c3d65bd3525a329e0c08f5b","address":"1602 Reid St","location":{"type":"Point","coordinates":[-82.3393202403891,29.678890435205]},"isApproved":true,"items":[],"keys":["Pizza","Chicken Wings","Sandwiches"],"lastUpdated":1547527612438,"name":"Domino’s Pizza","phone":"(386) 325-0112","price":"","reviewCount":3,"reviewScore":1.5,"meta":{"revision":0,"created":1547531154838,"version":0},"$loki":148},{"_id":"5c3d65bd3525a329e0c184c1","address":"710 NW 60th St","location":{"type":"Point","coordinates":[-82.33961,29.679381]},"isApproved":true,"items":[],"keys":["Chinese","Fast Food"],"lastUpdated":1547527612814,"name":"Panda Express","phone":"(352) 333-2776","price":"$","reviewCount":15,"reviewScore":2.5,"meta":{"revision":0,"created":1547531154838,"version":0},"$loki":149},{"_id":"5c3d65bd3525a329e0c14f8f","address":"3822 W Newberry Rd","location":{"type":"Point","coordinates":[-82.3395865,29.6800634]},"isApproved":true,"items":[],"keys":["Burgers"],"lastUpdated":1547527612736,"name":"Relish Big Tasty Burger - Newberry","phone":"","price":"$","reviewCount":37,"reviewScore":3.5,"meta":{"revision":0,"created":1547531154838,"version":0},"$loki":150},{"_id":"5c3d65bd3525a329e0c0049c","address":"121 Crystal Cove Dr","location":{"type":"Point","coordinates":[-82.3264461078207,29.6727505537446]},"isApproved":true,"items":[],"keys":["Breakfast & Brunch","Cafes"],"lastUpdated":1547527612226,"name":"Sunrise Cafe’","phone":"(281) 917-4798","price":"","reviewCount":2,"reviewScore":4.5,"meta":{"revision":0,"created":1547531154838,"version":0},"$loki":151},{"_id":"5c3d65bd3525a329e0c0e879","address":"125 NW 23rd Ave","location":{"type":"Point","coordinates":[-82.3262371657622,29.6737054074083]},"isApproved":true,"items":[],"keys":["Cuban","Colombian"],"lastUpdated":1547527612575,"name":"La Cocina De Abuela","phone":"(352) 204-5561","price":"$$","reviewCount":69,"reviewScore":4.5,"meta":{"revision":0,"created":1547531154838,"version":0},"$loki":152},{"_id":"5c3d65bd3525a329e0c0cc61","address":"7401 State Road 21","location":{"type":"Point","coordinates":[-82.3312640190125,29.6737913528076]},"isApproved":true,"items":[],"keys":["Fast Food"],"lastUpdated":1547527612533,"name":"Hardee’s/ Red Burrito","phone":"(352) 473-7745","price":"","reviewCount":5,"reviewScore":3,"meta":{"revision":0,"created":1547531154838,"version":0},"$loki":153},{"_id":"5c3d65bd3525a329e0c0648a","address":"15652 NW US Hwy 441","location":{"type":"Point","coordinates":[-82.3313806,29.6664774]},"isApproved":true,"items":[],"keys":["Mexican","Tex-Mex"],"lastUpdated":1547527612371,"name":"Moe’s Southwest Grill","phone":"(386) 462-1205","price":"$","reviewCount":19,"reviewScore":2.5,"meta":{"revision":0,"created":1547531154838,"version":0},"$loki":154},{"_id":"5c3d65bd3525a329e0c15fe1","address":"15634 NW US Hwy 441","location":{"type":"Point","coordinates":[-82.324060999501,29.6679102944114]},"isApproved":true,"items":[],"keys":["Pizza","Chicken Wings","Sandwiches"],"lastUpdated":1547527612756,"name":"Domino’s Pizza","phone":"(386) 462-2000","price":"$","reviewCount":6,"reviewScore":3.5,"meta":{"revision":0,"created":1547531154838,"version":0},"$loki":155},{"_id":"5c3d65bd3525a329e0c03cca","address":"4620 NW 39th Ave","location":{"type":"Point","coordinates":[-82.3253373,29.6670007]},"isApproved":true,"items":[],"keys":["Pizza"],"lastUpdated":1547527612313,"name":"Domino’s Pizza","phone":"(352) 692-2222","price":"$","reviewCount":12,"reviewScore":2.5,"meta":{"revision":0,"created":1547531154838,"version":0},"$loki":156},{"_id":"5c3d65bd3525a329e0c09098","address":"3750 NW 13th St","location":{"type":"Point","coordinates":[-82.3242051,29.6662304]},"isApproved":true,"items":[],"keys":["Fast Food","Chicken Wings","Chicken Shop"],"lastUpdated":1547527612439,"name":"KFC","phone":"(352) 373-6333","price":"$$","reviewCount":9,"reviewScore":2,"meta":{"revision":0,"created":1547531154838,"version":0},"$loki":157},{"_id":"5c3d65bd3525a329e0c0d863","address":"2424 NW 43rd St","location":{"type":"Point","coordinates":[-82.324881,29.665061]},"isApproved":true,"items":[],"keys":["Fast Food","Chicken Wings","Salad"],"lastUpdated":1547527612555,"name":"Zaxby’s Chicken Fingers & Buffalo Wings","phone":"(352) 376-8700","price":"$","reviewCount":23,"reviewScore":3,"meta":{"revision":0,"created":1547531154838,"version":0},"$loki":158},{"_id":"5c3d65bd3525a329e0c09f3a","address":"6500 W Newberry Rd","location":{"type":"Point","coordinates":[-82.3254754,29.6661211]},"isApproved":true,"items":[],"keys":["Ice Cream & Frozen Yogurt","Food Stands"],"lastUpdated":1547527612472,"name":"Sweetums Sweets & Treats","phone":"(352) 339-5253","price":"$","reviewCount":4,"reviewScore":5,"meta":{"revision":0,"created":1547531154838,"version":0},"$loki":159},{"_id":"5c3d65bd3525a329e0c192e3","address":"4220 NW 16th Blvd","location":{"type":"Point","coordinates":[-82.3254754,29.6661211]},"isApproved":true,"items":[],"keys":["Pizza"],"lastUpdated":1547527612833,"name":"Papa John’s Pizza","phone":"(352) 375-7272","price":"$$","reviewCount":7,"reviewScore":3.5,"meta":{"revision":0,"created":1547531154838,"version":0},"$loki":160},{"_id":"5c3d65bd3525a329e0c07794","address":"1204 N Main St","location":{"type":"Point","coordinates":[-82.3245091,29.6629879]},"isApproved":true,"items":[],"keys":["Pizza","Italian","Chicken Wings"],"lastUpdated":1547527612402,"name":"Pizza Hut","phone":"(352) 338-1776","price":"","reviewCount":5,"reviewScore":1,"meta":{"revision":0,"created":1547531154838,"version":0},"$loki":161},{"_id":"5c3d65bd3525a329e0c1a3a5","address":"13005 SW 1st Rd","location":{"type":"Point","coordinates":[-82.325894,29.663488]},"isApproved":true,"items":[],"keys":["Pizza","Italian","Gluten-Free"],"lastUpdated":1547527612858,"name":"Blue Highway","phone":"(352) 505-6833","price":"$$","reviewCount":113,"reviewScore":4,"meta":{"revision":0,"created":1547531154838,"version":0},"$loki":162},{"_id":"5c3d65bd3525a329e0c0e37b","address":"505 NW 13th St","location":{"type":"Point","coordinates":[-82.3258374,29.6608587]},"isApproved":true,"items":[],"keys":["Sandwiches","Ice Cream & Frozen Yogurt"],"lastUpdated":1547527612572,"name":"SweetBerries Eatery and Frozen Custard","phone":"(352) 378-4972","price":"$","reviewCount":116,"reviewScore":4.5,"meta":{"revision":0,"created":1547531154838,"version":0},"$loki":163},{"_id":"5c3d65bd3525a329e0c14ff3","address":"6825 W Newberry Rd","location":{"type":"Point","coordinates":[-82.324947,29.6607549]},"isApproved":true,"items":[],"keys":["Bakeries","American (Traditional)","Breakfast & Brunch"],"lastUpdated":1547527612736,"name":"Perkins Restaurant & Bakery","phone":"(352) 331-0388","price":"$$","reviewCount":74,"reviewScore":2.5,"meta":{"revision":0,"created":1547531154838,"version":0},"$loki":164},{"_id":"5c3d65bd3525a329e0c0a1fe","address":"231 NW 10th Ave","location":{"type":"Point","coordinates":[-82.327618,29.6609117]},"isApproved":true,"items":[],"keys":["American (New)","Breakfast & Brunch"],"lastUpdated":1547527612473,"name":"afternoon","phone":"(352) 727-7604","price":"$$","reviewCount":92,"reviewScore":4.5,"meta":{"revision":0,"created":1547531154838,"version":0},"$loki":165},{"_id":"5c3d65bd3525a329e0c18a13","address":"2031 NW 13th St","location":{"type":"Point","coordinates":[-82.338805,29.661484]},"isApproved":true,"items":[],"keys":["Chinese","Buffets"],"lastUpdated":1547527612823,"name":"Szechuan Palace","phone":"(352) 337-0888","price":"$","reviewCount":48,"reviewScore":2.5,"meta":{"revision":0,"created":1547531154838,"version":0},"$loki":166},{"_id":"5c3d65bd3525a329e0c12450","address":"4217 NW 16th Blvd","location":{"type":"Point","coordinates":[-82.3385978,29.6715404]},"isApproved":true,"items":[],"keys":["Chinese"],"lastUpdated":1547527612670,"name":"China 88","phone":"(352) 377-7988","price":"$","reviewCount":6,"reviewScore":3.5,"meta":{"revision":0,"created":1547531154838,"version":0},"$loki":167},{"_id":"5c3d65bd3525a329e0bff4a6","address":"4401 NW 25th Pl","location":{"type":"Point","coordinates":[-82.3881376398812,29.6715497728531]},"isApproved":true,"items":[],"keys":["Sushi Bars","Japanese","Coffee & Tea"],"lastUpdated":1547527612216,"name":"Ichiban Sushi","phone":"(352) 375-8880","price":"$$","reviewCount":131,"reviewScore":3.5,"meta":{"revision":0,"created":1547531154838,"version":0},"$loki":168},{"_id":"5c3d65bd3525a329e0c115fa","address":"7770 West Newberry Rd","location":{"type":"Point","coordinates":[-82.38815,29.671968]},"isApproved":true,"items":[],"keys":["Tex-Mex","Mexican"],"lastUpdated":1547527612649,"name":"Moe’s Southwest Grill","phone":"(352) 332-7606","price":"$$","reviewCount":21,"reviewScore":3,"meta":{"revision":0,"created":1547531154838,"version":0},"$loki":169},{"_id":"5c3d65bd3525a329e0c0d8e8","address":"908 NW 69th Ter","location":{"type":"Point","coordinates":[-82.387860021181,29.6730807029072]},"isApproved":true,"items":[],"keys":["Buffets"],"lastUpdated":1547527612555,"name":"Buffet City","phone":"(352) 332-6838","price":"$","reviewCount":1,"reviewScore":2,"meta":{"revision":0,"created":1547531154838,"version":0},"$loki":170},{"_id":"5c3d65bd3525a329e0c0639e","address":"4605 NW 6th St","location":{"type":"Point","coordinates":[-82.387959882617,29.6731781489356]},"isApproved":true,"items":[],"keys":["Gluten-Free"],"lastUpdated":1547527612370,"name":"Taste of Essence","phone":"(352) 363-1310","price":"","reviewCount":1,"reviewScore":5,"meta":{"revision":0,"created":1547531154838,"version":0},"$loki":171},{"_id":"5c3d65bd3525a329e0c10740","address":"6611 W Newberry Rd","location":{"type":"Point","coordinates":[-82.3880859198517,29.6731774428021]},"isApproved":true,"items":[],"keys":["American (New)","Breweries","Pizza"],"lastUpdated":1547527612619,"name":"BJ’s Restaurant & Brewhouse","phone":"(352) 331-8070","price":"$$","reviewCount":200,"reviewScore":3,"meta":{"revision":0,"created":1547531154838,"version":0},"$loki":172},{"_id":"5c3d65bd3525a329e0c0d757","address":"4222 NW 16th Blvd","location":{"type":"Point","coordinates":[-82.3885769,29.67311]},"isApproved":true,"items":[],"keys":["Burgers","Fast Food"],"lastUpdated":1547527612554,"name":"Five Guys","phone":"(352) 264-7790","price":"$$","reviewCount":48,"reviewScore":4,"meta":{"revision":0,"created":1547531154838,"version":0},"$loki":173},{"_id":"5c3d65bd3525a329e0c157a5","address":"215 NW Santa Fe Blvd","location":{"type":"Point","coordinates":[-82.3866751,29.674213]},"isApproved":true,"items":[],"keys":["Southern","Diners","Breakfast & Brunch"],"lastUpdated":1547527612746,"name":"Alice’s Parkside","phone":"(386) 454-1166","price":"$","reviewCount":43,"reviewScore":4,"meta":{"revision":0,"created":1547531154838,"version":0},"$loki":174},{"_id":"5c3d65bd3525a329e0c140b2","address":"210 SW 2nd Ave","location":{"type":"Point","coordinates":[-82.3871408030391,29.6755240340881]},"isApproved":true,"items":[],"keys":["Food Trucks","Seafood"],"lastUpdated":1547527612707,"name":"The London Fish & Chippy","phone":"(352) 409-4645","price":"$","reviewCount":4,"reviewScore":4,"meta":{"revision":0,"created":1547531154838,"version":0},"$loki":175},{"_id":"5c3d65bd3525a329e0c01ec4","address":"214 NW 14th St","location":{"type":"Point","coordinates":[-82.3871689662337,29.6754660649047]},"isApproved":true,"items":[],"keys":["Vegetarian","Vegan","Buffets"],"lastUpdated":1547527612260,"name":"Krishna Lunch","phone":"(352) 224-3090","price":"$","reviewCount":15,"reviewScore":4.5,"meta":{"revision":0,"created":1547531154838,"version":0},"$loki":176},{"_id":"5c3d65bd3525a329e0c05c3a","address":"1018 NW 76th Blvd","location":{"type":"Point","coordinates":[-82.387877,29.674844]},"isApproved":true,"items":[],"keys":["Chicken Shop"],"lastUpdated":1547527612356,"name":"Maui Grill","phone":"","price":"$","reviewCount":19,"reviewScore":4,"meta":{"revision":0,"created":1547531154838,"version":0},"$loki":177},{"_id":"5c3d65bd3525a329e0c072c7","address":"618 NW 60th Street","location":{"type":"Point","coordinates":[-82.388309,29.674967]},"isApproved":true,"items":[],"keys":["Delis","Meat Shops","Sandwiches"],"lastUpdated":1547527612399,"name":"Honey Baked Ham Company","phone":"(352) 331-1253","price":"$$","reviewCount":12,"reviewScore":3.5,"meta":{"revision":0,"created":1547531154838,"version":0},"$loki":178},{"_id":"5c3d65bd3525a329e0c19440","address":"7300 W Newberry Rd","location":{"type":"Point","coordinates":[-82.3883356527786,29.6750196174182]},"isApproved":true,"items":[],"keys":["Fast Food","American (Traditional)"],"lastUpdated":1547527612840,"name":"Hardee’s","phone":"(352) 332-6957","price":"$","reviewCount":10,"reviewScore":3,"meta":{"revision":0,"created":1547531154838,"version":0},"$loki":179},{"_id":"5c3d65bd3525a329e0c18656","address":"1143 NW 76th Blvd","location":{"type":"Point","coordinates":[-82.3875652,29.6757661]},"isApproved":true,"items":[],"keys":["Bakeries","Breakfast & Brunch","Sandwiches"],"lastUpdated":1547527612815,"name":"Bakery Mill & Deli","phone":"(352) 331-3354","price":"$","reviewCount":61,"reviewScore":4,"meta":{"revision":0,"created":1547531154838,"version":0},"$loki":180},{"_id":"5c3d65bd3525a329e0c1848a","address":"4123 NW 16th Blvd","location":{"type":"Point","coordinates":[-82.3877731,29.7014912]},"isApproved":true,"items":[],"keys":["Sandwiches","Fast Food","Delis"],"lastUpdated":1547527612814,"name":"Jimmy John’s","phone":"(352) 727-7722","price":"$","reviewCount":8,"reviewScore":2.5,"meta":{"revision":0,"created":1547531154838,"version":0},"$loki":181},{"_id":"5c3d65bd3525a329e0c09d61","address":"9200 NW 39th Ave","location":{"type":"Point","coordinates":[-82.3880775628497,29.7020344321449]},"isApproved":true,"items":[],"keys":["Italian"],"lastUpdated":1547527612465,"name":"Pomodoro Cafe","phone":"(352) 380-9886","price":"$$","reviewCount":139,"reviewScore":3.5,"meta":{"revision":0,"created":1547531154838,"version":0},"$loki":182},{"_id":"5c3d65bd3525a329e0c0b4c8","address":"6123 N W 8th Ave","location":{"type":"Point","coordinates":[-82.3705952,29.700388]},"isApproved":true,"items":[],"keys":["Burgers","Fast Food"],"lastUpdated":1547527612499,"name":"Burger King","phone":"(352) 331-0494","price":"$","reviewCount":8,"reviewScore":3.5,"meta":{"revision":0,"created":1547531154838,"version":0},"$loki":183},{"_id":"5c3d65bd3525a329e0c0efaa","address":"201 SE 1st St","location":{"type":"Point","coordinates":[-82.3718543,29.699916]},"isApproved":true,"items":[],"keys":["Burgers"],"lastUpdated":1547527612589,"name":"Relish","phone":"(352) 225-3539","price":"$$","reviewCount":53,"reviewScore":3.5,"meta":{"revision":0,"created":1547531154838,"version":0},"$loki":184},{"_id":"5c3d65bd3525a329e0c1641f","address":"5115 NW 39th Ave","location":{"type":"Point","coordinates":[-82.369449797731,29.7000188546578]},"isApproved":true,"items":[],"keys":["Seafood"],"lastUpdated":1547527612764,"name":"Northwest Grille","phone":"(352) 376-0500","price":"$$","reviewCount":88,"reviewScore":4,"meta":{"revision":0,"created":1547531154838,"version":0},"$loki":185},{"_id":"5c3d65bd3525a329e0c12614","address":"15202 NW 147th Dr","location":{"type":"Point","coordinates":[-82.36908,29.700582]},"isApproved":true,"items":[],"keys":["Mexican"],"lastUpdated":1547527612671,"name":"El Toro","phone":"(386) 418-1039","price":"$$","reviewCount":43,"reviewScore":3,"meta":{"revision":0,"created":1547531154838,"version":0},"$loki":186},{"_id":"5c3d65bd3525a329e0c0934d","address":"14816 Main St","location":{"type":"Point","coordinates":[-82.3662514,29.7026706]},"isApproved":true,"items":[],"keys":["Bakeries","Cafes"],"lastUpdated":1547527612452,"name":"Popovers on Main","phone":"(352) 246-8917","price":"$","reviewCount":6,"reviewScore":5,"meta":{"revision":0,"created":1547531154838,"version":0},"$loki":187},{"_id":"5c3d65bd3525a329e0c056ff","address":"140 SW 128th St","location":{"type":"Point","coordinates":[-82.3580108,29.6879951]},"isApproved":true,"items":[],"keys":["Breakfast & Brunch","Comfort Food","Southern"],"lastUpdated":1547527612348,"name":"Maple Street Biscuit Company - Tioga","phone":"(352) 363-6060","price":"","reviewCount":11,"reviewScore":4.5,"meta":{"revision":0,"created":1547531154838,"version":0},"$loki":188},{"_id":"5c3d65bd3525a329e0c06a19","address":"203 NE 39th St","location":{"type":"Point","coordinates":[-82.3544762472641,29.6903913397468]},"isApproved":true,"items":[],"keys":["Mexican"],"lastUpdated":1547527612379,"name":"Taco Del Mar","phone":"(352) 377-0652","price":"$","reviewCount":15,"reviewScore":2.5,"meta":{"revision":0,"created":1547531154838,"version":0},"$loki":189},{"_id":"5c3d65bd3525a329e0c0ab8b","address":"15979 NW US Hwy 441","location":{"type":"Point","coordinates":[-82.3542166,29.688912]},"isApproved":true,"items":[],"keys":["Diners","Breakfast & Brunch","American (Traditional)"],"lastUpdated":1547527612489,"name":"Waffle House","phone":"(386) 462-2201","price":"$","reviewCount":11,"reviewScore":3.5,"meta":{"revision":0,"created":1547531154838,"version":0},"$loki":190},{"_id":"5c3d65bd3525a329e0c17d34","address":"7380 State Rd 100","location":{"type":"Point","coordinates":[-82.359478940926,29.7130474991802]},"isApproved":true,"items":[],"keys":["Sandwiches","Fast Food"],"lastUpdated":1547527612801,"name":"Subway","phone":"(352) 473-0130","price":"$","reviewCount":1,"reviewScore":2,"meta":{"revision":0,"created":1547531154838,"version":0},"$loki":191},{"_id":"5c3d65bd3525a329e0c01c2a","address":"4126 NW 6th St","location":{"type":"Point","coordinates":[-82.2718079,29.7083396]},"isApproved":true,"items":[],"keys":["Mexican"],"lastUpdated":1547527612258,"name":"La Pasadita","phone":"(352) 264-7867","price":"$","reviewCount":117,"reviewScore":4,"meta":{"revision":0,"created":1547531154838,"version":0},"$loki":192},{"_id":"5c3d65bd3525a329e0c171b5","address":"20201 N US Hwy 441","location":{"type":"Point","coordinates":[-82.290298,29.6859768]},"isApproved":true,"items":[],"keys":["Asian Fusion","Diners","Chinese"],"lastUpdated":1547527612782,"name":"Eabyss","phone":"(386) 454-9757","price":"$$","reviewCount":48,"reviewScore":4,"meta":{"revision":0,"created":1547531154838,"version":0},"$loki":193},{"_id":"5c3d65bd3525a329e0c07747","address":"4410 NW 25th Pl","location":{"type":"Point","coordinates":[-82.295538,29.676622]},"isApproved":true,"items":[],"keys":["Italian","Seafood"],"lastUpdated":1547527612402,"name":"Francesca’s Trattoria","phone":"(352) 378-7152","price":"$$","reviewCount":115,"reviewScore":3.5,"meta":{"revision":0,"created":1547531154838,"version":0},"$loki":194},{"_id":"5c3d65bd3525a329e0c0f675","address":"14218 W Newberry Rd","location":{"type":"Point","coordinates":[-82.3000932,29.6692225]},"isApproved":true,"items":[],"keys":["Japanese","Sushi Bars"],"lastUpdated":1547527612599,"name":"Fuji Sushi","phone":"(352) 332-9888","price":"$$","reviewCount":67,"reviewScore":4,"meta":{"revision":0,"created":1547531154838,"version":0},"$loki":195},{"_id":"5c3d65bd3525a329e0c162de","address":"211 W University Ave","location":{"type":"Point","coordinates":[-82.2767336308075,29.6865091361198]},"isApproved":true,"items":[],"keys":["Bars","Music Venues","Cafeteria"],"lastUpdated":1547527612763,"name":"Hardback Cafe","phone":"(352) 317-1997","price":"$","reviewCount":3,"reviewScore":4.5,"meta":{"revision":0,"created":1547531154838,"version":0},"$loki":196},{"_id":"5c3d65bd3525a329e0c111d5","address":"5200 NW 43rd St","location":{"type":"Point","coordinates":[-82.2583297,29.7935588]},"isApproved":true,"items":[],"keys":["Chinese"],"lastUpdated":1547527612641,"name":"China Bowl","phone":"(352) 380-0088","price":"$","reviewCount":22,"reviewScore":4,"meta":{"revision":0,"created":1547531154838,"version":0},"$loki":197},{"_id":"5c3d65bd3525a329e0c17262","address":"12 SW 1st Ave","location":{"type":"Point","coordinates":[-82.4118401,29.7634082]},"isApproved":true,"items":[],"keys":["American (New)"],"lastUpdated":1547527612783,"name":"Paramount Grill","phone":"(352) 378-3398","price":"$$","reviewCount":112,"reviewScore":4,"meta":{"revision":0,"created":1547531154838,"version":0},"$loki":198},{"_id":"5c3d65bd3525a329e0c19678","address":"1760 N Main St","location":{"type":"Point","coordinates":[-82.4118401,29.7634082]},"isApproved":true,"items":[],"keys":["Fast Food"],"lastUpdated":1547527612841,"name":"Burger Spot","phone":"(352) 463-0450","price":"","reviewCount":3,"reviewScore":5,"meta":{"revision":0,"created":1547531154838,"version":0},"$loki":199},{"_id":"5c3d65bd3525a329e0c1afcd","address":"3832 W Newberry Rd","location":{"type":"Point","coordinates":[-82.4293316257111,29.6884557011404]},"isApproved":true,"items":[],"keys":["Sushi Bars","Chinese","Asian Fusion"],"lastUpdated":1547527612876,"name":"Bento Asian Kitchen + Sushi","phone":"(352) 377-8686","price":"$","reviewCount":177,"reviewScore":3.5,"meta":{"revision":0,"created":1547531154838,"version":0},"$loki":200},{"_id":"5c3d65bd3525a329e0c09783","address":"606 NW 75th St","location":{"type":"Point","coordinates":[-82.3908023,29.7021295]},"isApproved":true,"items":[],"keys":["Italian","Seafood","American (Traditional)"],"lastUpdated":1547527612461,"name":"Napolatanos","phone":"(352) 332-6671","price":"$$","reviewCount":116,"reviewScore":3.5,"meta":{"revision":0,"created":1547531154838,"version":0},"$loki":201},{"_id":"5c3d65bd3525a329e0c0fd7e","address":"6419 W Newberry Rd","location":{"type":"Point","coordinates":[-82.3908023,29.7021295]},"isApproved":true,"items":[],"keys":["Fast Food"],"lastUpdated":1547527612608,"name":"Chick-fil-A","phone":"(352) 331-6691","price":"","reviewCount":3,"reviewScore":4.5,"meta":{"revision":0,"created":1547531154838,"version":0},"$loki":202},{"_id":"5c3d65bd3525a329e0c13b53","address":"4908 NW 34th Blvd","location":{"type":"Point","coordinates":[-82.3908023,29.7021295]},"isApproved":true,"items":[],"keys":["Cafes","Bakeries","Breakfast & Brunch"],"lastUpdated":1547527612704,"name":"Dolce Vita Bakery Cafe","phone":"(352) 505-6688","price":"$","reviewCount":74,"reviewScore":4.5,"meta":{"revision":0,"created":1547531154838,"version":0},"$loki":203},{"_id":"5c3d65bd3525a329e0c0abd7","address":"50 NW 13th St","location":{"type":"Point","coordinates":[-82.3904452845454,29.7028398211951]},"isApproved":true,"items":[],"keys":["Fast Food","Pizza"],"lastUpdated":1547527612490,"name":"MOD Pizza","phone":"","price":"","reviewCount":22,"reviewScore":4,"meta":{"revision":0,"created":1547531154838,"version":0},"$loki":204},{"_id":"5c3d65bd3525a329e0c0e232","address":"2370 State Rd 16","location":{"type":"Point","coordinates":[-82.3896593096583,29.7011659424614]},"isApproved":true,"items":[],"keys":["Fast Food","Burgers"],"lastUpdated":1547527612565,"name":"Krystal","phone":"(904) 827-1168","price":"$","reviewCount":23,"reviewScore":2.5,"meta":{"revision":0,"created":1547531154838,"version":0},"$loki":205},{"_id":"5c3d65bd3525a329e0c188ae","address":"1340 E University Ave","location":{"type":"Point","coordinates":[-82.3901723,29.6883073]},"isApproved":true,"items":[],"keys":["Chicken Wings","Seafood"],"lastUpdated":1547527612822,"name":"Hook Fish & Chicken","phone":"(352) 505-0300","price":"$","reviewCount":10,"reviewScore":3.5,"meta":{"revision":0,"created":1547531154838,"version":0},"$loki":206},{"_id":"5c3d65bd3525a329e0c149dd","address":"1724 W University Ave","location":{"type":"Point","coordinates":[-82.3928424,29.6890031]},"isApproved":true,"items":[],"keys":["Sandwiches","Delis","Fast Food"],"lastUpdated":1547527612728,"name":"Jimmy John’s","phone":"(352) 375-7222","price":"$","reviewCount":28,"reviewScore":3,"meta":{"revision":0,"created":1547531154838,"version":0},"$loki":207},{"_id":"5c3d65bd3525a329e0c087f3","address":"525 State Rd 16","location":{"type":"Point","coordinates":[-82.395234,29.689146]},"isApproved":true,"items":[],"keys":["Burgers","Gastropubs","Sandwiches"],"lastUpdated":1547527612428,"name":"The Press","phone":"(904) 217-8254","price":"$$","reviewCount":177,"reviewScore":4.5,"meta":{"revision":0,"created":1547531154838,"version":0},"$loki":208},{"_id":"5c3d65bd3525a329e0bffefa","address":"2700 Florida 16","location":{"type":"Point","coordinates":[-82.3950967,29.6889934]},"isApproved":true,"items":[],"keys":["American (Traditional)","Food Court"],"lastUpdated":1547527612223,"name":"Colossal Dogs & Burgers","phone":"","price":"","reviewCount":4,"reviewScore":4.5,"meta":{"revision":0,"created":1547531154838,"version":0},"$loki":209},{"_id":"5c3d65bd3525a329e0c1aa91","address":"2226 NW 6th St","location":{"type":"Point","coordinates":[-82.394249,29.689129]},"isApproved":true,"items":[],"keys":["Breakfast & Brunch","Diners"],"lastUpdated":1547527612868,"name":"Sugar Creek Restaurant","phone":"(352) 505-5538","price":"$","reviewCount":90,"reviewScore":3.5,"meta":{"revision":0,"created":1547531154838,"version":0},"$loki":210},{"_id":"5c3d65bd3525a329e0c0a067","address":"17 NW 17th St","location":{"type":"Point","coordinates":[-82.3957334986665,29.6904443381928]},"isApproved":true,"items":[],"keys":["Gluten-Free","American (Traditional)"],"lastUpdated":1547527612472,"name":"Grill Fresh","phone":"(352) 505-5282","price":"$","reviewCount":70,"reviewScore":4,"meta":{"revision":0,"created":1547531154838,"version":0},"$loki":211},{"_id":"5c3d65bd3525a329e0c07233","address":"2441 NW 43rd St","location":{"type":"Point","coordinates":[-82.3982745,29.6882295]},"isApproved":true,"items":[],"keys":["Bagels","Breakfast & Brunch"],"lastUpdated":1547527612398,"name":"Bageland Thornebrook","phone":"(352) 371-3354","price":"$","reviewCount":40,"reviewScore":4,"meta":{"revision":0,"created":1547531154838,"version":0},"$loki":212},{"_id":"5c3d65bd3525a329e0c044ad","address":"4401 NW 25th Pl","location":{"type":"Point","coordinates":[-82.397939,29.68821]},"isApproved":true,"items":[],"keys":["Delis","Breakfast & Brunch","American (Traditional)"],"lastUpdated":1547527612322,"name":"43rd Street Deli & Breakfast House","phone":"(352) 373-2927","price":"$$","reviewCount":91,"reviewScore":4,"meta":{"revision":0,"created":1547531154838,"version":0},"$loki":213},{"_id":"5c3d65bd3525a329e0c0c724","address":"5011 NW 34th St","location":{"type":"Point","coordinates":[-82.3903016,29.6765028]},"isApproved":true,"items":[],"keys":["Ice Cream & Frozen Yogurt","Mexican"],"lastUpdated":1547527612525,"name":"El Indio Real Mexican Food","phone":"(352) 336-4441","price":"$","reviewCount":48,"reviewScore":3.5,"meta":{"revision":0,"created":1547531154838,"version":0},"$loki":214},{"_id":"5c3d65bd3525a329e0c0fe0a","address":"3325 W. University Avenue","location":{"type":"Point","coordinates":[-82.3894095,29.6757482]},"isApproved":true,"items":[],"keys":["Burgers","Fast Food"],"lastUpdated":1547527612608,"name":"Checkers","phone":"(352) 377-7119","price":"$","reviewCount":18,"reviewScore":3,"meta":{"revision":0,"created":1547531154838,"version":0},"$loki":215},{"_id":"5c3d65bd3525a329e0c092a4","address":"2410 NW 43rd St","location":{"type":"Point","coordinates":[-82.3902617,29.675003027621]},"isApproved":true,"items":[],"keys":["Latin American"],"lastUpdated":1547527612452,"name":"Los Pollos Rotisserie & Grill","phone":"(352) 225-3231","price":"","reviewCount":14,"reviewScore":4,"meta":{"revision":0,"created":1547531154838,"version":0},"$loki":216},{"_id":"5c3d65bd3525a329e0c06793","address":"619 W University Ave","location":{"type":"Point","coordinates":[-82.389993951367,29.6757102440601]},"isApproved":true,"items":[],"keys":["Caribbean","Vegetarian"],"lastUpdated":1547527612378,"name":"Reggae Shack Cafe","phone":"(352) 377-5464","price":"$$","reviewCount":426,"reviewScore":4,"meta":{"revision":0,"created":1547531154838,"version":0},"$loki":217},{"_id":"5c3d65bd3525a329e0c095ce","address":"6401 W Newberry Rd","location":{"type":"Point","coordinates":[-82.3905691,29.6756394]},"isApproved":true,"items":[],"keys":["Sports Bars","American (Traditional)","Chicken Wings"],"lastUpdated":1547527612453,"name":"Buffalo Wild Wings","phone":"(352) 331-9685","price":"$$","reviewCount":54,"reviewScore":2.5,"meta":{"revision":0,"created":1547531154838,"version":0},"$loki":218},{"_id":"5c3d65bd3525a329e0c12b2b","address":"4150 NW 16th Blvd","location":{"type":"Point","coordinates":[-82.3905691,29.6756394]},"isApproved":true,"items":[],"keys":["American (New)","Breakfast & Brunch"],"lastUpdated":1547527612680,"name":"The Flying Biscuit Cafe","phone":"(352) 373-9500","price":"$$","reviewCount":303,"reviewScore":3.5,"meta":{"revision":0,"created":1547531154838,"version":0},"$loki":219},{"_id":"5c3d65bd3525a329e0c09111","address":"5901 NE Waldo Rd","location":{"type":"Point","coordinates":[-82.4298448436554,29.6882752131869]},"isApproved":true,"items":[],"keys":["Stadiums & Arenas","American (Traditional)","Amateur Sports Teams"],"lastUpdated":1547527612446,"name":"Tailgate Guys","phone":"(352) 375-2222","price":"","reviewCount":3,"reviewScore":5,"meta":{"revision":0,"created":1547531154838,"version":0},"$loki":220},{"_id":"5c3d65bd3525a329e0c1296d","address":"3412 W University Ave","location":{"type":"Point","coordinates":[-82.450113,29.683111]},"isApproved":true,"items":[],"keys":["Tex-Mex","Fast Food","Mexican"],"lastUpdated":1547527612679,"name":"Burrito Famous","phone":"(352) 672-6654","price":"$","reviewCount":92,"reviewScore":3.5,"meta":{"revision":0,"created":1547531154838,"version":0},"$loki":221},{"_id":"5c3d65bd3525a329e0c0416c","address":"200 W University Ave","location":{"type":"Point","coordinates":[-82.4491149187088,29.6884549874554]},"isApproved":true,"items":[],"keys":["Bakeries","Cuban","Sandwiches"],"lastUpdated":1547527612320,"name":"Flaco’s Cuban Bakery","phone":"(352) 371-2000","price":"$","reviewCount":169,"reviewScore":4,"meta":{"revision":0,"created":1547531154838,"version":0},"$loki":222},{"_id":"5c3d65bd3525a329e0c12164","address":"23352 US-27","location":{"type":"Point","coordinates":[-82.4441736,29.6882475]},"isApproved":true,"items":[],"keys":["Breakfast & Brunch","Sandwiches"],"lastUpdated":1547527612663,"name":"Great Southern Biscuit Company","phone":"(386) 454-7153","price":"","reviewCount":25,"reviewScore":4,"meta":{"revision":0,"created":1547531154838,"version":0},"$loki":223},{"_id":"5c3d65bd3525a329e0c00c96","address":"826 W University","location":{"type":"Point","coordinates":[-82.4415261,29.6884553]},"isApproved":true,"items":[],"keys":["Fast Food","Mexican","Tex-Mex"],"lastUpdated":1547527612231,"name":"Taco Bell","phone":"(352) 373-2949","price":"$","reviewCount":18,"reviewScore":2,"meta":{"revision":0,"created":1547531154838,"version":0},"$loki":224},{"_id":"5c3d65bd3525a329e0c02cc3","address":"2443 State Rd 16","location":{"type":"Point","coordinates":[-82.4409084,29.6884237]},"isApproved":true,"items":[],"keys":["American (Traditional)","Burgers"],"lastUpdated":1547527612293,"name":"Ruby Tuesday","phone":"(904) 829-0950","price":"$$","reviewCount":71,"reviewScore":3.5,"meta":{"revision":0,"created":1547531154838,"version":0},"$loki":225},{"_id":"5c3d65bd3525a329e0c15bf6","address":"14300 W Newberry Rd","location":{"type":"Point","coordinates":[-82.4397217,29.6877976]},"isApproved":true,"items":[],"keys":["Pizza"],"lastUpdated":1547527612754,"name":"Domino’s Pizza","phone":"(352) 333-3333","price":"$","reviewCount":4,"reviewScore":4,"meta":{"revision":0,"created":1547531154838,"version":0},"$loki":226},{"_id":"5c3d65bd3525a329e0c06aa5","address":"6419 W Newberry Rd","location":{"type":"Point","coordinates":[-82.433236,29.680227]},"isApproved":true,"items":[],"keys":["Japanese"],"lastUpdated":1547527612380,"name":"Asian Chao - Maki Of Japan","phone":"(352) 331-0040","price":"","reviewCount":1,"reviewScore":1,"meta":{"revision":0,"created":1547531154838,"version":0},"$loki":227},{"_id":"5c3d65bd3525a329e0c09481","address":"423 N State Road 19","location":{"type":"Point","coordinates":[-82.439474,29.691582]},"isApproved":true,"items":[],"keys":["Chicken Wings","Fast Food","Salad"],"lastUpdated":1547527612453,"name":"Zaxby’s Chicken Fingers & Buffalo Wings","phone":"(386) 328-3495","price":"$","reviewCount":9,"reviewScore":3,"meta":{"revision":0,"created":1547531154838,"version":0},"$loki":228},{"_id":"5c3d65bd3525a329e0c039a1","address":"9260 NW 39th Ave","location":{"type":"Point","coordinates":[-82.4414893984794,29.6896430498617]},"isApproved":true,"items":[],"keys":["Fast Food","Burgers","Coffee & Tea"],"lastUpdated":1547527612310,"name":"McDonald’s","phone":"(352) 374-7736","price":"$","reviewCount":25,"reviewScore":1.5,"meta":{"revision":0,"created":1547531154838,"version":0},"$loki":229},{"_id":"5c3d65bd3525a329e0c0cb87","address":"9213 N.W. 39th Avenue","location":{"type":"Point","coordinates":[-82.440501,29.691609]},"isApproved":true,"items":[],"keys":["Barbeque","American (New)"],"lastUpdated":1547527612533,"name":"Sonny’s BBQ","phone":"(352) 381-7333","price":"$$","reviewCount":33,"reviewScore":3.5,"meta":{"revision":0,"created":1547531154838,"version":0},"$loki":230},{"_id":"5c3d65bd3525a329e0c18457","address":"9700 NW 39th Ave","location":{"type":"Point","coordinates":[-82.4497163,29.6895379]},"isApproved":true,"items":[],"keys":["Ice Cream & Frozen Yogurt","Fast Food"],"lastUpdated":1547527612814,"name":"Dairy Queen","phone":"(352) 333-0830","price":"$","reviewCount":9,"reviewScore":1.5,"meta":{"revision":0,"created":1547531154838,"version":0},"$loki":231},{"_id":"5c3d65bd3525a329e0c024d0","address":"3842 W Newberry Rd","location":{"type":"Point","coordinates":[-82.45207,29.691926]},"isApproved":true,"items":[],"keys":["American (Traditional)","Seafood","Sports Bars"],"lastUpdated":1547527612277,"name":"Gator’s Dockside of Gainesville","phone":"(352) 338-4445","price":"$$","reviewCount":125,"reviewScore":3.5,"meta":{"revision":0,"created":1547531154838,"version":0},"$loki":232},{"_id":"5c3d65bd3525a329e0bffa1d","address":"706 W University Ave","location":{"type":"Point","coordinates":[-82.4231478,29.6632973]},"isApproved":true,"items":[],"keys":["Breakfast & Brunch","American (New)","Pizza"],"lastUpdated":1547527612220,"name":"Leonardo’s 706","phone":"(352) 378-2001","price":"$$","reviewCount":156,"reviewScore":4,"meta":{"revision":0,"created":1547531154838,"version":0},"$loki":233},{"_id":"5c3d65bd3525a329e0c10fa5","address":"965 State Road 16","location":{"type":"Point","coordinates":[-82.421159,29.659568]},"isApproved":true,"items":[],"keys":["Chicken Wings","Salad","Sports Bars"],"lastUpdated":1547527612640,"name":"Dick’s Wings & Grill - St. Augustine","phone":"(904) 825-4540","price":"$$","reviewCount":18,"reviewScore":3,"meta":{"revision":0,"created":1547531154838,"version":0},"$loki":234},{"_id":"5c3d65bd3525a329e0c0775c","address":"5130 NW 13th St","location":{"type":"Point","coordinates":[-82.421823,29.659264]},"isApproved":true,"items":[],"keys":["Breakfast & Brunch","Diners","American (Traditional)"],"lastUpdated":1547527612402,"name":"Waffle House","phone":"(352) 371-6079","price":"$","reviewCount":18,"reviewScore":3,"meta":{"revision":0,"created":1547531154838,"version":0},"$loki":235},{"_id":"5c3d65bd3525a329e0c17da5","address":"965 State Road 16","location":{"type":"Point","coordinates":[-82.4238278,29.6593519]},"isApproved":true,"items":[],"keys":["Pizza"],"lastUpdated":1547527612801,"name":"Papa Murphy’s","phone":"(904) 824-8080","price":"$$","reviewCount":5,"reviewScore":4.5,"meta":{"revision":0,"created":1547531154838,"version":0},"$loki":236},{"_id":"5c3d65bd3525a329e0c02772","address":"15408 NE US Highway 301","location":{"type":"Point","coordinates":[-82.4242216721177,29.6593167048543]},"isApproved":true,"items":[],"keys":["Burgers","Fast Food"],"lastUpdated":1547527612284,"name":"Wendy’s","phone":"(352) 468-1446","price":"$","reviewCount":17,"reviewScore":1.5,"meta":{"revision":0,"created":1547531154838,"version":0},"$loki":237},{"_id":"5c3d65bd3525a329e0c01799","address":"1310 NW 23rd Ave","location":{"type":"Point","coordinates":[-82.424565,29.66014]},"isApproved":true,"items":[],"keys":["Pizza","Italian","Chicken Wings"],"lastUpdated":1547527612250,"name":"Hungry Howie’s Pizza & Subs","phone":"(352) 374-6600","price":"$","reviewCount":6,"reviewScore":2.5,"meta":{"revision":0,"created":1547531154838,"version":0},"$loki":238},{"_id":"5c3d65bd3525a329e0c0f840","address":"1702 W University Ave","location":{"type":"Point","coordinates":[-82.425111,29.66008]},"isApproved":true,"items":[],"keys":["Salad","Sandwiches","American (Traditional)"],"lastUpdated":1547527612600,"name":"Designer Greens","phone":"(352) 672-6800","price":"$","reviewCount":24,"reviewScore":3.5,"meta":{"revision":0,"created":1547531154838,"version":0},"$loki":239},{"_id":"5c3d65bd3525a329e0c03f39","address":"1017 W University Ave","location":{"type":"Point","coordinates":[-82.4250481,29.6619893]},"isApproved":true,"items":[],"keys":["Irish"],"lastUpdated":1547527612319,"name":"Shamrock Irish Restaurant and Pub","phone":"(352) 374-6777","price":"$","reviewCount":3,"reviewScore":3,"meta":{"revision":0,"created":1547531154838,"version":0},"$loki":240},{"_id":"5c3d65bd3525a329e0c1b101","address":"4780 NW 39th Ave","location":{"type":"Point","coordinates":[-82.4250481,29.6619893]},"isApproved":true,"items":[],"keys":["Cafes","Breakfast & Brunch","Sandwiches"],"lastUpdated":1547527612877,"name":"Harvest Thyme Cafe","phone":"(352) 519-5344","price":"$$","reviewCount":57,"reviewScore":4,"meta":{"revision":0,"created":1547531154838,"version":0},"$loki":241},{"_id":"5c3d65bd3525a329e0c16cbf","address":"526 NW 60th St","location":{"type":"Point","coordinates":[-82.4255215,29.6600728]},"isApproved":true,"items":[],"keys":["Sushi Bars","Japanese"],"lastUpdated":1547527612774,"name":"Yamato Japanese Steakhouse","phone":"(352) 332-4466","price":"$$","reviewCount":133,"reviewScore":2.5,"meta":{"revision":0,"created":1547531154838,"version":0},"$loki":242},{"_id":"5c3d65bd3525a329e0c155e9","address":"1620 W University Ave","location":{"type":"Point","coordinates":[-82.424172,29.6582404]},"isApproved":true,"items":[],"keys":["Sandwiches"],"lastUpdated":1547527612746,"name":"Larry’s Giant Subs","phone":"(352) 271-7963","price":"$","reviewCount":33,"reviewScore":4,"meta":{"revision":0,"created":1547531154838,"version":0},"$loki":243},{"_id":"5c3d65bd3525a329e0c04f66","address":"13 W University Ave","location":{"type":"Point","coordinates":[-82.4228384,29.6583216]},"isApproved":true,"items":[],"keys":["Cafes"],"lastUpdated":1547527612339,"name":"The Grand Cafe","phone":"(352) 505-0242","price":"","reviewCount":6,"reviewScore":3.5,"meta":{"revision":0,"created":1547531154838,"version":0},"$loki":244},{"_id":"5c3d65bd3525a329e0c1a866","address":"6910 W Newberry Rd","location":{"type":"Point","coordinates":[-82.422783,29.658036]},"isApproved":true,"items":[],"keys":["Seafood","American (Traditional)"],"lastUpdated":1547527612867,"name":"Red Lobster","phone":"(352) 331-2670","price":"$$","reviewCount":36,"reviewScore":2.5,"meta":{"revision":0,"created":1547531154838,"version":0},"$loki":245},{"_id":"5c3d65bd3525a329e0c01061","address":"7331 NW 4th Blvd","location":{"type":"Point","coordinates":[-82.421147,29.655129]},"isApproved":true,"items":[],"keys":["Pizza","Italian","Chicken Wings"],"lastUpdated":1547527612238,"name":"Pizza Hut","phone":"(352) 332-0032","price":"$$","reviewCount":6,"reviewScore":2,"meta":{"revision":0,"created":1547531154838,"version":0},"$loki":246},{"_id":"5c3d65bd3525a329e0c0473f","address":"618 NW 60th St","location":{"type":"Point","coordinates":[-82.410443,29.65716]},"isApproved":true,"items":[],"keys":["Delis","Salad","Sandwiches"],"lastUpdated":1547527612329,"name":"McAlister’s Deli","phone":"(352) 331-8900","price":"$","reviewCount":19,"reviewScore":3,"meta":{"revision":0,"created":1547531154838,"version":0},"$loki":247},{"_id":"5c3d65bd3525a329e0c01464","address":"1525 NW 23rd Ave","location":{"type":"Point","coordinates":[-82.4108404666185,29.6580971093436]},"isApproved":true,"items":[],"keys":["Sandwiches","Fast Food"],"lastUpdated":1547527612249,"name":"Subway","phone":"(352) 373-8330","price":"$","reviewCount":3,"reviewScore":4,"meta":{"revision":0,"created":1547531154838,"version":0},"$loki":248},{"_id":"5c3d65bd3525a329e0c0204d","address":"501 N State Road 19","location":{"type":"Point","coordinates":[-82.4106760938703,29.6580677378228]},"isApproved":true,"items":[],"keys":["Buffets"],"lastUpdated":1547527612274,"name":"Golden Corral","phone":"(386) 328-4040","price":"$$","reviewCount":18,"reviewScore":2,"meta":{"revision":0,"created":1547531154838,"version":0},"$loki":249},{"_id":"5c3d65bd3525a329e0c15942","address":"1340 W University Ave","location":{"type":"Point","coordinates":[-82.410805298463,29.6579222654755]},"isApproved":true,"items":[],"keys":["Fast Food"],"lastUpdated":1547527612747,"name":"Chick-fil-A","phone":"(352) 376-4000","price":"$","reviewCount":6,"reviewScore":3,"meta":{"revision":0,"created":1547531154838,"version":0},"$loki":250},{"_id":"5c3d65bd3525a329e0c1adb5","address":"2730 State Rd 16","location":{"type":"Point","coordinates":[-82.411227480703,29.6577950456383]},"isApproved":true,"items":[],"keys":["Asian Fusion"],"lastUpdated":1547527612875,"name":"Lemongrass Asian Bistro","phone":"(904) 829-8822","price":"$$","reviewCount":102,"reviewScore":3,"meta":{"revision":0,"created":1547531154838,"version":0},"$loki":251},{"_id":"5c3d65bd3525a329e0c09cf7","address":"210 SW 2nd Ave","location":{"type":"Point","coordinates":[-82.4113423,29.657234]},"isApproved":true,"items":[],"keys":["Pizza"],"lastUpdated":1547527612465,"name":"Five Star Pizza","phone":"(352) 375-5600","price":"$","reviewCount":24,"reviewScore":3,"meta":{"revision":0,"created":1547531154838,"version":0},"$loki":252},{"_id":"5c3d65bd3525a329e0c10cc6","address":"19975 NW 244th St","location":{"type":"Point","coordinates":[-82.4113423,29.657234]},"isApproved":true,"items":[],"keys":["Fast Food","Sandwiches"],"lastUpdated":1547527612633,"name":"Subway","phone":"(386) 454-5302","price":"$","reviewCount":3,"reviewScore":3.5,"meta":{"revision":0,"created":1547531154838,"version":0},"$loki":253},{"_id":"5c3d65bd3525a329e0c113e6","address":"6419 W Newberry Rd","location":{"type":"Point","coordinates":[-82.4113423,29.657234]},"isApproved":true,"items":[],"keys":["Burgers","Fast Food"],"lastUpdated":1547527612642,"name":"Wendy’s","phone":"(352) 331-0820","price":"$","reviewCount":3,"reviewScore":1.5,"meta":{"revision":0,"created":1547531154838,"version":0},"$loki":254},