{"filename":"-82.75-31.75","collections":[{"name":"restaurants","data":[{"_id":"5c3d65bd3525a329e0c0ca71","address":"174 Plantation Dr","location":{"type":"Point","coordinates":[-82.498271,31.538146]},"isApproved":true,"items":[],"keys":["Hotels","American (New)"],"lastUpdated":1547527612532,"name":"The Inn","phone":"(912) 632-3000","price":"$$","reviewCount":6,"reviewScore":3.5,"meta":{"revision":0,"created":1547531149781,"version":0},"$loki":1},{"_id":"5c3d65bd3525a329e0c116cc","address":"106 W 9th St","location":{"type":"Point","coordinates":[-82.4623499,31.5433386]},"isApproved":true,"items":[],"keys":["Barbeque"],"lastUpdated":1547527612649,"name":"Shorty’s Pit Stop Bbq","phone":"(912) 632-1809","price":"","reviewCount":2,"reviewScore":4.5,"meta":{"revision":0,"created":1547531149781,"version":0},"$loki":2},{"_id":"5c3d65bd3525a329e0c0ccd2","address":"1070 Old Bell Lake Rd","location":{"type":"Point","coordinates":[-82.6327201724052,31.5181775285717]},"isApproved":true,"items":[],"keys":["Barbeque"],"lastUpdated":1547527612534,"name":"Barnyard Bbq","phone":"(912) 389-3380","price":"$","reviewCount":2,"reviewScore":5,"meta":{"revision":0,"created":1547531149781,"version":0},"$loki":3},{"_id":"5c3d65bd3525a329e0c0a39c","address":"1009 Van Streat Hwy","location":{"type":"Point","coordinates":[-82.6323698,31.5181783]},"isApproved":true,"items":[],"keys":["Diners"],"lastUpdated":1547527612474,"name":"Nicholls Diner","phone":"(912) 345-5579","price":"","reviewCount":1,"reviewScore":4,"meta":{"revision":0,"created":1547531149781,"version":0},"$loki":4},{"_id":"5c3d65bd3525a329e0c14f85","address":"998 Sunset Blvd","location":{"type":"Point","coordinates":[-82.6397958,31.5171797]},"isApproved":true,"items":[],"keys":["Burgers"],"lastUpdated":1547527612736,"name":"Burger King","phone":"(912) 427-7870","price":"$","reviewCount":3,"reviewScore":3,"meta":{"revision":0,"created":1547531149781,"version":0},"$loki":5},{"_id":"5c3d65bd3525a329e0c18c7b","address":"600 Van Streat Hwy","location":{"type":"Point","coordinates":[-82.8511539,31.5163297]},"isApproved":true,"items":[],"keys":["Chinese"],"lastUpdated":1547527612825,"name":"No 1 Chinese Food","phone":"(912) 345-0995","price":"","reviewCount":2,"reviewScore":3,"meta":{"revision":0,"created":1547531149781,"version":0},"$loki":6},{"_id":"5c3d65bd3525a329e0c000ea","address":"1413 US Highway 221 N","location":{"type":"Point","coordinates":[-82.8500924,31.514871]},"isApproved":true,"items":[],"keys":["Convenience Stores","Pizza"],"lastUpdated":1547527612224,"name":"MacK’s","phone":"(912) 384-7324","price":"","reviewCount":2,"reviewScore":4,"meta":{"revision":0,"created":1547531149781,"version":0},"$loki":7},{"_id":"5c3d65bd3525a329e0c04782","address":"1902 Madison Ave N","location":{"type":"Point","coordinates":[-82.8499895,31.5094265]},"isApproved":true,"items":[],"keys":["Seafood"],"lastUpdated":1547527612329,"name":"Spivey’s Catfish House","phone":"(912) 384-4847","price":"$$","reviewCount":6,"reviewScore":3.5,"meta":{"revision":0,"created":1547531149781,"version":0},"$loki":8},{"_id":"5c3d65bd3525a329e0c10e83","address":"980 Sunset Blvd","location":{"type":"Point","coordinates":[-82.8490315385128,31.5103976151982]},"isApproved":true,"items":[],"keys":["Chinese"],"lastUpdated":1547527612634,"name":"Grand Buffet","phone":"(912) 588-0609","price":"","reviewCount":2,"reviewScore":2,"meta":{"revision":0,"created":1547531149781,"version":0},"$loki":9},{"_id":"5c3d65bd3525a329e0c02648","address":"928 S Pierce St","location":{"type":"Point","coordinates":[-82.8500532,31.5136005]},"isApproved":true,"items":[],"keys":["Sandwiches","Fast Food"],"lastUpdated":1547527612284,"name":"Subway","phone":"(912) 632-2365","price":"","reviewCount":1,"reviewScore":5,"meta":{"revision":0,"created":1547531149781,"version":0},"$loki":10},{"_id":"5c3d65bd3525a329e0c01ba5","address":"907 Peterson Ave S","location":{"type":"Point","coordinates":[-82.8516627,31.5089492]},"isApproved":true,"items":[],"keys":["Chinese"],"lastUpdated":1547527612258,"name":"Peking House","phone":"(912) 384-9141","price":"$","reviewCount":9,"reviewScore":3,"meta":{"revision":0,"created":1547531149781,"version":0},"$loki":11},{"_id":"5c3d65bd3525a329e0c06806","address":"803 S Pierce St","location":{"type":"Point","coordinates":[-82.8520874,31.5085583]},"isApproved":true,"items":[],"keys":["Pizza","Italian"],"lastUpdated":1547527612378,"name":"Pizza Hut","phone":"(912) 632-8629","price":"","reviewCount":2,"reviewScore":3,"meta":{"revision":0,"created":1547531149781,"version":0},"$loki":12},{"_id":"5c3d65bd3525a329e0c0ca65","address":"919 S 1st St","location":{"type":"Point","coordinates":[-82.8507475,31.5066941]},"isApproved":true,"items":[],"keys":["Fast Food","Burgers","Ice Cream & Frozen Yogurt"],"lastUpdated":1547527612532,"name":"Sonic Drive-In","phone":"(912) 427-6642","price":"$","reviewCount":5,"reviewScore":3.5,"meta":{"revision":0,"created":1547531149781,"version":0},"$loki":13},{"_id":"5c3d65bd3525a329e0c109df","address":"1009 Van St Hwy","location":{"type":"Point","coordinates":[-82.8504744,31.5076652]},"isApproved":true,"items":[],"keys":["Pizza"],"lastUpdated":1547527612626,"name":"godfather’s pizza express","phone":"(912) 345-1111","price":"","reviewCount":2,"reviewScore":3,"meta":{"revision":0,"created":1547531149781,"version":0},"$loki":14},{"_id":"5c3d65bd3525a329e0c1ad40","address":"1324 South Madison Avenue","location":{"type":"Point","coordinates":[-82.8501845,31.508402]},"isApproved":true,"items":[],"keys":["Burgers","American (Traditional)"],"lastUpdated":1547527612875,"name":"Ruby Tuesday","phone":"(912) 393-7829","price":"$$","reviewCount":11,"reviewScore":2.5,"meta":{"revision":0,"created":1547531149781,"version":0},"$loki":15},{"_id":"5c3d65bd3525a329e0c02fd4","address":"1002 Peterson Ave S","location":{"type":"Point","coordinates":[-82.8451230077184,31.5032134157937]},"isApproved":true,"items":[],"keys":["Mexican"],"lastUpdated":1547527612295,"name":"Elpotro Mexican Restaurant","phone":"(912) 383-6172","price":"$","reviewCount":5,"reviewScore":4.5,"meta":{"revision":0,"created":1547531149781,"version":0},"$loki":16},{"_id":"5c3d65bd3525a329e0c084ef","address":"1322 Madison Ave S","location":{"type":"Point","coordinates":[-82.8502846,31.4976588]},"isApproved":true,"items":[],"keys":["Fast Food","Sandwiches"],"lastUpdated":1547527612427,"name":"Arbys","phone":"(912) 383-8611","price":"","reviewCount":2,"reviewScore":3.5,"meta":{"revision":0,"created":1547531149781,"version":0},"$loki":17},{"_id":"5c3d65bd3525a329e0c15a3e","address":"1100 South Peterson Ave","location":{"type":"Point","coordinates":[-82.8503057,31.4979929]},"isApproved":true,"items":[],"keys":["Burgers","Fast Food"],"lastUpdated":1547527612748,"name":"Checkers","phone":"(912) 292-9039","price":"","reviewCount":3,"reviewScore":3.5,"meta":{"revision":0,"created":1547531149781,"version":0},"$loki":18},{"_id":"5c3d65bd3525a329e0c02c5d","address":"1099 N First St","location":{"type":"Point","coordinates":[-82.8504006914897,31.498905314026]},"isApproved":true,"items":[],"keys":["Diners","Breakfast & Brunch","American (Traditional)"],"lastUpdated":1547527612293,"name":"Waffle House","phone":"(912) 530-7612","price":"","reviewCount":4,"reviewScore":3.5,"meta":{"revision":0,"created":1547531149781,"version":0},"$loki":19},{"_id":"5c3d65bd3525a329e0c14f53","address":"1400 S Gaskin Ave","location":{"type":"Point","coordinates":[-82.8512903,31.498188]},"isApproved":true,"items":[],"keys":["American (Traditional)"],"lastUpdated":1547527612736,"name":"Carter’s Restaurant","phone":"(912) 384-3562","price":"","reviewCount":2,"reviewScore":2,"meta":{"revision":0,"created":1547531149781,"version":0},"$loki":20},{"_id":"5c3d65bd3525a329e0c06cc9","address":"1314 S Peterson Ave","location":{"type":"Point","coordinates":[-82.8511833,31.4984975]},"isApproved":true,"items":[],"keys":["Seafood","Fast Food","American (Traditional)"],"lastUpdated":1547527612386,"name":"Captain D’s","phone":"(912) 384-2102","price":"","reviewCount":1,"reviewScore":3,"meta":{"revision":0,"created":1547531149781,"version":0},"$loki":21},{"_id":"5c3d65bd3525a329e0c08a24","address":"1351 Bowens Mill Rd SE","location":{"type":"Point","coordinates":[-82.8509157,31.4846891]},"isApproved":true,"items":[],"keys":["Japanese"],"lastUpdated":1547527612430,"name":"Fuji Express Japanese Steak House","phone":"(912) 393-3991","price":"$","reviewCount":1,"reviewScore":1,"meta":{"revision":0,"created":1547531149781,"version":0},"$loki":22},{"_id":"5c3d65bd3525a329e0c1464e","address":"1600 S Peterson Ave","location":{"type":"Point","coordinates":[-82.8509651497006,31.4852284799244]},"isApproved":true,"items":[],"keys":["Mexican","Bars"],"lastUpdated":1547527612715,"name":"El 1800 Mexican Restaurant","phone":"(912) 260-0090","price":"$$","reviewCount":33,"reviewScore":4,"meta":{"revision":0,"created":1547531149781,"version":0},"$loki":23},{"_id":"5c3d65bd3525a329e0c17749","address":"1175 E Cherry St","location":{"type":"Point","coordinates":[-82.8518203,31.4829823]},"isApproved":true,"items":[],"keys":["Chinese"],"lastUpdated":1547527612791,"name":"East Wok","phone":"(912) 415-3068","price":"","reviewCount":3,"reviewScore":3.5,"meta":{"revision":0,"created":1547531149781,"version":0},"$loki":24},{"_id":"5c3d65bd3525a329e0c01591","address":"1200 S Peterson","location":{"type":"Point","coordinates":[-82.8454900564141,31.4882500066841]},"isApproved":true,"items":[],"keys":["Mexican","Tex-Mex","Fast Food"],"lastUpdated":1547527612249,"name":"Taco Bell","phone":"(912) 384-5849","price":"","reviewCount":2,"reviewScore":2.5,"meta":{"revision":0,"created":1547531149781,"version":0},"$loki":25},{"_id":"5c3d65bd3525a329e0c0ba19","address":"1090 N 1st St","location":{"type":"Point","coordinates":[-82.8458457,31.4867361]},"isApproved":true,"items":[],"keys":["Fast Food"],"lastUpdated":1547527612507,"name":"Hardee’s","phone":"(912) 427-9026","price":"$","reviewCount":3,"reviewScore":1.5,"meta":{"revision":0,"created":1547531149781,"version":0},"$loki":26},{"_id":"5c3d65bd3525a329e0c020ec","address":"918 Peterson Ave S","location":{"type":"Point","coordinates":[-82.8505581,31.4884199]},"isApproved":true,"items":[],"keys":["Restaurants"],"lastUpdated":1547527612275,"name":"Dairy Queen","phone":"(912) 384-2167","price":"","reviewCount":2,"reviewScore":3,"meta":{"revision":0,"created":1547531149781,"version":0},"$loki":27},{"_id":"5c3d65bd3525a329e0c0b837","address":"1404 Peterson Ave S","location":{"type":"Point","coordinates":[-82.8506212,31.4872027]},"isApproved":true,"items":[],"keys":["Fast Food","Burgers"],"lastUpdated":1547527612506,"name":"Wendy’s","phone":"(912) 384-1991","price":"","reviewCount":3,"reviewScore":2.5,"meta":{"revision":0,"created":1547531149781,"version":0},"$loki":28},{"_id":"5c3d65bd3525a329e0c1a7d0","address":"1208 Madison Ave S","location":{"type":"Point","coordinates":[-82.850608635582,31.489445133089]},"isApproved":true,"items":[],"keys":["Buffets"],"lastUpdated":1547527612867,"name":"Ole Times Country Buffet","phone":"(912) 260-1605","price":"$","reviewCount":3,"reviewScore":2.5,"meta":{"revision":0,"created":1547531149781,"version":0},"$loki":29},{"_id":"5c3d65bd3525a329e0c01f65","address":"1612 S. Peterson Ave.","location":{"type":"Point","coordinates":[-82.8504109,31.490298]},"isApproved":true,"items":[],"keys":["Diners","Breakfast & Brunch","American (Traditional)"],"lastUpdated":1547527612269,"name":"Huddle House","phone":"(912) 384-7686","price":"","reviewCount":3,"reviewScore":2.5,"meta":{"revision":0,"created":1547531149781,"version":0},"$loki":30},{"_id":"5c3d65bd3525a329e0c0d740","address":"1190 E Cherry St","location":{"type":"Point","coordinates":[-82.850495,31.4897701]},"isApproved":true,"items":[],"keys":["Burgers","Fast Food","Coffee & Tea"],"lastUpdated":1547527612554,"name":"McDonald’s","phone":"(912) 427-6896","price":"$","reviewCount":11,"reviewScore":1.5,"meta":{"revision":0,"created":1547531149781,"version":0},"$loki":31},{"_id":"5c3d65bd3525a329e0c00652","address":"218 Ward St W","location":{"type":"Point","coordinates":[-82.848191,31.490732]},"isApproved":true,"items":[],"keys":["Pizza"],"lastUpdated":1547527612227,"name":"Danny’s Pizza","phone":"(912) 384-2270","price":"$","reviewCount":14,"reviewScore":4,"meta":{"revision":0,"created":1547531149781,"version":0},"$loki":32},{"_id":"5c3d65bd3525a329e0c15edf","address":"1308 Madison Ave S","location":{"type":"Point","coordinates":[-82.849552,31.4929036]},"isApproved":true,"items":[],"keys":["Japanese"],"lastUpdated":1547527612756,"name":"Tokyo Express Japanese Steakhouse","phone":"(912) 384-6773","price":"","reviewCount":6,"reviewScore":4,"meta":{"revision":0,"created":1547531149781,"version":0},"$loki":33},{"_id":"5c3d65bd3525a329e0c1a4ca","address":"1340 Peterson Ave S","location":{"type":"Point","coordinates":[-82.849552,31.4929036]},"isApproved":true,"items":[],"keys":["Fast Food"],"lastUpdated":1547527612859,"name":"Burger King","phone":"(912) 384-3033","price":"","reviewCount":1,"reviewScore":5,"meta":{"revision":0,"created":1547531149781,"version":0},"$loki":34},{"_id":"5c3d65bd3525a329e0c17afe","address":"1300 S Peterson","location":{"type":"Point","coordinates":[-82.850676,31.495825]},"isApproved":true,"items":[],"keys":["Burgers","Fast Food","Coffee & Tea"],"lastUpdated":1547527612799,"name":"McDonald’s","phone":"(912) 384-4344","price":"","reviewCount":7,"reviewScore":3,"meta":{"revision":0,"created":1547531149781,"version":0},"$loki":35},{"_id":"5c3d65bd3525a329e0c00827","address":"235 Peterson Ave S","location":{"type":"Point","coordinates":[-82.8503057,31.4968389]},"isApproved":true,"items":[],"keys":["Restaurants"],"lastUpdated":1547527612228,"name":"Fern Bank","phone":"(912) 384-4385","price":"$$$","reviewCount":7,"reviewScore":3.5,"meta":{"revision":0,"created":1547531149781,"version":0},"$loki":36},{"_id":"5c3d65bd3525a329e0c06adb","address":"201 Ward St W","location":{"type":"Point","coordinates":[-82.850532,31.496537]},"isApproved":true,"items":[],"keys":["Fast Food"],"lastUpdated":1547527612380,"name":"Bobby’s Treat Shop","phone":"(912) 384-3660","price":"$","reviewCount":5,"reviewScore":3.5,"meta":{"revision":0,"created":1547531149781,"version":0},"$loki":37},{"_id":"5c3d65bd3525a329e0c072db","address":"401 Pierce St","location":{"type":"Point","coordinates":[-82.8505371,31.4954094]},"isApproved":true,"items":[],"keys":["Coffee & Tea","Burgers","Fast Food"],"lastUpdated":1547527612399,"name":"McDonald’s","phone":"(912) 632-2444","price":"","reviewCount":2,"reviewScore":2,"meta":{"revision":0,"created":1547531149781,"version":0},"$loki":38},{"_id":"5c3d65bd3525a329e0c0aed8","address":"901 South First Street","location":{"type":"Point","coordinates":[-82.8308851,31.4923206]},"isApproved":true,"items":[],"keys":["Breakfast & Brunch","American (Traditional)","Diners"],"lastUpdated":1547527612491,"name":"Huddle House","phone":"(912) 427-3999","price":"$","reviewCount":1,"reviewScore":4,"meta":{"revision":0,"created":1547531149781,"version":0},"$loki":39},{"_id":"5c3d65bd3525a329e0c1076f","address":"310 N 1st St","location":{"type":"Point","coordinates":[-82.833954,31.508223]},"isApproved":true,"items":[],"keys":["Burgers","Fast Food"],"lastUpdated":1547527612619,"name":"Krystal","phone":"(912) 530-7422","price":"","reviewCount":1,"reviewScore":3,"meta":{"revision":0,"created":1547531149781,"version":0},"$loki":40},{"_id":"5c3d65bd3525a329e0c18e82","address":"1204 Ward St E","location":{"type":"Point","coordinates":[-82.8355429,31.5080178]},"isApproved":true,"items":[],"keys":["Pizza"],"lastUpdated":1547527612831,"name":"Papa John’s Pizza","phone":"(912) 384-0202","price":"","reviewCount":1,"reviewScore":1,"meta":{"revision":0,"created":1547531149781,"version":0},"$loki":41},{"_id":"5c3d65bd3525a329e0c08308","address":"604 S Gaskin Ave","location":{"type":"Point","coordinates":[-82.849993,31.526919]},"isApproved":true,"items":[],"keys":["Mexican"],"lastUpdated":1547527612420,"name":"Rigo’s Taqueria","phone":"(912) 393-3244","price":"","reviewCount":5,"reviewScore":4.5,"meta":{"revision":0,"created":1547531149781,"version":0},"$loki":42},{"_id":"5c3d65bd3525a329e0c0e02c","address":"1220 Madison Ave S","location":{"type":"Point","coordinates":[-82.8492638,31.521995]},"isApproved":true,"items":[],"keys":["Pizza"],"lastUpdated":1547527612564,"name":"Little Caesar’s Pizza","phone":"(912) 384-9595","price":"","reviewCount":1,"reviewScore":1,"meta":{"revision":0,"created":1547531149781,"version":0},"$loki":43},{"_id":"5c3d65bd3525a329e0c144e6","address":"1701 US Hwy 221 N","location":{"type":"Point","coordinates":[-82.81782,31.527931]},"isApproved":true,"items":[],"keys":["Barbeque"],"lastUpdated":1547527612714,"name":"PO Boy’s Bar-B-Que","phone":"(912) 384-1704","price":"","reviewCount":1,"reviewScore":5,"meta":{"revision":0,"created":1547531149781,"version":0},"$loki":44},{"_id":"5c3d65bd3525a329e0c04ae8","address":"1494 US Hwy 221 N","location":{"type":"Point","coordinates":[-82.818993,31.524882]},"isApproved":true,"items":[],"keys":["Southern","Soul Food","Breakfast & Brunch"],"lastUpdated":1547527612331,"name":"Harper’s Cafe","phone":"(912) 384-3665","price":"","reviewCount":5,"reviewScore":5,"meta":{"revision":0,"created":1547531149781,"version":0},"$loki":45},{"_id":"5c3d65bd3525a329e0c07d08","address":"1205 E Cherry St","location":{"type":"Point","coordinates":[-82.8204268,31.5241881]},"isApproved":true,"items":[],"keys":["Fast Food","Sandwiches"],"lastUpdated":1547527612411,"name":"Subway","phone":"(912) 427-9328","price":"","reviewCount":1,"reviewScore":1,"meta":{"revision":0,"created":1547531149781,"version":0},"$loki":46},{"_id":"5c3d65bd3525a329e0c05684","address":"260 Douglas Hwy","location":{"type":"Point","coordinates":[-82.613199,31.853193]},"isApproved":true,"items":[],"keys":["American (New)","Coffee & Tea","Breakfast & Brunch"],"lastUpdated":1547527612348,"name":"Manna Cafe & Eatery","phone":"(912) 551-9058","price":"$$","reviewCount":18,"reviewScore":5,"meta":{"revision":0,"created":1547531149781,"version":0},"$loki":47},{"_id":"5c3d65bd3525a329e0c17b24","address":"149 S Tallahassee St","location":{"type":"Point","coordinates":[-82.6063638,31.8583024]},"isApproved":true,"items":[],"keys":["Sandwiches","Fast Food"],"lastUpdated":1547527612799,"name":"Subway","phone":"(912) 375-9399","price":"","reviewCount":1,"reviewScore":5,"meta":{"revision":0,"created":1547531149781,"version":0},"$loki":48},{"_id":"5c3d65bd3525a329e0c1032d","address":"1710 E 16th Ave","location":{"type":"Point","coordinates":[-82.6055755504285,31.8602]},"isApproved":true,"items":[],"keys":["Seafood","Fast Food","American (Traditional)"],"lastUpdated":1547527612617,"name":"Captain D’s","phone":"(229) 273-6550","price":"$","reviewCount":9,"reviewScore":2,"meta":{"revision":0,"created":1547531149781,"version":0},"$loki":49},{"_id":"5c3d65bd3525a329e0c055a3","address":"1109 16th Ave E","location":{"type":"Point","coordinates":[-82.605201,31.862093]},"isApproved":true,"items":[],"keys":["Burgers"],"lastUpdated":1547527612348,"name":"Burger King","phone":"(229) 273-4507","price":"","reviewCount":2,"reviewScore":3,"meta":{"revision":0,"created":1547531149781,"version":0},"$loki":50},{"_id":"5c3d65bd3525a329e0c03c19","address":"2010-A Central Ave","location":{"type":"Point","coordinates":[-82.6054136,31.8630897]},"isApproved":true,"items":[],"keys":["American (New)","Italian","Sandwiches"],"lastUpdated":1547527612312,"name":"Tj’s Italian American Restaurant","phone":"(229) 273-1160","price":"$$","reviewCount":12,"reviewScore":3,"meta":{"revision":0,"created":1547531149781,"version":0},"$loki":51},{"_id":"5c3d65bd3525a329e0c00577","address":"28 STallahassee st","location":{"type":"Point","coordinates":[-82.6000199833333,31.8656321684188]},"isApproved":true,"items":[],"keys":["Mexican"],"lastUpdated":1547527612227,"name":"Tierra Caliente Mexican Restaurant","phone":"(912) 307-5045","price":"","reviewCount":1,"reviewScore":5,"meta":{"revision":0,"created":1547531149781,"version":0},"$loki":52},{"_id":"5c3d65bd3525a329e0c06d0f","address":"52 S Tallahassee St","location":{"type":"Point","coordinates":[-82.601179,31.8640247]},"isApproved":true,"items":[],"keys":["Chinese"],"lastUpdated":1547527612387,"name":"China Buffet","phone":"(912) 379-1188","price":"","reviewCount":3,"reviewScore":3.5,"meta":{"revision":0,"created":1547531149781,"version":0},"$loki":53},{"_id":"5c3d65bd3525a329e0c005b8","address":"Highway 300","location":{"type":"Point","coordinates":[-82.6035768,31.860838]},"isApproved":true,"items":[],"keys":["Desserts","American (Traditional)","Ice Cream & Frozen Yogurt"],"lastUpdated":1547527612227,"name":"dairy queen","phone":"","price":"$","reviewCount":10,"reviewScore":2,"meta":{"revision":0,"created":1547531149781,"version":0},"$loki":54},{"_id":"5c3d65bd3525a329e0c0e33e","address":"8 NW Railroad St","location":{"type":"Point","coordinates":[-82.5981853,31.8674289]},"isApproved":true,"items":[],"keys":["American (Traditional)"],"lastUpdated":1547527612572,"name":"Pigout Barbeque","phone":"(912) 375-0388","price":"","reviewCount":3,"reviewScore":4,"meta":{"revision":0,"created":1547531149781,"version":0},"$loki":55},{"_id":"5c3d65bd3525a329e0c12468","address":"124 Jarman St","location":{"type":"Point","coordinates":[-82.5886350365575,31.8638524625596]},"isApproved":true,"items":[],"keys":["Tex-Mex"],"lastUpdated":1547527612670,"name":"Mi Sombrero","phone":"(912) 375-7272","price":"$$","reviewCount":5,"reviewScore":2.5,"meta":{"revision":0,"created":1547531149781,"version":0},"$loki":56},{"_id":"5c3d65bd3525a329e0c063fe","address":"120 S Tallahasse St","location":{"type":"Point","coordinates":[-82.5951300188899,31.8692893138646]},"isApproved":true,"items":[],"keys":["Burgers","Fast Food","Coffee & Tea"],"lastUpdated":1547527612371,"name":"McDonald’s","phone":"(912) 375-0704","price":"","reviewCount":3,"reviewScore":1.5,"meta":{"revision":0,"created":1547531149781,"version":0},"$loki":57},{"_id":"5c3d65bd3525a329e0c15780","address":"112 South Tallahassee St","location":{"type":"Point","coordinates":[-82.5945844,31.8732949]},"isApproved":true,"items":[],"keys":["Pizza","Italian","Chicken Wings"],"lastUpdated":1547527612746,"name":"Pizza Hut","phone":"(912) 375-7111","price":"","reviewCount":1,"reviewScore":1,"meta":{"revision":0,"created":1547531149781,"version":0},"$loki":58},{"_id":"5c3d65bd3525a329e0c12702","address":"11 West Coffee St","location":{"type":"Point","coordinates":[-82.5952786,31.872759]},"isApproved":true,"items":[],"keys":["Chicken Wings","Sports Bars","Salad"],"lastUpdated":1547527612671,"name":"Dick’s Wings & Grill - Hazelhurst","phone":"(912) 551-9364","price":"$$","reviewCount":8,"reviewScore":3.5,"meta":{"revision":0,"created":1547531149781,"version":0},"$loki":59},{"_id":"5c3d65bd3525a329e0c0ccfc","address":"30 W Coffee St","location":{"type":"Point","coordinates":[-82.5952152,31.8742366]},"isApproved":true,"items":[],"keys":["American (Traditional)","Diners","Seafood"],"lastUpdated":1547527612534,"name":"Smith’s Fried Chicken","phone":"(912) 375-3973","price":"$","reviewCount":9,"reviewScore":4,"meta":{"revision":0,"created":1547531149781,"version":0},"$loki":60},{"_id":"5c3d65bd3525a329e0c07fdb","address":"24 W Coffee St","location":{"type":"Point","coordinates":[-82.5948562,31.8740609]},"isApproved":true,"items":[],"keys":["Pizza"],"lastUpdated":1547527612418,"name":"Village Pizza","phone":"(912) 375-3935","price":"$","reviewCount":9,"reviewScore":4,"meta":{"revision":0,"created":1547531149781,"version":0},"$loki":61},{"_id":"5c3d65bd3525a329e0c1a148","address":"90 W Coffee St","location":{"type":"Point","coordinates":[-82.5969726,31.878252]},"isApproved":true,"items":[],"keys":["Southern"],"lastUpdated":1547527612857,"name":"Papa’s Cabin Country Kitchen","phone":"(912) 307-5030","price":"","reviewCount":2,"reviewScore":4,"meta":{"revision":0,"created":1547531149781,"version":0},"$loki":62},{"_id":"5c3d65bd3525a329e0c069b9","address":"3338 Golden Isles Hwy","location":{"type":"Point","coordinates":[-82.680172,31.929906]},"isApproved":true,"items":[],"keys":["Barbeque","Southern","Sandwiches"],"lastUpdated":1547527612379,"name":"Stinson’s Barbecue","phone":"(912) 363-4788","price":"","reviewCount":7,"reviewScore":3.5,"meta":{"revision":0,"created":1547531149781,"version":0},"$loki":63},{"_id":"5c3d65bd3525a329e0c178c8","address":"150 Grahamville Rd","location":{"type":"Point","coordinates":[-82.9058328979949,32.0160751086143]},"isApproved":true,"items":[],"keys":["American (Traditional)","Seafood","Bars"],"lastUpdated":1547527612792,"name":"Cedar Lane Supper Club","phone":"(229) 868-5798","price":"$$","reviewCount":13,"reviewScore":4,"meta":{"revision":0,"created":1547531149781,"version":0},"$loki":64}],"idIndex":[1,2,3,4,5,6,7,8,9,10,11,12,13,14,15,16,17,18,19,20,21,22,23,24,25,26,27,28,29,30,31,32,33,34,35,36,37,38,39,40,41,42,43,44,45,46,47,48,49,50,51,52,53,54,55,56,57,58,59,60,61,62,63,64],"binaryIndices":{},"constraints":null,"uniqueNames":[],"transforms":{},"objType":"restaurants","dirty":true,"cachedIndex":null,"cachedBinaryIndex":null,"cachedData":null,"adaptiveBinaryIndices":true,"transactional":false,"cloneObjects":false,"cloneMethod":"parse-stringify","asyncListeners":false,"disableMeta":false,"disableChangesApi":true,"disableDeltaChangesApi":true,"autoupdate":false,"serializableIndices":true,"ttl":null,"maxId":64,"DynamicViews":[],"events":{"insert":[],"update":[],"pre-insert":[],"pre-update":[],"close":[],"flushbuffer":[],"error":[],"delete":[null],"warning":[null]},"changes":[]}],"databaseVersion":1.5,"engineVersion":1.5,"autosave":false,"autosaveInterval":5000,"autosaveHandle":null,"throttledSaves":true,"options":{"serializationMethod":"normal","destructureDelimiter":"$<\n"},"persistenceMethod":"fs","persistenceAdapter":null,"verbose":false,"events":{"init":[null],"loaded":[],"flushChanges":[],"close":[],"changes":[],"warning":[]},"ENV":"NODEJS"}