{"filename":"-82.75-35.75","collections":[{"name":"restaurants","data":[{"_id":"5c3d65bd3525a329e0c0581d","address":"176 Country Club Dr","location":{"type":"Point","coordinates":[-82.9834828,35.4926158]},"isApproved":true,"items":[],"keys":["Breakfast & Brunch"],"lastUpdated":1547527612349,"name":"Cork & Cleaver","phone":"(800) 627-6250","price":"$$","reviewCount":4,"reviewScore":4.5,"meta":{"revision":0,"created":1547531149479,"version":0},"$loki":1},{"_id":"5c3d65bd3525a329e0c055e3","address":"319 N Haywood St","location":{"type":"Point","coordinates":[-82.9705698,35.4977602]},"isApproved":true,"items":[],"keys":["Italian","Pizza","Salad"],"lastUpdated":1547527612348,"name":"Bocelli’s Italian Eatery","phone":"(828) 456-4900","price":"$$","reviewCount":64,"reviewScore":3.5,"meta":{"revision":0,"created":1547531149479,"version":0},"$loki":2},{"_id":"5c3d65bd3525a329e0c1a81d","address":"112 Cherokee Crossing","location":{"type":"Point","coordinates":[-82.9746507,35.4975955]},"isApproved":true,"items":[],"keys":["Breakfast & Brunch","American (Traditional)","Waffles"],"lastUpdated":1547527612867,"name":"Waffle House","phone":"(828) 497-6226","price":"$","reviewCount":13,"reviewScore":2.5,"meta":{"revision":0,"created":1547531149479,"version":0},"$loki":3},{"_id":"5c3d65bd3525a329e0c101d1","address":"352 Paint Town Rd","location":{"type":"Point","coordinates":[-82.9797876,35.4973326]},"isApproved":true,"items":[],"keys":["Breakfast & Brunch"],"lastUpdated":1547527612610,"name":"Frontier Pancake House","phone":"(828) 497-4718","price":"$","reviewCount":23,"reviewScore":2.5,"meta":{"revision":0,"created":1547531149479,"version":0},"$loki":4},{"_id":"5c3d65bd3525a329e0c17fb0","address":"732 Centennial Dr","location":{"type":"Point","coordinates":[-82.979581,35.4969643]},"isApproved":true,"items":[],"keys":["Tex-Mex"],"lastUpdated":1547527612802,"name":"Chili’s","phone":"(828) 227-2300","price":"$$","reviewCount":14,"reviewScore":1.5,"meta":{"revision":0,"created":1547531149479,"version":0},"$loki":5},{"_id":"5c3d65bd3525a329e0c152c2","address":"190 N Main St","location":{"type":"Point","coordinates":[-82.9851414,35.4959266]},"isApproved":true,"items":[],"keys":["Pizza","Tacos","Beer Bar"],"lastUpdated":1547527612737,"name":"Sauced","phone":"(828) 246-9585","price":"","reviewCount":20,"reviewScore":3.5,"meta":{"revision":0,"created":1547531149479,"version":0},"$loki":6},{"_id":"5c3d65bd3525a329e0c10b9e","address":"437 Russ Ave","location":{"type":"Point","coordinates":[-82.9881015,35.500505]},"isApproved":true,"items":[],"keys":["Fast Food"],"lastUpdated":1547527612632,"name":"Hardee’s","phone":"(828) 456-5712","price":"$","reviewCount":3,"reviewScore":2.5,"meta":{"revision":0,"created":1547531149479,"version":0},"$loki":7},{"_id":"5c3d65bd3525a329e0c0f537","address":"49 Hyatt Creek Road","location":{"type":"Point","coordinates":[-82.9857292,35.499622]},"isApproved":true,"items":[],"keys":["Breakfast & Brunch","American (Traditional)","Diners"],"lastUpdated":1547527612592,"name":"Huddle House","phone":"(828) 456-8601","price":"$$","reviewCount":14,"reviewScore":2.5,"meta":{"revision":0,"created":1547531149479,"version":0},"$loki":8},{"_id":"5c3d65bd3525a329e0c0cebb","address":"104 W Main St","location":{"type":"Point","coordinates":[-82.9856452,35.500128]},"isApproved":true,"items":[],"keys":["Mexican","Sandwiches"],"lastUpdated":1547527612535,"name":"El Mercadito Taqueria","phone":"(828) 631-3803","price":"$","reviewCount":4,"reviewScore":4,"meta":{"revision":0,"created":1547531149479,"version":0},"$loki":9},{"_id":"5c3d65bd3525a329e0c16af4","address":"575 Russ Ave","location":{"type":"Point","coordinates":[-82.986401,35.500573]},"isApproved":true,"items":[],"keys":["Burgers"],"lastUpdated":1547527612773,"name":"Burger King","phone":"(828) 452-0919","price":"$","reviewCount":5,"reviewScore":2.5,"meta":{"revision":0,"created":1547531149479,"version":0},"$loki":10},{"_id":"5c3d65bd3525a329e0c169b7","address":"180 Legion Dr","location":{"type":"Point","coordinates":[-82.9843436,35.4987326]},"isApproved":true,"items":[],"keys":["Bars","American (New)"],"lastUpdated":1547527612772,"name":"Mad Anthony’s Taproom & Restaurant","phone":"(828) 246-9249","price":"$$","reviewCount":8,"reviewScore":4.5,"meta":{"revision":0,"created":1547531149479,"version":0},"$loki":11},{"_id":"5c3d65bd3525a329e0c10fb1","address":"214 Veterans Blvd","location":{"type":"Point","coordinates":[-82.983362623287,35.4999620584752]},"isApproved":true,"items":[],"keys":["Fast Food","Sandwiches"],"lastUpdated":1547527612640,"name":"Arby’s","phone":"(828) 488-1219","price":"","reviewCount":3,"reviewScore":2.5,"meta":{"revision":0,"created":1547531149479,"version":0},"$loki":12},{"_id":"5c3d65bd3525a329e0c11fd9","address":"796 N Main St","location":{"type":"Point","coordinates":[-82.8858064,35.4709486]},"isApproved":true,"items":[],"keys":["Bars","American (Traditional)","Chicken Wings"],"lastUpdated":1547527612662,"name":"Waynesville’s Water’n Hole Bar and Grill","phone":"(828) 456-4750","price":"$","reviewCount":3,"reviewScore":4.5,"meta":{"revision":0,"created":1547531149479,"version":0},"$loki":13},{"_id":"5c3d65bd3525a329e0bffda0","address":"166 Walnut St","location":{"type":"Point","coordinates":[-82.8768699,35.46849]},"isApproved":true,"items":[],"keys":["Pizza","Italian","Salad"],"lastUpdated":1547527612222,"name":"Angelo’s Family Pizza & Pasta","phone":"(828) 452-1886","price":"$$","reviewCount":37,"reviewScore":4,"meta":{"revision":0,"created":1547531149479,"version":0},"$loki":14}],"idIndex":[1,2,3,4,5,6,7,8,9,10,11,12,13,14],"binaryIndices":{},"constraints":null,"uniqueNames":[],"transforms":{},"objType":"restaurants","dirty":true,"cachedIndex":null,"cachedBinaryIndex":null,"cachedData":null,"adaptiveBinaryIndices":true,"transactional":false,"cloneObjects":false,"cloneMethod":"parse-stringify","asyncListeners":false,"disableMeta":false,"disableChangesApi":true,"disableDeltaChangesApi":true,"autoupdate":false,"serializableIndices":true,"ttl":null,"maxId":14,"DynamicViews":[],"events":{"insert":[],"update":[],"pre-insert":[],"pre-update":[],"close":[],"flushbuffer":[],"error":[],"delete":[null],"warning":[null]},"changes":[]}],"databaseVersion":1.5,"engineVersion":1.5,"autosave":false,"autosaveInterval":5000,"autosaveHandle":null,"throttledSaves":true,"options":{"serializationMethod":"normal","destructureDelimiter":"$<\n"},"persistenceMethod":"fs","persistenceAdapter":null,"verbose":false,"events":{"init":[null],"loaded":[],"flushChanges":[],"close":[],"changes":[],"warning":[]},"ENV":"NODEJS"}