{"filename":"-82.5-33.25","collections":[{"name":"restaurants","data":[{"_id":"5c3d65bd3525a329e0c13f49","address":"514 Hwy 1 Byp S","location":{"type":"Point","coordinates":[-82.6094741374254,32.9775419026078]},"isApproved":true,"items":[],"keys":["Barbeque"],"lastUpdated":1547527612706,"name":"Purvis Barbecue","phone":"(478) 625-8148","price":"$","reviewCount":5,"reviewScore":5,"meta":{"revision":0,"created":1547531152896,"version":0},"$loki":1},{"_id":"5c3d65bd3525a329e0c11d8c","address":"112 E 13th St","location":{"type":"Point","coordinates":[-82.650132,33.1874634]},"isApproved":true,"items":[],"keys":["Barbeque"],"lastUpdated":1547527612661,"name":"Taylor’s Barbecue","phone":"(706) 554-9752","price":"$","reviewCount":42,"reviewScore":4.5,"meta":{"revision":0,"created":1547531152896,"version":0},"$loki":2},{"_id":"5c3d65bd3525a329e0c08791","address":"101 N Main St","location":{"type":"Point","coordinates":[-82.400694,33.188126]},"isApproved":true,"items":[],"keys":["American (Traditional)","Breakfast & Brunch"],"lastUpdated":1547527612428,"name":"Peggy’s Restaurant","phone":"(706) 547-2111","price":"$","reviewCount":32,"reviewScore":4.5,"meta":{"revision":0,"created":1547531152896,"version":0},"$loki":3},{"_id":"5c3d65bd3525a329e0c0da9c","address":"11194 US Hwy 1 N","location":{"type":"Point","coordinates":[-82.400551,33.194137]},"isApproved":true,"items":[],"keys":["Bakeries","American (New)","Breakfast & Brunch"],"lastUpdated":1547527612556,"name":"The Dutch House","phone":"(706) 547-3261","price":"$$","reviewCount":18,"reviewScore":4.5,"meta":{"revision":0,"created":1547531152896,"version":0},"$loki":4},{"_id":"5c3d65bd3525a329e0c0be95","address":"100 Commerce St","location":{"type":"Point","coordinates":[-82.410284,33.000292]},"isApproved":true,"items":[],"keys":["Mexican"],"lastUpdated":1547527612515,"name":"Maricela’s Mexican Grill","phone":"(478) 553-9304","price":"","reviewCount":3,"reviewScore":4.5,"meta":{"revision":0,"created":1547531152896,"version":0},"$loki":5},{"_id":"5c3d65bd3525a329e0c096b7","address":"117 W Haynes St","location":{"type":"Point","coordinates":[-82.4036845994141,33.0021165574421]},"isApproved":true,"items":[],"keys":["Buffets"],"lastUpdated":1547527612454,"name":"Country Buffet","phone":"(478) 552-1815","price":"$","reviewCount":5,"reviewScore":4,"meta":{"revision":0,"created":1547531152896,"version":0},"$loki":6},{"_id":"5c3d65bd3525a329e0c0ac09","address":"107 E Haynes St","location":{"type":"Point","coordinates":[-82.4080024,32.999029]},"isApproved":true,"items":[],"keys":["Restaurants"],"lastUpdated":1547527612490,"name":"Chester Dean’s","phone":"(478) 552-9246","price":"","reviewCount":1,"reviewScore":5,"meta":{"revision":0,"created":1547531152896,"version":0},"$loki":7},{"_id":"5c3d65bd3525a329e0c0b4f0","address":"600 S Harris St","location":{"type":"Point","coordinates":[-82.404445,32.992805]},"isApproved":true,"items":[],"keys":["Fast Food","Chicken Wings","Salad"],"lastUpdated":1547527612499,"name":"Zaxby’s Chicken Fingers & Buffalo Wings","phone":"(478) 240-0505","price":"$","reviewCount":4,"reviewScore":3,"meta":{"revision":0,"created":1547531152896,"version":0},"$loki":8},{"_id":"5c3d65bd3525a329e0c1ad65","address":"123 W Haynes St","location":{"type":"Point","coordinates":[-82.394979486165,32.9971124668687]},"isApproved":true,"items":[],"keys":["Mexican"],"lastUpdated":1547527612875,"name":"Puebla Mexican Restaurant","phone":"(478) 240-9151","price":"$","reviewCount":3,"reviewScore":3.5,"meta":{"revision":0,"created":1547531152896,"version":0},"$loki":9},{"_id":"5c3d65bd3525a329e0c02eef","address":"702 S Harris","location":{"type":"Point","coordinates":[-82.3983514,33.0115875]},"isApproved":true,"items":[],"keys":["Fast Food","Burgers","Coffee & Tea"],"lastUpdated":1547527612294,"name":"McDonald’s","phone":"(478) 552-0700","price":"","reviewCount":3,"reviewScore":5,"meta":{"revision":0,"created":1547531152896,"version":0},"$loki":10},{"_id":"5c3d65bd3525a329e0c12853","address":"616 S Harris St","location":{"type":"Point","coordinates":[-82.399299,33.01107]},"isApproved":true,"items":[],"keys":["Chinese","Buffets"],"lastUpdated":1547527612678,"name":"China Buffet","phone":"(478) 240-9002","price":"","reviewCount":2,"reviewScore":1.5,"meta":{"revision":0,"created":1547531152896,"version":0},"$loki":11},{"_id":"5c3d65bd3525a329e0c0eb03","address":"104 E Church St","location":{"type":"Point","coordinates":[-82.3968011,33.0061128]},"isApproved":true,"items":[],"keys":["Diners","Breakfast & Brunch","American (Traditional)"],"lastUpdated":1547527612581,"name":"Waffle House","phone":"(478) 552-9100","price":"","reviewCount":1,"reviewScore":1,"meta":{"revision":0,"created":1547531152896,"version":0},"$loki":12},{"_id":"5c3d65bd3525a329e0c1a91f","address":"204 US Hwy 1","location":{"type":"Point","coordinates":[-82.3998708919188,33.0115091809259]},"isApproved":true,"items":[],"keys":["Burgers","Fast Food","Coffee & Tea"],"lastUpdated":1547527612867,"name":"McDonald’s","phone":"(478) 625-7757","price":"","reviewCount":2,"reviewScore":2.5,"meta":{"revision":0,"created":1547531152896,"version":0},"$loki":13},{"_id":"5c3d65bd3525a329e0c08589","address":"8163 Raleys Cir","location":{"type":"Point","coordinates":[-82.3773734,33.218313]},"isApproved":true,"items":[],"keys":["Seafood"],"lastUpdated":1547527612427,"name":"Raley’s Restaurant","phone":"(706) 598-2352","price":"$$","reviewCount":1,"reviewScore":4,"meta":{"revision":0,"created":1547531152896,"version":0},"$loki":14},{"_id":"5c3d65bd3525a329e0c1985c","address":"600 Hopkins Corner Dr","location":{"type":"Point","coordinates":[-82.386,33.2113]},"isApproved":true,"items":[],"keys":["Fast Food","Chicken Wings","Chicken Shop"],"lastUpdated":1547527612842,"name":"KFC","phone":"(706) 554-2264","price":"$","reviewCount":2,"reviewScore":3,"meta":{"revision":0,"created":1547531152896,"version":0},"$loki":15},{"_id":"5c3d65bd3525a329e0c1782d","address":"704 N Main Street","location":{"type":"Point","coordinates":[-82.3865238,33.211224]},"isApproved":true,"items":[],"keys":["American (Traditional)","Diners","Breakfast & Brunch"],"lastUpdated":1547527612792,"name":"Huddle House","phone":"(706) 547-7760","price":"$$","reviewCount":3,"reviewScore":2.5,"meta":{"revision":0,"created":1547531152896,"version":0},"$loki":16},{"_id":"5c3d65bd3525a329e0c0d50b","address":"117 west 7th st","location":{"type":"Point","coordinates":[-82.3876476987152,33.2099528485573]},"isApproved":true,"items":[],"keys":["Chinese"],"lastUpdated":1547527612547,"name":"Golden China Chinese Restaurant","phone":"(706) 554-6000","price":"$","reviewCount":3,"reviewScore":4.5,"meta":{"revision":0,"created":1547531152896,"version":0},"$loki":17},{"_id":"5c3d65bd3525a329e0c00c83","address":"305 8th St","location":{"type":"Point","coordinates":[-82.3880488,33.2079439]},"isApproved":true,"items":[],"keys":["Juice Bars & Smoothies","Art Galleries","Vegan"],"lastUpdated":1547527612231,"name":"Humanitree House","phone":"(706) 364-2518","price":"$$","reviewCount":147,"reviewScore":5,"meta":{"revision":0,"created":1547531152896,"version":0},"$loki":18},{"_id":"5c3d65bd3525a329e0c038a8","address":"12834 Broad St","location":{"type":"Point","coordinates":[-82.1619935,33.3164701]},"isApproved":true,"items":[],"keys":["American (Traditional)"],"lastUpdated":1547527612304,"name":"Central Park of Sparta","phone":"(706) 444-0786","price":"","reviewCount":4,"reviewScore":5,"meta":{"revision":0,"created":1547531152896,"version":0},"$loki":19}],"idIndex":[1,2,3,4,5,6,7,8,9,10,11,12,13,14,15,16,17,18,19],"binaryIndices":{},"constraints":null,"uniqueNames":[],"transforms":{},"objType":"restaurants","dirty":true,"cachedIndex":null,"cachedBinaryIndex":null,"cachedData":null,"adaptiveBinaryIndices":true,"transactional":false,"cloneObjects":false,"cloneMethod":"parse-stringify","asyncListeners":false,"disableMeta":false,"disableChangesApi":true,"disableDeltaChangesApi":true,"autoupdate":false,"serializableIndices":true,"ttl":null,"maxId":19,"DynamicViews":[],"events":{"insert":[],"update":[],"pre-insert":[],"pre-update":[],"close":[],"flushbuffer":[],"error":[],"delete":[null],"warning":[null]},"changes":[]}],"databaseVersion":1.5,"engineVersion":1.5,"autosave":false,"autosaveInterval":5000,"autosaveHandle":null,"throttledSaves":true,"options":{"serializationMethod":"normal","destructureDelimiter":"$<\n"},"persistenceMethod":"fs","persistenceAdapter":null,"verbose":false,"events":{"init":[null],"loaded":[],"flushChanges":[],"close":[],"changes":[],"warning":[]},"ENV":"NODEJS"}