{"filename":"-83-28.5","collections":[{"name":"restaurants","data":[{"_id":"5c3d65bd3525a329e0c0acef","address":"3021 Commercial Way","location":{"type":"Point","coordinates":[-82.6984154,28.3231012]},"isApproved":true,"items":[],"keys":["Diners"],"lastUpdated":1547527612490,"name":"Towne Square","phone":"(352) 684-6444","price":"$$","reviewCount":1,"reviewScore":5,"meta":{"revision":0,"created":1547531148925,"version":0},"$loki":1},{"_id":"5c3d65bd3525a329e0c10576","address":"11078 Spring Hill Dr","location":{"type":"Point","coordinates":[-82.698733,28.3206432]},"isApproved":true,"items":[],"keys":["Thai"],"lastUpdated":1547527612618,"name":"Thai Cuisine","phone":"(352) 684-8571","price":"$$","reviewCount":58,"reviewScore":4,"meta":{"revision":0,"created":1547531148925,"version":0},"$loki":2},{"_id":"5c3d65bd3525a329e0c17de2","address":"1470 Pinehurst Dr","location":{"type":"Point","coordinates":[-82.6998933455078,28.3204259729713]},"isApproved":true,"items":[],"keys":["Pizza"],"lastUpdated":1547527612801,"name":"Westshore Pizza","phone":"(352) 684-8300","price":"","reviewCount":1,"reviewScore":1,"meta":{"revision":0,"created":1547531148925,"version":0},"$loki":3},{"_id":"5c3d65bd3525a329e0c11121","address":"11408 US Hwy 19","location":{"type":"Point","coordinates":[-82.693865,28.3307796]},"isApproved":true,"items":[],"keys":["Bars","American (Traditional)"],"lastUpdated":1547527612641,"name":"Prime Time Bar & Grill","phone":"(727) 869-9707","price":"$","reviewCount":3,"reviewScore":2.5,"meta":{"revision":0,"created":1547531148925,"version":0},"$loki":4},{"_id":"5c3d65bd3525a329e0c173ff","address":"2112 Mariner Blvd","location":{"type":"Point","coordinates":[-82.6960352,28.3317685]},"isApproved":true,"items":[],"keys":["Delis"],"lastUpdated":1547527612789,"name":"Donnelly’s Deli","phone":"(352) 683-4017","price":"$","reviewCount":36,"reviewScore":4.5,"meta":{"revision":0,"created":1547531148925,"version":0},"$loki":5},{"_id":"5c3d65bd3525a329e0c09d78","address":"4835 Cortez Blvd","location":{"type":"Point","coordinates":[-82.6978397,28.3276398]},"isApproved":true,"items":[],"keys":["Bars","Seafood","Burgers"],"lastUpdated":1547527612471,"name":"Bayport Inn","phone":"(352) 596-1088","price":"$$","reviewCount":127,"reviewScore":3.5,"meta":{"revision":0,"created":1547531148925,"version":0},"$loki":6},{"_id":"5c3d65bd3525a329e0c009f5","address":"14037 Cortez Blvd","location":{"type":"Point","coordinates":[-82.6999891,28.3281272]},"isApproved":true,"items":[],"keys":["Sports Bars","Chicken Shop","American (Traditional)"],"lastUpdated":1547527612229,"name":"Glory Days Grill","phone":"(352) 587-0010","price":"","reviewCount":35,"reviewScore":3,"meta":{"revision":0,"created":1547531148925,"version":0},"$loki":7},{"_id":"5c3d65bd3525a329e0c13a77","address":"31087 Cortez Blvd","location":{"type":"Point","coordinates":[-82.699863,28.330926]},"isApproved":true,"items":[],"keys":["Sandwiches","Fast Food"],"lastUpdated":1547527612698,"name":"Subway","phone":"(352) 754-1100","price":"","reviewCount":6,"reviewScore":4,"meta":{"revision":0,"created":1547531148925,"version":0},"$loki":8},{"_id":"5c3d65bd3525a329e0c1b182","address":"4116 Mariner Blvd","location":{"type":"Point","coordinates":[-82.699831,28.331704]},"isApproved":true,"items":[],"keys":["Pizza","Italian","Chicken Wings"],"lastUpdated":1547527612877,"name":"Pizza Hut","phone":"(352) 683-9300","price":"","reviewCount":4,"reviewScore":2,"meta":{"revision":0,"created":1547531148926,"version":0},"$loki":9},{"_id":"5c3d65bd3525a329e0c08a8a","address":"4493 Commercial Way","location":{"type":"Point","coordinates":[-82.6993701,28.3314148]},"isApproved":true,"items":[],"keys":["Chicken Wings","Fast Food"],"lastUpdated":1547527612430,"name":"Popeyes Louisiana Kitchen","phone":"(352) 597-7101","price":"$","reviewCount":10,"reviewScore":2.5,"meta":{"revision":0,"created":1547531148926,"version":0},"$loki":10},{"_id":"5c3d65bd3525a329e0c02f17","address":"9442 SR 52","location":{"type":"Point","coordinates":[-82.6986,28.3293]},"isApproved":true,"items":[],"keys":["Mexican","Tex-Mex","Fast Food"],"lastUpdated":1547527612295,"name":"Taco Bell","phone":"(727) 862-2909","price":"","reviewCount":6,"reviewScore":2.5,"meta":{"revision":0,"created":1547531148926,"version":0},"$loki":11},{"_id":"5c3d65bd3525a329e0c00682","address":"2096 Mariner Blvd","location":{"type":"Point","coordinates":[-82.69859,28.32928]},"isApproved":true,"items":[],"keys":["Burgers","Hot Dogs"],"lastUpdated":1547527612227,"name":"Burger King","phone":"(352) 686-2635","price":"$","reviewCount":7,"reviewScore":2,"meta":{"revision":0,"created":1547531148926,"version":0},"$loki":12},{"_id":"5c3d65bd3525a329e0c0ca77","address":"14387 Spring Hill Dr","location":{"type":"Point","coordinates":[-82.6999307,28.3327188]},"isApproved":true,"items":[],"keys":["Pubs","Sports Bars","American (Traditional)"],"lastUpdated":1547527612532,"name":"Beef ‘O’ Brady’s","phone":"(352) 666-4066","price":"$$","reviewCount":35,"reviewScore":2.5,"meta":{"revision":0,"created":1547531148926,"version":0},"$loki":13},{"_id":"5c3d65bd3525a329e0c090e3","address":"4200 Summit View Dr","location":{"type":"Point","coordinates":[-82.6999137,28.3340563]},"isApproved":true,"items":[],"keys":["Golf","American (Traditional)","Country Clubs"],"lastUpdated":1547527612439,"name":"Southern Hills Plantation","phone":"(352) 277-5000","price":"","reviewCount":5,"reviewScore":5,"meta":{"revision":0,"created":1547531148926,"version":0},"$loki":14},{"_id":"5c3d65bd3525a329e0c0c5d2","address":"388 N Broad St","location":{"type":"Point","coordinates":[-82.697472,28.336159]},"isApproved":true,"items":[],"keys":["Taiwanese","Bubble Tea","Chinese"],"lastUpdated":1547527612524,"name":"Taipei Taipei Tea House","phone":"(352) 777-4909","price":"$","reviewCount":56,"reviewScore":4.5,"meta":{"revision":0,"created":1547531148926,"version":0},"$loki":15},{"_id":"5c3d65bd3525a329e0c1a665","address":"31001 Cortez Blvd","location":{"type":"Point","coordinates":[-82.6949378,28.3317933]},"isApproved":true,"items":[],"keys":["Mexican","Fast Food"],"lastUpdated":1547527612865,"name":"Taco Bell","phone":"(352) 345-8493","price":"","reviewCount":4,"reviewScore":3.5,"meta":{"revision":0,"created":1547531148926,"version":0},"$loki":16},{"_id":"5c3d65bd3525a329e0c0cfaf","address":"3483 Mariner Blvd","location":{"type":"Point","coordinates":[-82.6940801,28.3317897]},"isApproved":true,"items":[],"keys":["Delis","Grocery","Fruits & Veggies"],"lastUpdated":1547527612539,"name":"Murphy’s Market","phone":"(352) 666-0722","price":"$$","reviewCount":27,"reviewScore":4.5,"meta":{"revision":0,"created":1547531148926,"version":0},"$loki":17},{"_id":"5c3d65bd3525a329e0c11fb7","address":"8944 Sr 52","location":{"type":"Point","coordinates":[-82.695921,28.3409072]},"isApproved":true,"items":[],"keys":["Pizza","Italian","Chicken Wings"],"lastUpdated":1547527612662,"name":"Pizza Hut","phone":"(727) 862-6000","price":"","reviewCount":3,"reviewScore":1,"meta":{"revision":0,"created":1547531148926,"version":0},"$loki":18},{"_id":"5c3d65bd3525a329e0c16f0b","address":"4731 Commercial Way","location":{"type":"Point","coordinates":[-82.6972559,28.3607828]},"isApproved":true,"items":[],"keys":["Barbeque","American (New)"],"lastUpdated":1547527612781,"name":"Sonny’s BBQ","phone":"(352) 597-3322","price":"$$","reviewCount":52,"reviewScore":3.5,"meta":{"revision":0,"created":1547531148926,"version":0},"$loki":19},{"_id":"5c3d65bd3525a329e0c0aeb6","address":"13793 Linden Dr","location":{"type":"Point","coordinates":[-82.698508,28.352311]},"isApproved":true,"items":[],"keys":["Hot Dogs","Sandwiches"],"lastUpdated":1547527612491,"name":"Gino’s Place","phone":"(352) 835-7164","price":"$","reviewCount":15,"reviewScore":4,"meta":{"revision":0,"created":1547531148926,"version":0},"$loki":20},{"_id":"5c3d65bd3525a329e0c0a3c1","address":"2270 Commercial Way","location":{"type":"Point","coordinates":[-82.698309,28.353502]},"isApproved":true,"items":[],"keys":["Mexican"],"lastUpdated":1547527612479,"name":"Azteca","phone":"(352) 293-4942","price":"","reviewCount":6,"reviewScore":3,"meta":{"revision":0,"created":1547531148926,"version":0},"$loki":21},{"_id":"5c3d65bd3525a329e0c0e80b","address":"13031 Cortez Blvd","location":{"type":"Point","coordinates":[-82.6985462,28.349946]},"isApproved":true,"items":[],"keys":["Indian"],"lastUpdated":1547527612574,"name":"Ginger Indian Cuisine","phone":"(352) 610-9975","price":"$$","reviewCount":61,"reviewScore":4,"meta":{"revision":0,"created":1547531148926,"version":0},"$loki":22},{"_id":"5c3d65bd3525a329e0c0883d","address":"14415 7th St","location":{"type":"Point","coordinates":[-82.698508,28.349841]},"isApproved":true,"items":[],"keys":["Mexican","Music Venues","Breakfast & Brunch"],"lastUpdated":1547527612428,"name":"Del Carmen","phone":"(352) 518-0419","price":"$$","reviewCount":53,"reviewScore":4,"meta":{"revision":0,"created":1547531148926,"version":0},"$loki":23},{"_id":"5c3d65bd3525a329e0c09e19","address":"14355 Spring Hill Dr","location":{"type":"Point","coordinates":[-82.6996255,28.3498861]},"isApproved":true,"items":[],"keys":["Pizza"],"lastUpdated":1547527612471,"name":"Padula’s Pizza","phone":"(352) 593-5943","price":"$$","reviewCount":27,"reviewScore":3,"meta":{"revision":0,"created":1547531148926,"version":0},"$loki":24},{"_id":"5c3d65bd3525a329e0c00d35","address":"10040 Hudson Ave","location":{"type":"Point","coordinates":[-82.6996252,28.3498002]},"isApproved":true,"items":[],"keys":["Pizza"],"lastUpdated":1547527612236,"name":"Mamma Mia Pizzeria","phone":"(727) 862-6844","price":"$","reviewCount":25,"reviewScore":4,"meta":{"revision":0,"created":1547531148926,"version":0},"$loki":25},{"_id":"5c3d65bd3525a329e0c017cf","address":"13475 County Line Rd","location":{"type":"Point","coordinates":[-82.7076721,28.3610831]},"isApproved":true,"items":[],"keys":["Chinese"],"lastUpdated":1547527612250,"name":"China Star","phone":"(352) 796-8876","price":"$","reviewCount":17,"reviewScore":4,"meta":{"revision":0,"created":1547531148926,"version":0},"$loki":26},{"_id":"5c3d65bd3525a329e0c0ae9e","address":"4139 Shoal Line Blvd","location":{"type":"Point","coordinates":[-82.7103407,28.3619386]},"isApproved":true,"items":[],"keys":["American (Traditional)","Seafood","Tiki Bars"],"lastUpdated":1547527612491,"name":"Hernando Beach Tropical Grille","phone":"(352) 556-4809","price":"$$","reviewCount":55,"reviewScore":4.5,"meta":{"revision":0,"created":1547531148926,"version":0},"$loki":27},{"_id":"5c3d65bd3525a329e0c09f02","address":"3430 Shoal Line Blvd","location":{"type":"Point","coordinates":[-82.7095273,28.3622656]},"isApproved":true,"items":[],"keys":["Spanish","Italian","Seafood"],"lastUpdated":1547527612472,"name":"Brian’s Place","phone":"(352) 597-5101","price":"$$","reviewCount":150,"reviewScore":4,"meta":{"revision":0,"created":1547531148926,"version":0},"$loki":28},{"_id":"5c3d65bd3525a329e0c066f1","address":"13154 Cortez Blvd","location":{"type":"Point","coordinates":[-82.7052474,28.3661364]},"isApproved":true,"items":[],"keys":["Sushi Bars","Japanese"],"lastUpdated":1547527612378,"name":"Wasabi Japanese Sushi","phone":"(352) 596-6751","price":"$$","reviewCount":115,"reviewScore":4,"meta":{"revision":0,"created":1547531148926,"version":0},"$loki":29},{"_id":"5c3d65bd3525a329e0c18801","address":"14114 US Hwy 19","location":{"type":"Point","coordinates":[-82.6946004,28.3633731]},"isApproved":true,"items":[],"keys":["Chinese"],"lastUpdated":1547527612821,"name":"Hong Kong","phone":"(727) 862-3131","price":"$","reviewCount":6,"reviewScore":2.5,"meta":{"revision":0,"created":1547531148926,"version":0},"$loki":30},{"_id":"5c3d65bd3525a329e0c0f094","address":"14139 US Hwy 19","location":{"type":"Point","coordinates":[-82.6930133,28.3622523]},"isApproved":true,"items":[],"keys":["Burgers"],"lastUpdated":1547527612590,"name":"Burger King","phone":"(727) 862-9167","price":"$","reviewCount":3,"reviewScore":3.5,"meta":{"revision":0,"created":1547531148926,"version":0},"$loki":31},{"_id":"5c3d65bd3525a329e0c10cd3","address":"32725 Florida 52","location":{"type":"Point","coordinates":[-82.6926812207983,28.3628597442395]},"isApproved":true,"items":[],"keys":["Breakfast & Brunch","Sandwiches"],"lastUpdated":1547527612633,"name":"Redneck Station","phone":"(352) 588-0800","price":"","reviewCount":1,"reviewScore":4,"meta":{"revision":0,"created":1547531148926,"version":0},"$loki":32},{"_id":"5c3d65bd3525a329e0c17ad5","address":"15215 US Hwy 19","location":{"type":"Point","coordinates":[-82.691845,28.363174]},"isApproved":true,"items":[],"keys":["Diners"],"lastUpdated":1547527612799,"name":"Tj’s Diner","phone":"(727) 697-2447","price":"$","reviewCount":1,"reviewScore":4,"meta":{"revision":0,"created":1547531148926,"version":0},"$loki":33},{"_id":"5c3d65bd3525a329e0c15fb8","address":"8165 State Rd 52","location":{"type":"Point","coordinates":[-82.6811254,28.3782885]},"isApproved":true,"items":[],"keys":["Breakfast & Brunch"],"lastUpdated":1547527612756,"name":"Smitty’s Pancake & Grill","phone":"(727) 869-4842","price":"","reviewCount":4,"reviewScore":3,"meta":{"revision":0,"created":1547531148926,"version":0},"$loki":34},{"_id":"5c3d65bd3525a329e0c057f8","address":"11061 Spring Hill Dr","location":{"type":"Point","coordinates":[-82.6804502,28.3778006]},"isApproved":true,"items":[],"keys":["Mexican"],"lastUpdated":1547527612349,"name":"Chulas Mexican Grill","phone":"(352) 600-9905","price":"$$","reviewCount":112,"reviewScore":3.5,"meta":{"revision":0,"created":1547531148926,"version":0},"$loki":35},{"_id":"5c3d65bd3525a329e0c17bed","address":"12634 US Hwy 41","location":{"type":"Point","coordinates":[-82.6765444,28.3747192]},"isApproved":true,"items":[],"keys":["Italian","Pizza","Desserts"],"lastUpdated":1547527612800,"name":"Villa Verde Cafe","phone":"(813) 929-6800","price":"$$","reviewCount":39,"reviewScore":4,"meta":{"revision":0,"created":1547531148926,"version":0},"$loki":36},{"_id":"5c3d65bd3525a329e0c11ca4","address":"8228 State Rt 52","location":{"type":"Point","coordinates":[-82.684895,28.37029]},"isApproved":true,"items":[],"keys":["Breakfast & Brunch","Sandwiches"],"lastUpdated":1547527612660,"name":"Natalie’s Restaurant","phone":"(727) 857-5992","price":"$","reviewCount":13,"reviewScore":4,"meta":{"revision":0,"created":1547531148926,"version":0},"$loki":37},{"_id":"5c3d65bd3525a329e0c18cf6","address":"14851 State Rd 52","location":{"type":"Point","coordinates":[-82.6680162,28.3920925]},"isApproved":true,"items":[],"keys":["Chinese"],"lastUpdated":1547527612825,"name":"China Wok","phone":"(727) 856-8000","price":"$","reviewCount":7,"reviewScore":2.5,"meta":{"revision":0,"created":1547531148926,"version":0},"$loki":38},{"_id":"5c3d65bd3525a329e0c13744","address":"12935 Cortez Boulevard","location":{"type":"Point","coordinates":[-82.6617413,28.3895238]},"isApproved":true,"items":[],"keys":["Steakhouses","American (Traditional)","Barbeque"],"lastUpdated":1547527612697,"name":"Texas Roadhouse","phone":"(352) 596-2225","price":"$$","reviewCount":101,"reviewScore":3.5,"meta":{"revision":0,"created":1547531148926,"version":0},"$loki":39},{"_id":"5c3d65bd3525a329e0c10fb8","address":"12957 Cortez Blvd","location":{"type":"Point","coordinates":[-82.6708970591426,28.3889283786085]},"isApproved":true,"items":[],"keys":["Italian","Seafood"],"lastUpdated":1547527612640,"name":"Carrabba’s Italian Grill","phone":"(352) 597-9805","price":"$$","reviewCount":51,"reviewScore":3.5,"meta":{"revision":0,"created":1547531148926,"version":0},"$loki":40},{"_id":"5c3d65bd3525a329e0c15646","address":"14359 Spring Hill Dr","location":{"type":"Point","coordinates":[-82.6449624,28.4231366]},"isApproved":true,"items":[],"keys":["Breakfast & Brunch"],"lastUpdated":1547527612746,"name":"Up 4 Breakfast","phone":"(352) 686-4185","price":"$","reviewCount":29,"reviewScore":3,"meta":{"revision":0,"created":1547531148926,"version":0},"$loki":41},{"_id":"5c3d65bd3525a329e0c12c15","address":"6325 Clark St","location":{"type":"Point","coordinates":[-82.6560755074024,28.5688985715576]},"isApproved":true,"items":[],"keys":["Seafood","Music Venues"],"lastUpdated":1547527612680,"name":"Sam’s Beach Bar","phone":"(727) 868-1971","price":"$$","reviewCount":344,"reviewScore":3.5,"meta":{"revision":0,"created":1547531148926,"version":0},"$loki":42},{"_id":"5c3d65bd3525a329e0c06094","address":"3492 Deltona Blvd","location":{"type":"Point","coordinates":[-82.650015,28.4977]},"isApproved":true,"items":[],"keys":["Caribbean"],"lastUpdated":1547527612368,"name":"Ocho Rios Cafe","phone":"(352) 515-0953","price":"$$","reviewCount":23,"reviewScore":4,"meta":{"revision":0,"created":1547531148926,"version":0},"$loki":43},{"_id":"5c3d65bd3525a329e0c0a52e","address":"3192 Shoal Line Blvd","location":{"type":"Point","coordinates":[-82.6505227,28.4897046]},"isApproved":true,"items":[],"keys":["Seafood","Steakhouses"],"lastUpdated":1547527612480,"name":"The Cove","phone":"(352) 610-4486","price":"$$","reviewCount":136,"reviewScore":4,"meta":{"revision":0,"created":1547531148926,"version":0},"$loki":44},{"_id":"5c3d65bd3525a329e0c13bfe","address":"12332 Cortez Blvd","location":{"type":"Point","coordinates":[-82.6500174,28.4877699]},"isApproved":true,"items":[],"keys":["Breakfast & Brunch","Cafes","American (Traditional)"],"lastUpdated":1547527612705,"name":"First Watch","phone":"(352) 240-1553","price":"$$","reviewCount":52,"reviewScore":4.5,"meta":{"revision":0,"created":1547531148926,"version":0},"$loki":45},{"_id":"5c3d65bd3525a329e0c06412","address":"966 E Jefferson St","location":{"type":"Point","coordinates":[-82.6499689,28.4814527]},"isApproved":true,"items":[],"keys":["Southern","Breakfast & Brunch","Wine Bars"],"lastUpdated":1547527612371,"name":"Florida Cracker Kitchen","phone":"(352) 754-8787","price":"$","reviewCount":227,"reviewScore":4.5,"meta":{"revision":0,"created":1547531148926,"version":0},"$loki":46},{"_id":"5c3d65bd3525a329e0c14013","address":"2284 Commercial Way","location":{"type":"Point","coordinates":[-82.6500388607383,28.4814784323959]},"isApproved":true,"items":[],"keys":["Sandwiches","Pizza","Bagels"],"lastUpdated":1547527612707,"name":"Rogue Sandwich","phone":"(352) 293-3692","price":"$","reviewCount":7,"reviewScore":4.5,"meta":{"revision":0,"created":1547531148926,"version":0},"$loki":47},{"_id":"5c3d65bd3525a329e0c17771","address":"4054 Shoal Line Blvd","location":{"type":"Point","coordinates":[-82.6506862,28.4815356]},"isApproved":true,"items":[],"keys":["American (New)"],"lastUpdated":1547527612791,"name":"R Beach","phone":"(352) 592-5556","price":"$$","reviewCount":40,"reviewScore":4,"meta":{"revision":0,"created":1547531148926,"version":0},"$loki":48},{"_id":"5c3d65bd3525a329e0c165de","address":"10128 US Hwy 19","location":{"type":"Point","coordinates":[-82.6500049,28.478063]},"isApproved":true,"items":[],"keys":["Vietnamese","Soup"],"lastUpdated":1547527612765,"name":"Pho Saigon Vietnamese Restaurant","phone":"(727) 857-7900","price":"$","reviewCount":101,"reviewScore":4.5,"meta":{"revision":0,"created":1547531148926,"version":0},"$loki":49},{"_id":"5c3d65bd3525a329e0c03b20","address":"14127 US Hwy 98 Byp","location":{"type":"Point","coordinates":[-82.6506651,28.4785645]},"isApproved":true,"items":[],"keys":["American (New)"],"lastUpdated":1547527612312,"name":"Tami’s Country Kitchen","phone":"(352) 567-5989","price":"$","reviewCount":11,"reviewScore":4.5,"meta":{"revision":0,"created":1547531148926,"version":0},"$loki":50}],"idIndex":[1,2,3,4,5,6,7,8,9,10,11,12,13,14,15,16,17,18,19,20,21,22,23,24,25,26,27,28,29,30,31,32,33,34,35,36,37,38,39,40,41,42,43,44,45,46,47,48,49,50],"binaryIndices":{},"constraints":null,"uniqueNames":[],"transforms":{},"objType":"restaurants","dirty":true,"cachedIndex":null,"cachedBinaryIndex":null,"cachedData":null,"adaptiveBinaryIndices":true,"transactional":false,"cloneObjects":false,"cloneMethod":"parse-stringify","asyncListeners":false,"disableMeta":false,"disableChangesApi":true,"disableDeltaChangesApi":true,"autoupdate":false,"serializableIndices":true,"ttl":null,"maxId":50,"DynamicViews":[],"events":{"insert":[],"update":[],"pre-insert":[],"pre-update":[],"close":[],"flushbuffer":[],"error":[],"delete":[null],"warning":[null]},"changes":[]}],"databaseVersion":1.5,"engineVersion":1.5,"autosave":false,"autosaveInterval":5000,"autosaveHandle":null,"throttledSaves":true,"options":{"serializationMethod":"normal","destructureDelimiter":"$<\n"},"persistenceMethod":"fs","persistenceAdapter":null,"verbose":false,"events":{"init":[null],"loaded":[],"flushChanges":[],"close":[],"changes":[],"warning":[]},"ENV":"NODEJS"}