{"filename":"-83.75-37","collections":[{"name":"restaurants","data":[{"_id":"5c3d65bd3525a329e0c158ce","address":"415 Highway 80","location":{"type":"Point","coordinates":[-83.79317,37.16173]},"isApproved":true,"items":[],"keys":["Diners","Breakfast & Brunch","American (Traditional)"],"lastUpdated":1547527612747,"name":"Huddle House","phone":"(606) 598-0109","price":"","reviewCount":2,"reviewScore":1.5,"meta":{"revision":0,"created":1547531148881,"version":0},"$loki":1},{"_id":"5c3d65bd3525a329e0c1b592","address":"376 Manchester Sq Shopping Ctr","location":{"type":"Point","coordinates":[-83.7705222707001,37.1390854958407]},"isApproved":true,"items":[],"keys":["Mexican"],"lastUpdated":1547527612886,"name":"El Dorado","phone":"(606) 599-9178","price":"$$","reviewCount":6,"reviewScore":2.5,"meta":{"revision":0,"created":1547531148881,"version":0},"$loki":2},{"_id":"5c3d65bd3525a329e0c009f3","address":"1245 S Hwy 421","location":{"type":"Point","coordinates":[-83.7678645809348,37.1389092004458]},"isApproved":true,"items":[],"keys":["Burgers","Fast Food"],"lastUpdated":1547527612229,"name":"Wendy’s","phone":"(606) 598-5554","price":"","reviewCount":4,"reviewScore":3,"meta":{"revision":0,"created":1547531148881,"version":0},"$loki":3},{"_id":"5c3d65bd3525a329e0c0bb1f","address":"Old Highway 421","location":{"type":"Point","coordinates":[-83.762976,37.14015]},"isApproved":true,"items":[],"keys":["Chinese"],"lastUpdated":1547527612509,"name":"Happy Panda Chinese Restaurant","phone":"(606) 599-1223","price":"$","reviewCount":1,"reviewScore":2,"meta":{"revision":0,"created":1547531148881,"version":0},"$loki":4},{"_id":"5c3d65bd3525a329e0c05cad","address":"112 Town Branch Rd","location":{"type":"Point","coordinates":[-83.762584159956,37.1536789375834]},"isApproved":true,"items":[],"keys":["Burgers"],"lastUpdated":1547527612357,"name":"Pat’s Snack Bar","phone":"(606) 599-0199","price":"$","reviewCount":6,"reviewScore":3.5,"meta":{"revision":0,"created":1547531148881,"version":0},"$loki":5},{"_id":"5c3d65bd3525a329e0c05f16","address":"415 Richmond Rd","location":{"type":"Point","coordinates":[-83.7660893539673,37.1608041045143]},"isApproved":true,"items":[],"keys":["Barbeque"],"lastUpdated":1547527612367,"name":"Monster Bear BBQ","phone":"(606) 594-8251","price":"$$","reviewCount":3,"reviewScore":2.5,"meta":{"revision":0,"created":1547531148881,"version":0},"$loki":6},{"_id":"5c3d65bd3525a329e0c137dd","address":"State Hwy 421","location":{"type":"Point","coordinates":[-83.7669311170107,37.1613523840454]},"isApproved":true,"items":[],"keys":["Pizza"],"lastUpdated":1547527612697,"name":"Pizza Pro","phone":"(606) 598-8907","price":"$$","reviewCount":4,"reviewScore":5,"meta":{"revision":0,"created":1547531148881,"version":0},"$loki":7},{"_id":"5c3d65bd3525a329e0c0b83f","address":"376 Manchester Square Shpg Ctr","location":{"type":"Point","coordinates":[-83.739057,37.122193]},"isApproved":true,"items":[],"keys":["Mexican"],"lastUpdated":1547527612506,"name":"El Cazador","phone":"(606) 599-3801","price":"$$","reviewCount":5,"reviewScore":4,"meta":{"revision":0,"created":1547531148881,"version":0},"$loki":8},{"_id":"5c3d65bd3525a329e0bffb7c","address":"2779 Rte Hwy Garrard Shop Ctr","location":{"type":"Point","coordinates":[-83.7476054768769,37.1248524138443]},"isApproved":true,"items":[],"keys":["Ice Cream & Frozen Yogurt","Fast Food","Burgers"],"lastUpdated":1547527612220,"name":"Dairy Queen","phone":"(606) 598-5526","price":"","reviewCount":1,"reviewScore":4,"meta":{"revision":0,"created":1547531148881,"version":0},"$loki":9},{"_id":"5c3d65bd3525a329e0c02761","address":"2727 S Hwy 421","location":{"type":"Point","coordinates":[-83.7483170285036,37.1255403655444]},"isApproved":true,"items":[],"keys":["Pizza"],"lastUpdated":1547527612284,"name":"Little Caesars","phone":"(606) 658-2950","price":"","reviewCount":1,"reviewScore":3,"meta":{"revision":0,"created":1547531148881,"version":0},"$loki":10},{"_id":"5c3d65bd3525a329e0c0248a","address":"1484 US Hwy 25E","location":{"type":"Point","coordinates":[-83.863081036463,36.8522272889721]},"isApproved":true,"items":[],"keys":["Fast Food","Chicken Wings","Chicken Shop"],"lastUpdated":1547527612277,"name":"KFC","phone":"(606) 546-9679","price":"","reviewCount":1,"reviewScore":3,"meta":{"revision":0,"created":1547531148881,"version":0},"$loki":11},{"_id":"5c3d65bd3525a329e0c0ab14","address":"1200 South US Hwy 25E","location":{"type":"Point","coordinates":[-83.8652650042255,36.8536559532871]},"isApproved":true,"items":[],"keys":["Tex-Mex","Fast Food","Mexican"],"lastUpdated":1547527612489,"name":"Taco Bell","phone":"(606) 545-6259","price":"","reviewCount":3,"reviewScore":3,"meta":{"revision":0,"created":1547531148881,"version":0},"$loki":12},{"_id":"5c3d65bd3525a329e0c11d21","address":"1082 Old Us Highway 25E","location":{"type":"Point","coordinates":[-83.867631605265,36.8560966943751]},"isApproved":true,"items":[],"keys":["Burgers","Fast Food"],"lastUpdated":1547527612660,"name":"Burger King","phone":"(606) 546-8221","price":"","reviewCount":1,"reviewScore":3,"meta":{"revision":0,"created":1547531148881,"version":0},"$loki":13},{"_id":"5c3d65bd3525a329e0c0f4d0","address":"211 Knox St","location":{"type":"Point","coordinates":[-83.8873254,36.8671041]},"isApproved":true,"items":[],"keys":["Sandwiches","Fast Food"],"lastUpdated":1547527612592,"name":"Subway","phone":"(606) 546-4639","price":"","reviewCount":4,"reviewScore":5,"meta":{"revision":0,"created":1547531148881,"version":0},"$loki":14},{"_id":"5c3d65bd3525a329e0c0f62f","address":"314 Knox St","location":{"type":"Point","coordinates":[-83.8854448869824,36.8673047442857]},"isApproved":true,"items":[],"keys":["Salad","American (New)","Comfort Food"],"lastUpdated":1547527612598,"name":"Oven Mitt","phone":"(606) 545-0304","price":"$$","reviewCount":5,"reviewScore":4.5,"meta":{"revision":0,"created":1547531148881,"version":0},"$loki":15},{"_id":"5c3d65bd3525a329e0c0d098","address":"301 Daniel Boone Dr","location":{"type":"Point","coordinates":[-83.8844482,36.8671446]},"isApproved":true,"items":[],"keys":["Mexican"],"lastUpdated":1547527612544,"name":"El Mariachi Mexican Restaurant","phone":"(606) 545-0245","price":"$","reviewCount":2,"reviewScore":3.5,"meta":{"revision":0,"created":1547531148881,"version":0},"$loki":16},{"_id":"5c3d65bd3525a329e0c1222f","address":"119 Union St","location":{"type":"Point","coordinates":[-83.8812197,36.869604]},"isApproved":true,"items":[],"keys":["Mexican"],"lastUpdated":1547527612669,"name":"Los DOS Amigos","phone":"(606) 545-5333","price":"","reviewCount":2,"reviewScore":2.5,"meta":{"revision":0,"created":1547531148881,"version":0},"$loki":17},{"_id":"5c3d65bd3525a329e0c0840e","address":"402 Knox St","location":{"type":"Point","coordinates":[-83.8839985,36.8678655]},"isApproved":true,"items":[],"keys":["Restaurants"],"lastUpdated":1547527612421,"name":"Tommy’s Root Beer Stand","phone":"(606) 546-6721","price":"","reviewCount":2,"reviewScore":2,"meta":{"revision":0,"created":1547531148881,"version":0},"$loki":18},{"_id":"5c3d65bd3525a329e0c01280","address":"202 Court Square","location":{"type":"Point","coordinates":[-83.889002,36.8659549]},"isApproved":true,"items":[],"keys":["Barbeque"],"lastUpdated":1547527612240,"name":"Grateful Ed’s BBQ","phone":"(606) 645-4227","price":"","reviewCount":1,"reviewScore":5,"meta":{"revision":0,"created":1547531148881,"version":0},"$loki":19},{"_id":"5c3d65bd3525a329e0c11685","address":"100 Court Sq","location":{"type":"Point","coordinates":[-83.8891077948543,36.866853867427]},"isApproved":true,"items":[],"keys":["Antiques","Cafes"],"lastUpdated":1547527612649,"name":"Oldway Cafe & Antiques","phone":"(606) 546-6367","price":"$","reviewCount":11,"reviewScore":4,"meta":{"revision":0,"created":1547531148881,"version":0},"$loki":20},{"_id":"5c3d65bd3525a329e0c031ce","address":"240 Daniel Boone Dr","location":{"type":"Point","coordinates":[-83.8877928256989,36.8639354329035]},"isApproved":true,"items":[],"keys":["American (New)","Vietnamese"],"lastUpdated":1547527612296,"name":"B’ville Grill","phone":"(606) 545-6000","price":"$$","reviewCount":3,"reviewScore":2.5,"meta":{"revision":0,"created":1547531148881,"version":0},"$loki":21},{"_id":"5c3d65bd3525a329e0c0c1cf","address":"640 Old Us Hwy 25E","location":{"type":"Point","coordinates":[-83.8744591928897,36.8588179570896]},"isApproved":true,"items":[],"keys":["Burgers"],"lastUpdated":1547527612517,"name":"Hamburger Hut","phone":"(606) 546-5240","price":"$","reviewCount":3,"reviewScore":4.5,"meta":{"revision":0,"created":1547531148881,"version":0},"$loki":22},{"_id":"5c3d65bd3525a329e0c19413","address":"247 Parkway Plz","location":{"type":"Point","coordinates":[-83.868629,36.859218]},"isApproved":true,"items":[],"keys":["Chinese"],"lastUpdated":1547527612840,"name":"Hua Ming Restaurant","phone":"(606) 546-5678","price":"","reviewCount":3,"reviewScore":2.5,"meta":{"revision":0,"created":1547531148881,"version":0},"$loki":23},{"_id":"5c3d65bd3525a329e0c0d5d1","address":"N Main St","location":{"type":"Point","coordinates":[-83.8930851,36.8730502]},"isApproved":true,"items":[],"keys":["Pizza"],"lastUpdated":1547527612548,"name":"Oasis Pizza Station","phone":"(606) 546-9239","price":"$$","reviewCount":2,"reviewScore":3.5,"meta":{"revision":0,"created":1547531148881,"version":0},"$loki":24},{"_id":"5c3d65bd3525a329e0c060d9","address":"101 Black Gold Ct","location":{"type":"Point","coordinates":[-84.074154,37.109991]},"isApproved":true,"items":[],"keys":["Ice Cream & Frozen Yogurt","Fast Food"],"lastUpdated":1547527612368,"name":"Dairy Queen","phone":"(606) 436-0451","price":"","reviewCount":2,"reviewScore":4,"meta":{"revision":0,"created":1547531148881,"version":0},"$loki":25},{"_id":"5c3d65bd3525a329e0c12f16","address":"1704 W Hwy 192","location":{"type":"Point","coordinates":[-84.077832,37.12265]},"isApproved":true,"items":[],"keys":["Burgers","Fast Food"],"lastUpdated":1547527612687,"name":"Krystal","phone":"(606) 878-5505","price":"$","reviewCount":6,"reviewScore":2,"meta":{"revision":0,"created":1547531148881,"version":0},"$loki":26},{"_id":"5c3d65bd3525a329e0c01622","address":"805 S Main St","location":{"type":"Point","coordinates":[-84.079084,37.1234427]},"isApproved":true,"items":[],"keys":["Italian","Sandwiches","Hot Dogs"],"lastUpdated":1547527612250,"name":"Mama Rosa’s Chicago Sandwich Shop","phone":"(606) 864-0660","price":"$","reviewCount":18,"reviewScore":5,"meta":{"revision":0,"created":1547531148881,"version":0},"$loki":27},{"_id":"5c3d65bd3525a329e0bff9d4","address":"392 London Shopping Ctr","location":{"type":"Point","coordinates":[-84.0816685734164,37.1289162196269]},"isApproved":true,"items":[],"keys":["Italian"],"lastUpdated":1547527612219,"name":"Dino’s Italian Restaurant","phone":"(606) 877-2525","price":"$$","reviewCount":29,"reviewScore":2.5,"meta":{"revision":0,"created":1547531148881,"version":0},"$loki":28},{"_id":"5c3d65bd3525a329e0c12f10","address":"131 N Main St","location":{"type":"Point","coordinates":[-84.0823164755277,37.1290049984114]},"isApproved":true,"items":[],"keys":["American (Traditional)","Desserts","Salad"],"lastUpdated":1547527612687,"name":"Weavers","phone":"(606) 864-9937","price":"","reviewCount":6,"reviewScore":4,"meta":{"revision":0,"created":1547531148881,"version":0},"$loki":29},{"_id":"5c3d65bd3525a329e0c0852f","address":"132 N Main St","location":{"type":"Point","coordinates":[-84.083889,37.129452]},"isApproved":true,"items":[],"keys":["American (Traditional)"],"lastUpdated":1547527612427,"name":"The Abbey","phone":"(606) 864-0044","price":"$$","reviewCount":46,"reviewScore":3.5,"meta":{"revision":0,"created":1547531148881,"version":0},"$loki":30},{"_id":"5c3d65bd3525a329e0c037ab","address":"1748 Hwy 192W","location":{"type":"Point","coordinates":[-84.1001517,37.140216]},"isApproved":true,"items":[],"keys":["Pizza","Italian","Chicken Wings"],"lastUpdated":1547527612304,"name":"Pizza Hut","phone":"(606) 877-7777","price":"$","reviewCount":8,"reviewScore":1.5,"meta":{"revision":0,"created":1547531148881,"version":0},"$loki":31},{"_id":"5c3d65bd3525a329e0c1781b","address":"1705 N Main St","location":{"type":"Point","coordinates":[-84.0975527,37.1377081]},"isApproved":true,"items":[],"keys":["Burgers","Breakfast & Brunch","Sandwiches"],"lastUpdated":1547527612792,"name":"All American Stand","phone":"(606) 260-8148","price":"","reviewCount":3,"reviewScore":3.5,"meta":{"revision":0,"created":1547531148881,"version":0},"$loki":32},{"_id":"5c3d65bd3525a329e0c1947b","address":"283 London Shp Ctr","location":{"type":"Point","coordinates":[-84.0977373719216,37.1390681300754]},"isApproved":true,"items":[],"keys":["Italian","Pizza","Chicken Wings"],"lastUpdated":1547527612840,"name":"Pizza Hut","phone":"(606) 877-9100","price":"$$","reviewCount":2,"reviewScore":1,"meta":{"revision":0,"created":1547531148881,"version":0},"$loki":33},{"_id":"5c3d65bd3525a329e0c18186","address":"1224 N Main St","location":{"type":"Point","coordinates":[-84.0937640145421,37.1355801385007]},"isApproved":true,"items":[],"keys":["Food Trucks","Japanese","Sushi Bars"],"lastUpdated":1547527612809,"name":"Koi Express","phone":"(606) 231-0093","price":"","reviewCount":5,"reviewScore":5,"meta":{"revision":0,"created":1547531148881,"version":0},"$loki":34},{"_id":"5c3d65bd3525a329e0c035b9","address":"1022 N Mill St","location":{"type":"Point","coordinates":[-84.092438,37.134088]},"isApproved":true,"items":[],"keys":["Mexican"],"lastUpdated":1547527612303,"name":"Compadres Local","phone":"(606) 877-1732","price":"$","reviewCount":4,"reviewScore":5,"meta":{"revision":0,"created":1547531148881,"version":0},"$loki":35},{"_id":"5c3d65bd3525a329e0c14ffa","address":"21 Dogpatch Trading Ctr","location":{"type":"Point","coordinates":[-84.09,37.111435]},"isApproved":true,"items":[],"keys":["Fast Food","Burgers"],"lastUpdated":1547527612736,"name":"Wendy’s","phone":"(606) 878-9686","price":"","reviewCount":8,"reviewScore":2,"meta":{"revision":0,"created":1547531148881,"version":0},"$loki":36},{"_id":"5c3d65bd3525a329e0c0978a","address":"100 Black Gold Ct","location":{"type":"Point","coordinates":[-84.090706,37.110772]},"isApproved":true,"items":[],"keys":["Burgers"],"lastUpdated":1547527612461,"name":"Burger King","phone":"(606) 439-2226","price":"","reviewCount":3,"reviewScore":1.5,"meta":{"revision":0,"created":1547531148881,"version":0},"$loki":37},{"_id":"5c3d65bd3525a329e0c0ebb2","address":"1750 Kentucky 192","location":{"type":"Point","coordinates":[-84.089945501788,37.110181743728]},"isApproved":true,"items":[],"keys":["Sandwiches"],"lastUpdated":1547527612581,"name":"Penn Station","phone":"(606) 864-7366","price":"$","reviewCount":5,"reviewScore":3,"meta":{"revision":0,"created":1547531148881,"version":0},"$loki":38},{"_id":"5c3d65bd3525a329e0c03e85","address":"405 W Hwy 80","location":{"type":"Point","coordinates":[-84.0902332,37.1100812]},"isApproved":true,"items":[],"keys":["Burgers","Fast Food"],"lastUpdated":1547527612313,"name":"White Castle","phone":"(606) 330-0508","price":"$","reviewCount":20,"reviewScore":3.5,"meta":{"revision":0,"created":1547531148881,"version":0},"$loki":39},{"_id":"5c3d65bd3525a329e0c1acb2","address":"111 Dog Patch Rd","location":{"type":"Point","coordinates":[-84.0885937,37.1092346]},"isApproved":true,"items":[],"keys":["Fast Food","Sandwiches"],"lastUpdated":1547527612874,"name":"Subway","phone":"(606) 864-4503","price":"","reviewCount":1,"reviewScore":2,"meta":{"revision":0,"created":1547531148881,"version":0},"$loki":40},{"_id":"5c3d65bd3525a329e0c095e6","address":"127 King&#39;s Way","location":{"type":"Point","coordinates":[-84.0883521,37.1075738]},"isApproved":true,"items":[],"keys":["Tex-Mex","Fast Food","Mexican"],"lastUpdated":1547527612453,"name":"Taco Bell","phone":"(606) 878-0081","price":"$","reviewCount":4,"reviewScore":3,"meta":{"revision":0,"created":1547531148881,"version":0},"$loki":41},{"_id":"5c3d65bd3525a329e0c17043","address":"1740 Hwy 192 W","location":{"type":"Point","coordinates":[-84.090705,37.108529]},"isApproved":true,"items":[],"keys":["Mexican"],"lastUpdated":1547527612782,"name":"Fiesta Mexicana","phone":"(606) 862-0893","price":"$$","reviewCount":19,"reviewScore":3.5,"meta":{"revision":0,"created":1547531148881,"version":0},"$loki":42},{"_id":"5c3d65bd3525a329e0c14896","address":"2001 Hwy 192 W","location":{"type":"Point","coordinates":[-84.0907180237116,37.1081269377477]},"isApproved":true,"items":[],"keys":["Fast Food"],"lastUpdated":1547527612727,"name":"Frisch’s Big Boy","phone":"(606) 878-2620","price":"$$","reviewCount":20,"reviewScore":3,"meta":{"revision":0,"created":1547531148881,"version":0},"$loki":43},{"_id":"5c3d65bd3525a329e0c05998","address":"205 Citizens Ln","location":{"type":"Point","coordinates":[-84.0952150749605,37.1093619755741]},"isApproved":true,"items":[],"keys":["Coffee & Tea","Burgers","Fast Food"],"lastUpdated":1547527612355,"name":"McDonald’s","phone":"(606) 439-0370","price":"","reviewCount":2,"reviewScore":3.5,"meta":{"revision":0,"created":1547531148881,"version":0},"$loki":44},{"_id":"5c3d65bd3525a329e0c0bdd2","address":"76 Austin Ln","location":{"type":"Point","coordinates":[-84.0951309204102,37.1104507446289]},"isApproved":true,"items":[],"keys":["Diners","Breakfast & Brunch","American (Traditional)"],"lastUpdated":1547527612515,"name":"Waffle House","phone":"(606) 862-8044","price":"$","reviewCount":9,"reviewScore":4,"meta":{"revision":0,"created":1547531148881,"version":0},"$loki":45},{"_id":"5c3d65bd3525a329e0c1574b","address":"202 E 4th St","location":{"type":"Point","coordinates":[-84.094344,37.112047]},"isApproved":true,"items":[],"keys":["Coffee & Tea","Breakfast & Brunch","Sandwiches"],"lastUpdated":1547527612746,"name":"The Grind","phone":"(606) 309-8954","price":"$","reviewCount":5,"reviewScore":3.5,"meta":{"revision":0,"created":1547531148881,"version":0},"$loki":46},{"_id":"5c3d65bd3525a329e0c083e7","address":"125 E Main St","location":{"type":"Point","coordinates":[-84.0938132291016,37.1127099075635]},"isApproved":true,"items":[],"keys":["Pizza","Italian","Chicken Wings"],"lastUpdated":1547527612421,"name":"Pizza Hut","phone":"(606) 439-5886","price":"$$","reviewCount":2,"reviewScore":3,"meta":{"revision":0,"created":1547531148881,"version":0},"$loki":47},{"_id":"5c3d65bd3525a329e0c17ea3","address":"75 Isom Plz","location":{"type":"Point","coordinates":[-84.093014,37.11236]},"isApproved":true,"items":[],"keys":["Sandwiches","Fast Food"],"lastUpdated":1547527612802,"name":"Subway","phone":"(606) 633-1655","price":"$","reviewCount":2,"reviewScore":3.5,"meta":{"revision":0,"created":1547531148881,"version":0},"$loki":48},{"_id":"5c3d65bd3525a329e0c041bf","address":"1974 Highway 192 W","location":{"type":"Point","coordinates":[-84.0937212,37.1137348]},"isApproved":true,"items":[],"keys":["Fast Food"],"lastUpdated":1547527612320,"name":"Hardee’s","phone":"(606) 877-1045","price":"$","reviewCount":6,"reviewScore":2,"meta":{"revision":0,"created":1547531148881,"version":0},"$loki":49},{"_id":"5c3d65bd3525a329e0c13443","address":"2174 Hwy 192 W","location":{"type":"Point","coordinates":[-84.0987071,37.1109281]},"isApproved":true,"items":[],"keys":["Italian"],"lastUpdated":1547527612690,"name":"Fazoli’s","phone":"(606) 877-2501","price":"$","reviewCount":17,"reviewScore":4,"meta":{"revision":0,"created":1547531148881,"version":0},"$loki":50},{"_id":"5c3d65bd3525a329e0c007f6","address":"221 E Main St","location":{"type":"Point","coordinates":[-84.0998214483262,37.1120473632737]},"isApproved":true,"items":[],"keys":["Chicken Wings"],"lastUpdated":1547527612228,"name":"Lee’s Famous Recipe Chicken","phone":"(606) 439-1517","price":"","reviewCount":2,"reviewScore":1,"meta":{"revision":0,"created":1547531148881,"version":0},"$loki":51},{"_id":"5c3d65bd3525a329e0c02a89","address":"80 Alamo Dr","location":{"type":"Point","coordinates":[-84.0985222,37.1124425]},"isApproved":true,"items":[],"keys":["Breakfast & Brunch","American (Traditional)","Southern"],"lastUpdated":1547527612286,"name":"Cracker Barrel Old Country Store","phone":"(606) 864-3102","price":"$$","reviewCount":23,"reviewScore":3,"meta":{"revision":0,"created":1547531148881,"version":0},"$loki":52},{"_id":"5c3d65bd3525a329e0c09a93","address":"201 Kings Way","location":{"type":"Point","coordinates":[-84.0964818019909,37.1121473589546]},"isApproved":true,"items":[],"keys":["Diners","Breakfast & Brunch","American (Traditional)"],"lastUpdated":1547527612464,"name":"Huddle House","phone":"(606) 862-4055","price":"","reviewCount":3,"reviewScore":4.5,"meta":{"revision":0,"created":1547531148881,"version":0},"$loki":53},{"_id":"5c3d65bd3525a329e0c1178d","address":"25 S Laurel","location":{"type":"Point","coordinates":[-84.0975114,37.1110355]},"isApproved":true,"items":[],"keys":["Fast Food","Burgers","Coffee & Tea"],"lastUpdated":1547527612650,"name":"McDonald’s","phone":"(606) 864-8778","price":"$","reviewCount":7,"reviewScore":1.5,"meta":{"revision":0,"created":1547531148881,"version":0},"$loki":54},{"_id":"5c3d65bd3525a329e0c04265","address":"1702 W Hwy 192","location":{"type":"Point","coordinates":[-84.0875154733658,37.1069843075187]},"isApproved":true,"items":[],"keys":["Seafood","Fast Food","American (Traditional)"],"lastUpdated":1547527612321,"name":"Captain D’s","phone":"(606) 877-2001","price":"$","reviewCount":6,"reviewScore":5,"meta":{"revision":0,"created":1547531148881,"version":0},"$loki":55},{"_id":"5c3d65bd3525a329e0c0ca3f","address":"85 Hwy 1148","location":{"type":"Point","coordinates":[-84.0818930092183,37.1060824448132]},"isApproved":true,"items":[],"keys":["Fast Food"],"lastUpdated":1547527612532,"name":"Joe’s Drive-In Chicken","phone":"(606) 633-4209","price":"$","reviewCount":3,"reviewScore":2.5,"meta":{"revision":0,"created":1547531148881,"version":0},"$loki":56},{"_id":"5c3d65bd3525a329e0c17704","address":"41 Shiloh Dr","location":{"type":"Point","coordinates":[-84.0722390812247,37.1054898262007]},"isApproved":true,"items":[],"keys":["Japanese","Mexican"],"lastUpdated":1547527612791,"name":"Cabo’s Mexican Grill","phone":"(606) 330-0088","price":"","reviewCount":4,"reviewScore":2.5,"meta":{"revision":0,"created":1547531148881,"version":0},"$loki":57},{"_id":"5c3d65bd3525a329e0c0a432","address":"1804 N Main St","location":{"type":"Point","coordinates":[-84.0727599914017,37.106502]},"isApproved":true,"items":[],"keys":["Fast Food","Burgers","Coffee & Tea"],"lastUpdated":1547527612480,"name":"McDonald’s","phone":"(606) 878-8255","price":"$","reviewCount":4,"reviewScore":2,"meta":{"revision":0,"created":1547531148881,"version":0},"$loki":58},{"_id":"5c3d65bd3525a329e0c099d8","address":"204 Kings Way","location":{"type":"Point","coordinates":[-84.0706005659539,37.1050698695898]},"isApproved":true,"items":[],"keys":["American (New)"],"lastUpdated":1547527612463,"name":"Golden Corral","phone":"(606) 864-7062","price":"$$","reviewCount":14,"reviewScore":2,"meta":{"revision":0,"created":1547531148881,"version":0},"$loki":59},{"_id":"5c3d65bd3525a329e0c04ba7","address":"634 S Laurel Rd","location":{"type":"Point","coordinates":[-84.0675926,37.0986364]},"isApproved":true,"items":[],"keys":["Cuban","Sandwiches","Seafood"],"lastUpdated":1547527612337,"name":"Havana Cafe","phone":"(606) 877-5206","price":"$","reviewCount":45,"reviewScore":4.5,"meta":{"revision":0,"created":1547531148881,"version":0},"$loki":60},{"_id":"5c3d65bd3525a329e0c1482e","address":"1868 Highway 192 W","location":{"type":"Point","coordinates":[-84.108780392483,37.144930002467]},"isApproved":true,"items":[],"keys":["Pizza"],"lastUpdated":1547527612727,"name":"Heavenly Pizza","phone":"(606) 878-0002","price":"$","reviewCount":10,"reviewScore":3,"meta":{"revision":0,"created":1547531148881,"version":0},"$loki":61},{"_id":"5c3d65bd3525a329e0c0b8d4","address":"305 W Hwy 80","location":{"type":"Point","coordinates":[-84.1079934686422,37.1444997219448]},"isApproved":true,"items":[],"keys":["Italian","Bars","Pizza"],"lastUpdated":1547527612507,"name":"Gondolier Italian Restaurant & Pizza","phone":"(606) 878-1222","price":"$$","reviewCount":60,"reviewScore":4,"meta":{"revision":0,"created":1547531148881,"version":0},"$loki":62},{"_id":"5c3d65bd3525a329e0c161e1","address":"411 Hwy 80","location":{"type":"Point","coordinates":[-84.1070646772357,37.1442717974432]},"isApproved":true,"items":[],"keys":["Fast Food","Chicken Wings","Chicken Shop"],"lastUpdated":1547527612763,"name":"KFC","phone":"(606) 878-6950","price":"","reviewCount":4,"reviewScore":3,"meta":{"revision":0,"created":1547531148881,"version":0},"$loki":63}],"idIndex":[1,2,3,4,5,6,7,8,9,10,11,12,13,14,15,16,17,18,19,20,21,22,23,24,25,26,27,28,29,30,31,32,33,34,35,36,37,38,39,40,41,42,43,44,45,46,47,48,49,50,51,52,53,54,55,56,57,58,59,60,61,62,63],"binaryIndices":{},"constraints":null,"uniqueNames":[],"transforms":{},"objType":"restaurants","dirty":true,"cachedIndex":null,"cachedBinaryIndex":null,"cachedData":null,"adaptiveBinaryIndices":true,"transactional":false,"cloneObjects":false,"cloneMethod":"parse-stringify","asyncListeners":false,"disableMeta":false,"disableChangesApi":true,"disableDeltaChangesApi":true,"autoupdate":false,"serializableIndices":true,"ttl":null,"maxId":63,"DynamicViews":[],"events":{"insert":[],"update":[],"pre-insert":[],"pre-update":[],"close":[],"flushbuffer":[],"error":[],"delete":[null],"warning":[null]},"changes":[]}],"databaseVersion":1.5,"engineVersion":1.5,"autosave":false,"autosaveInterval":5000,"autosaveHandle":null,"throttledSaves":true,"options":{"serializationMethod":"normal","destructureDelimiter":"$<\n"},"persistenceMethod":"fs","persistenceAdapter":null,"verbose":false,"events":{"init":[null],"loaded":[],"flushChanges":[],"close":[],"changes":[],"warning":[]},"ENV":"NODEJS"}