{"filename":"-83.25-36.5","collections":[{"name":"restaurants","data":[{"_id":"5c3d65bd3525a329e0c0b208","address":"6912 Pattonsville Rd","location":{"type":"Point","coordinates":[-83.108766,36.689639]},"isApproved":true,"items":[],"keys":["Pizza"],"lastUpdated":1547527612497,"name":"Pizza Plus - Duffield","phone":"(276) 431-1515","price":"$$","reviewCount":1,"reviewScore":5,"meta":{"revision":0,"created":1547531150767,"version":0},"$loki":1},{"_id":"5c3d65bd3525a329e0c0b9c5","address":"597 Kane St","location":{"type":"Point","coordinates":[-83.0998583883047,36.7263373464484]},"isApproved":true,"items":[],"keys":["Pizza"],"lastUpdated":1547527612507,"name":"Pizza Plus-Gate City","phone":"(276) 386-6991","price":"","reviewCount":1,"reviewScore":5,"meta":{"revision":0,"created":1547531150767,"version":0},"$loki":2},{"_id":"5c3d65bd3525a329e0c11224","address":"145 Dollar Dr","location":{"type":"Point","coordinates":[-83.0543232,36.7438039]},"isApproved":true,"items":[],"keys":["Chicken Wings","Pizza","Barbeque"],"lastUpdated":1547527612642,"name":"Pizza King","phone":"(276) 546-1010","price":"","reviewCount":1,"reviewScore":5,"meta":{"revision":0,"created":1547531150767,"version":0},"$loki":3},{"_id":"5c3d65bd3525a329e0c19973","address":"1526 West Morgan Avenue","location":{"type":"Point","coordinates":[-83.0468693,36.7503806]},"isApproved":true,"items":[],"keys":["Diners","Breakfast & Brunch","American (Traditional)"],"lastUpdated":1547527612843,"name":"Huddle House","phone":"(276) 546-5088","price":"","reviewCount":4,"reviewScore":3.5,"meta":{"revision":0,"created":1547531150767,"version":0},"$loki":4},{"_id":"5c3d65bd3525a329e0c0e4f7","address":"205 River Bend Dr","location":{"type":"Point","coordinates":[-83.027288,36.75882]},"isApproved":true,"items":[],"keys":["Mexican"],"lastUpdated":1547527612573,"name":"El Centenario","phone":"(276) 546-0044","price":"","reviewCount":3,"reviewScore":5,"meta":{"revision":0,"created":1547531150767,"version":0},"$loki":5},{"_id":"5c3d65bd3525a329e0c0180a","address":"RR 3 Box 382","location":{"type":"Point","coordinates":[-83.0271115,36.7584219]},"isApproved":true,"items":[],"keys":["Burgers"],"lastUpdated":1547527612251,"name":"Patio Drive-In","phone":"(276) 546-2709","price":"","reviewCount":2,"reviewScore":3.5,"meta":{"revision":0,"created":1547531150767,"version":0},"$loki":6},{"_id":"5c3d65bd3525a329e0c02f86","address":"3108 Lee Hwy","location":{"type":"Point","coordinates":[-83.312606,36.812235]},"isApproved":true,"items":[],"keys":["Tex-Mex","American (Traditional)","Bars"],"lastUpdated":1547527612295,"name":"Chili’s","phone":"(276) 466-1088","price":"$$","reviewCount":22,"reviewScore":3,"meta":{"revision":0,"created":1547531150767,"version":0},"$loki":7},{"_id":"5c3d65bd3525a329e0c04a1c","address":"24440 Maringo Rd","location":{"type":"Point","coordinates":[-83.313029,36.812013]},"isApproved":true,"items":[],"keys":["Fast Food","Ice Cream & Frozen Yogurt"],"lastUpdated":1547527612331,"name":"Dairy Queen","phone":"(276) 525-1955","price":"$","reviewCount":5,"reviewScore":2,"meta":{"revision":0,"created":1547531150767,"version":0},"$loki":8},{"_id":"5c3d65bd3525a329e0c036d8","address":"105 Tway Hollow Rd","location":{"type":"Point","coordinates":[-83.3165118098259,36.8171698003345]},"isApproved":true,"items":[],"keys":["Pizza","Italian","Chicken Wings"],"lastUpdated":1547527612304,"name":"Pizza Hut","phone":"(606) 573-6324","price":"","reviewCount":2,"reviewScore":2,"meta":{"revision":0,"created":1547531150767,"version":0},"$loki":9},{"_id":"5c3d65bd3525a329e0c03330","address":"1131 Old Airport Rd","location":{"type":"Point","coordinates":[-83.315149,36.816852]},"isApproved":true,"items":[],"keys":["Japanese"],"lastUpdated":1547527612302,"name":"Kobe Japanese Steakhouse","phone":"(276) 644-0589","price":"$$","reviewCount":11,"reviewScore":3,"meta":{"revision":0,"created":1547531150767,"version":0},"$loki":10},{"_id":"5c3d65bd3525a329e0c0a0e6","address":"3128 Lee Hwy","location":{"type":"Point","coordinates":[-83.316146,36.8159766]},"isApproved":true,"items":[],"keys":["Burgers","Fast Food","Hot Dogs"],"lastUpdated":1547527612472,"name":"Cook Out","phone":"(276) 466-6000","price":"$","reviewCount":7,"reviewScore":4,"meta":{"revision":0,"created":1547531150767,"version":0},"$loki":11},{"_id":"5c3d65bd3525a329e0c0cc2a","address":"1520 S US Hwy 421","location":{"type":"Point","coordinates":[-83.3096700271612,36.8079183831546]},"isApproved":true,"items":[],"keys":["Mexican"],"lastUpdated":1547527612533,"name":"El Sazon","phone":"(606) 574-9705","price":"","reviewCount":2,"reviewScore":4.5,"meta":{"revision":0,"created":1547531150767,"version":0},"$loki":12},{"_id":"5c3d65bd3525a329e0c17bc9","address":"21332 Wilderness Rd","location":{"type":"Point","coordinates":[-83.3104492,36.6903325]},"isApproved":true,"items":[],"keys":["Delis","Cheese Shops","Meat Shops"],"lastUpdated":1547527612800,"name":"The Dutch Treat","phone":"(276) 445-4024","price":"","reviewCount":1,"reviewScore":5,"meta":{"revision":0,"created":1547531150767,"version":0},"$loki":13},{"_id":"5c3d65bd3525a329e0c13821","address":"1321 Highway 113","location":{"type":"Point","coordinates":[-83.086536,36.3279742]},"isApproved":true,"items":[],"keys":["Restaurants"],"lastUpdated":1547527612697,"name":"Di’s Diner","phone":"(423) 235-7631","price":"","reviewCount":1,"reviewScore":4,"meta":{"revision":0,"created":1547531150767,"version":0},"$loki":14},{"_id":"5c3d65bd3525a329e0c1337f","address":"3300-A W Market St","location":{"type":"Point","coordinates":[-83.015073,36.337014]},"isApproved":true,"items":[],"keys":["Burgers","Fast Food","Ice Cream & Frozen Yogurt"],"lastUpdated":1547527612689,"name":"Sonic Drive-In","phone":"(423) 975-0015","price":"$","reviewCount":4,"reviewScore":4,"meta":{"revision":0,"created":1547531150767,"version":0},"$loki":15}],"idIndex":[1,2,3,4,5,6,7,8,9,10,11,12,13,14,15],"binaryIndices":{},"constraints":null,"uniqueNames":[],"transforms":{},"objType":"restaurants","dirty":true,"cachedIndex":null,"cachedBinaryIndex":null,"cachedData":null,"adaptiveBinaryIndices":true,"transactional":false,"cloneObjects":false,"cloneMethod":"parse-stringify","asyncListeners":false,"disableMeta":false,"disableChangesApi":true,"disableDeltaChangesApi":true,"autoupdate":false,"serializableIndices":true,"ttl":null,"maxId":15,"DynamicViews":[],"events":{"insert":[],"update":[],"pre-insert":[],"pre-update":[],"close":[],"flushbuffer":[],"error":[],"delete":[null],"warning":[null]},"changes":[]}],"databaseVersion":1.5,"engineVersion":1.5,"autosave":false,"autosaveInterval":5000,"autosaveHandle":null,"throttledSaves":true,"options":{"serializationMethod":"normal","destructureDelimiter":"$<\n"},"persistenceMethod":"fs","persistenceAdapter":null,"verbose":false,"events":{"init":[null],"loaded":[],"flushChanges":[],"close":[],"changes":[],"warning":[]},"ENV":"NODEJS"}