{"filename":"-84.5-38.75","collections":[{"name":"restaurants","data":[{"_id":"5c3d65bd3525a329e0c0334c","address":"1048 Old US 52","location":{"type":"Point","coordinates":[-84.2611537,38.8690207]},"isApproved":true,"items":[],"keys":["Fast Food"],"lastUpdated":1547527612302,"name":"Gold Star Chili","phone":"(513) 553-2536","price":"$$","reviewCount":2,"reviewScore":3.5,"meta":{"revision":0,"created":1547531153363,"version":0},"$loki":1},{"_id":"5c3d65bd3525a329e0c186be","address":"10689 US Hwy 23","location":{"type":"Point","coordinates":[-84.288588,38.9039086]},"isApproved":true,"items":[],"keys":["Pizza","Italian"],"lastUpdated":1547527612815,"name":"Giovanni’s Pizza","phone":"(740) 259-3660","price":"$","reviewCount":1,"reviewScore":5,"meta":{"revision":0,"created":1547531153363,"version":0},"$loki":2},{"_id":"5c3d65bd3525a329e0c1485e","address":"110 E Plane St","location":{"type":"Point","coordinates":[-84.3882485,38.884027]},"isApproved":true,"items":[],"keys":["Pizza","Chicken Wings","Sandwiches"],"lastUpdated":1547527612727,"name":"Domino’s Pizza","phone":"(513) 734-3500","price":"","reviewCount":2,"reviewScore":2,"meta":{"revision":0,"created":1547531153363,"version":0},"$loki":3},{"_id":"5c3d65bd3525a329e0c16f1f","address":"2811 Measley Ridge Rd","location":{"type":"Point","coordinates":[-84.3882485,38.8840233]},"isApproved":true,"items":[],"keys":["Fast Food","Burgers","Coffee & Tea"],"lastUpdated":1547527612781,"name":"McDonald’s","phone":"(937) 587-5767","price":"$","reviewCount":3,"reviewScore":3.5,"meta":{"revision":0,"created":1547531153363,"version":0},"$loki":4},{"_id":"5c3d65bd3525a329e0c14831","address":"","location":{"type":"Point","coordinates":[-84.3917891,38.9727703]},"isApproved":true,"items":[],"keys":["Food Trucks","Comfort Food","Fast Food"],"lastUpdated":1547527612727,"name":"Harvest Mobile Cuisine","phone":"(937) 475-7423","price":"","reviewCount":2,"reviewScore":4.5,"meta":{"revision":0,"created":1547531153363,"version":0},"$loki":5},{"_id":"5c3d65bd3525a329e0c0b2f7","address":"1815 E Ohio Pike","location":{"type":"Point","coordinates":[-84.3915557861328,38.9703674316406]},"isApproved":true,"items":[],"keys":["Fast Food","Sandwiches"],"lastUpdated":1547527612498,"name":"Subway","phone":"(513) 797-0451","price":"","reviewCount":3,"reviewScore":1.5,"meta":{"revision":0,"created":1547531153363,"version":0},"$loki":6},{"_id":"5c3d65bd3525a329e0c0bf97","address":"309 N High St","location":{"type":"Point","coordinates":[-84.392696,38.9687585]},"isApproved":true,"items":[],"keys":["Pizza","Chicken Wings","Sandwiches"],"lastUpdated":1547527612516,"name":"Domino’s Pizza","phone":"(937) 444-9191","price":"","reviewCount":2,"reviewScore":3.5,"meta":{"revision":0,"created":1547531153363,"version":0},"$loki":7},{"_id":"5c3d65bd3525a329e0c047b2","address":"7934 Alexandria Pike","location":{"type":"Point","coordinates":[-84.3879946,38.9595078]},"isApproved":true,"items":[],"keys":["American (New)"],"lastUpdated":1547527612330,"name":"Empress Chili","phone":"(859) 635-5900","price":"$","reviewCount":13,"reviewScore":4.5,"meta":{"revision":0,"created":1547531153363,"version":0},"$loki":8},{"_id":"5c3d65bd3525a329e0c044b3","address":"","location":{"type":"Point","coordinates":[-84.392686,38.953713]},"isApproved":true,"items":[],"keys":["Barbeque","Food Trucks"],"lastUpdated":1547527612322,"name":"Piggin-n-Grinnin BBQ","phone":"(513) 262-8677","price":"","reviewCount":2,"reviewScore":4.5,"meta":{"revision":0,"created":1547531153363,"version":0},"$loki":9},{"_id":"5c3d65bd3525a329e0c03bec","address":"5178 Mary Ingles Hwy","location":{"type":"Point","coordinates":[-84.398347,38.9833883]},"isApproved":true,"items":[],"keys":["Ice Cream & Frozen Yogurt","Burgers"],"lastUpdated":1547527612312,"name":"Silver Grove Dari-Bar - Temp. CLOSED","phone":"(859) 781-2221","price":"$","reviewCount":37,"reviewScore":4,"meta":{"revision":0,"created":1547531153363,"version":0},"$loki":10},{"_id":"5c3d65bd3525a329e0c08f81","address":"1041 Old US Highway 52","location":{"type":"Point","coordinates":[-84.3982443,38.9829161]},"isApproved":true,"items":[],"keys":["Fast Food","Sandwiches"],"lastUpdated":1547527612438,"name":"Subway","phone":"(513) 553-0011","price":"$","reviewCount":3,"reviewScore":1.5,"meta":{"revision":0,"created":1547531153363,"version":0},"$loki":11},{"_id":"5c3d65bd3525a329e0c18a68","address":"7926 Alexandria Pike","location":{"type":"Point","coordinates":[-84.3995281346951,38.9837339538649]},"isApproved":true,"items":[],"keys":["Pizza"],"lastUpdated":1547527612823,"name":"Little Caesars","phone":"(859) 694-1500","price":"","reviewCount":4,"reviewScore":3.5,"meta":{"revision":0,"created":1547531153363,"version":0},"$loki":12},{"_id":"5c3d65bd3525a329e0c01d00","address":"259 Clareknoll Ct","location":{"type":"Point","coordinates":[-84.4012407,38.9832143]},"isApproved":true,"items":[],"keys":["Food Trucks","Asian Fusion"],"lastUpdated":1547527612259,"name":"SEA Cuisine Foodtruck","phone":"(513) 516-1577","price":"$$","reviewCount":17,"reviewScore":4.5,"meta":{"revision":0,"created":1547531153363,"version":0},"$loki":13},{"_id":"5c3d65bd3525a329e0c17ba8","address":"7105 Alexandria Pike","location":{"type":"Point","coordinates":[-84.401528,38.9834798]},"isApproved":true,"items":[],"keys":["Fast Food","Burgers","Ice Cream & Frozen Yogurt"],"lastUpdated":1547527612800,"name":"Sonic Drive-In","phone":"(859) 635-6100","price":"$","reviewCount":13,"reviewScore":2.5,"meta":{"revision":0,"created":1547531153363,"version":0},"$loki":14},{"_id":"5c3d65bd3525a329e0c09edd","address":"11500 Alexandria Pike","location":{"type":"Point","coordinates":[-84.4017056,38.9859239]},"isApproved":true,"items":[],"keys":["Pizza"],"lastUpdated":1547527612471,"name":"Sun Valley Pizza","phone":"(859) 635-0010","price":"$","reviewCount":11,"reviewScore":4,"meta":{"revision":0,"created":1547531153363,"version":0},"$loki":15},{"_id":"5c3d65bd3525a329e0c11b3d","address":"1801 Race St","location":{"type":"Point","coordinates":[-84.4017565,38.9859646]},"isApproved":true,"items":[],"keys":["Puerto Rican","Latin American","Food Trucks"],"lastUpdated":1547527612652,"name":"Mashed Roots Latin Kitchen","phone":"(513) 620-4126","price":"","reviewCount":10,"reviewScore":4.5,"meta":{"revision":0,"created":1547531153363,"version":0},"$loki":16},{"_id":"5c3d65bd3525a329e0c05793","address":"7101 Alexandria Pike","location":{"type":"Point","coordinates":[-84.4028619,38.9865298]},"isApproved":true,"items":[],"keys":["Mexican","Fast Food"],"lastUpdated":1547527612349,"name":"Taco Bell","phone":"(859) 448-0639","price":"","reviewCount":6,"reviewScore":1.5,"meta":{"revision":0,"created":1547531153363,"version":0},"$loki":17},{"_id":"5c3d65bd3525a329e0c0f8e7","address":"8248 Alexandria Pike","location":{"type":"Point","coordinates":[-84.399264,38.986425]},"isApproved":true,"items":[],"keys":["Pizza","Chicken Wings","Sandwiches"],"lastUpdated":1547527612600,"name":"Snappy Tomato Pizza","phone":"(859) 635-8818","price":"$$","reviewCount":6,"reviewScore":3,"meta":{"revision":0,"created":1547531153363,"version":0},"$loki":18},{"_id":"5c3d65bd3525a329e0c02282","address":"7201 Alexandria Pike","location":{"type":"Point","coordinates":[-84.4004198,38.9843611]},"isApproved":true,"items":[],"keys":["Fast Food","Burgers"],"lastUpdated":1547527612276,"name":"Wendy’s","phone":"(859) 635-4553","price":"$","reviewCount":3,"reviewScore":2.5,"meta":{"revision":0,"created":1547531153363,"version":0},"$loki":19},{"_id":"5c3d65bd3525a329e0c12330","address":"120 Front St","location":{"type":"Point","coordinates":[-84.2833436983034,38.9505556218392]},"isApproved":true,"items":[],"keys":["American (New)","Sandwiches","Cafes"],"lastUpdated":1547527612669,"name":"Front Street Cafe","phone":"(513) 553-4800","price":"$$","reviewCount":46,"reviewScore":3.5,"meta":{"revision":0,"created":1547531153363,"version":0},"$loki":20},{"_id":"5c3d65bd3525a329e0c09dcf","address":"204 Front St","location":{"type":"Point","coordinates":[-84.2830055952072,38.9514244238461]},"isApproved":true,"items":[],"keys":["American (Traditional)","Bars"],"lastUpdated":1547527612471,"name":"The Green Kayak","phone":"(513) 843-6040","price":"$$","reviewCount":19,"reviewScore":4.5,"meta":{"revision":0,"created":1547531153363,"version":0},"$loki":21},{"_id":"5c3d65bd3525a329e0c1a171","address":"395 Susanna Way","location":{"type":"Point","coordinates":[-84.281199,38.947087]},"isApproved":true,"items":[],"keys":["American (Traditional)"],"lastUpdated":1547527612857,"name":"Skipper’s River Cafe","phone":"(513) 553-7447","price":"$","reviewCount":15,"reviewScore":3,"meta":{"revision":0,"created":1547531153363,"version":0},"$loki":22},{"_id":"5c3d65bd3525a329e0c0a418","address":"3125 California Cross Rd","location":{"type":"Point","coordinates":[-84.2760292,38.9469751]},"isApproved":true,"items":[],"keys":["Restaurants"],"lastUpdated":1547527612480,"name":"Flintlocks At the Crossroads","phone":"(859) 635-9837","price":"$","reviewCount":2,"reviewScore":4,"meta":{"revision":0,"created":1547531153363,"version":0},"$loki":23},{"_id":"5c3d65bd3525a329e0c1191f","address":"1041 Old US 52","location":{"type":"Point","coordinates":[-84.2851965,38.9658873]},"isApproved":true,"items":[],"keys":["Pizza","Chicken Wings","Sandwiches"],"lastUpdated":1547527612651,"name":"Snappy Tomato Pizza","phone":"(513) 553-3300","price":"","reviewCount":5,"reviewScore":4,"meta":{"revision":0,"created":1547531153363,"version":0},"$loki":24},{"_id":"5c3d65bd3525a329e0c1764f","address":"","location":{"type":"Point","coordinates":[-84.284746,38.965111]},"isApproved":true,"items":[],"keys":["Food Trucks","Cheesesteaks"],"lastUpdated":1547527612791,"name":"Legasea East Coast Cafe","phone":"(513) 617-4725","price":"","reviewCount":7,"reviewScore":3.5,"meta":{"revision":0,"created":1547531153363,"version":0},"$loki":25},{"_id":"5c3d65bd3525a329e0c147a8","address":"7100 Alexandria Pike","location":{"type":"Point","coordinates":[-84.286411,38.968171]},"isApproved":true,"items":[],"keys":["Fast Food","Hot Dogs"],"lastUpdated":1547527612721,"name":"Skyline Chili","phone":"(859) 635-4400","price":"$","reviewCount":9,"reviewScore":3,"meta":{"revision":0,"created":1547531153363,"version":0},"$loki":26},{"_id":"5c3d65bd3525a329e0c19db7","address":"1799 State Route 125","location":{"type":"Point","coordinates":[-84.286344,38.967978]},"isApproved":true,"items":[],"keys":["American (Traditional)","Breakfast & Brunch","Comfort Food"],"lastUpdated":1547527612851,"name":"Bob Evans","phone":"(513) 797-0850","price":"$$","reviewCount":12,"reviewScore":2,"meta":{"revision":0,"created":1547531153363,"version":0},"$loki":27},{"_id":"5c3d65bd3525a329e0bffcd2","address":"120 W Plane St","location":{"type":"Point","coordinates":[-84.31643,39.02474]},"isApproved":true,"items":[],"keys":["Pizza"],"lastUpdated":1547527612221,"name":"Gramma’s Pizza","phone":"(513) 734-3200","price":"$","reviewCount":14,"reviewScore":3,"meta":{"revision":0,"created":1547531153363,"version":0},"$loki":28},{"_id":"5c3d65bd3525a329e0c028b2","address":"4450 Eastgate Blvd","location":{"type":"Point","coordinates":[-84.4232488081041,39.0642265236558]},"isApproved":true,"items":[],"keys":["Mexican","Cocktail Bars"],"lastUpdated":1547527612285,"name":"Rincon Mexicano","phone":"(513) 943-9923","price":"$$","reviewCount":106,"reviewScore":4,"meta":{"revision":0,"created":1547531153363,"version":0},"$loki":29},{"_id":"5c3d65bd3525a329e0c1a4bb","address":"307 Sycamore St","location":{"type":"Point","coordinates":[-84.4239701,39.0655684]},"isApproved":true,"items":[],"keys":["Sushi Bars","Asian Fusion","Sports Bars"],"lastUpdated":1547527612859,"name":"Corner Bistro","phone":"(513) 621-7009","price":"$","reviewCount":22,"reviewScore":4.5,"meta":{"revision":0,"created":1547531153363,"version":0},"$loki":30},{"_id":"5c3d65bd3525a329e0bffc9b","address":"3200 Madison Rd","location":{"type":"Point","coordinates":[-84.3953468,39.0497861]},"isApproved":true,"items":[],"keys":["American (New)","Breakfast & Brunch"],"lastUpdated":1547527612221,"name":"Red Feather Kitchen","phone":"(513) 666-2146","price":"$$","reviewCount":318,"reviewScore":4.5,"meta":{"revision":0,"created":1547531153363,"version":0},"$loki":31},{"_id":"5c3d65bd3525a329e0c002e3","address":"6805 Alexandria Pike","location":{"type":"Point","coordinates":[-84.3888336,39.0359783]},"isApproved":true,"items":[],"keys":["Pizza","Italian"],"lastUpdated":1547527612225,"name":"Pizza Hut","phone":"(859) 635-5888","price":"$","reviewCount":2,"reviewScore":2.5,"meta":{"revision":0,"created":1547531153363,"version":0},"$loki":32},{"_id":"5c3d65bd3525a329e0c013b7","address":"","location":{"type":"Point","coordinates":[-84.3903686785527,39.0366021136541]},"isApproved":true,"items":[],"keys":["Food Trucks","Barbeque","Sandwiches"],"lastUpdated":1547527612249,"name":"Four Mile Pig","phone":"(859) 992-2941","price":"","reviewCount":1,"reviewScore":5,"meta":{"revision":0,"created":1547531153363,"version":0},"$loki":33},{"_id":"5c3d65bd3525a329e0c10061","address":"1186 Ohio Rd","location":{"type":"Point","coordinates":[-84.3922056,39.0370484]},"isApproved":true,"items":[],"keys":["Mexican","Tex-Mex","Fast Food"],"lastUpdated":1547527612610,"name":"Taco Bell","phone":"(513) 753-0936","price":"$","reviewCount":26,"reviewScore":1.5,"meta":{"revision":0,"created":1547531153363,"version":0},"$loki":34},{"_id":"5c3d65bd3525a329e0c07df9","address":"313 Fairfield Ave","location":{"type":"Point","coordinates":[-84.4110894708862,39.0521789236571]},"isApproved":true,"items":[],"keys":["Breakfast & Brunch","Sandwiches"],"lastUpdated":1547527612416,"name":"Bellevue Bistro","phone":"(859) 581-5600","price":"$$","reviewCount":161,"reviewScore":4,"meta":{"revision":0,"created":1547531153363,"version":0},"$loki":35},{"_id":"5c3d65bd3525a329e0c14ee1","address":"529 Main St","location":{"type":"Point","coordinates":[-84.4111551126892,39.0529599010929]},"isApproved":true,"items":[],"keys":["Cajun/Creole","American (Traditional)","Seafood"],"lastUpdated":1547527612736,"name":"Dee Felice Cafe","phone":"(859) 261-2365","price":"$$","reviewCount":123,"reviewScore":4,"meta":{"revision":0,"created":1547531153363,"version":0},"$loki":36},{"_id":"5c3d65bd3525a329e0c1006f","address":"1133 Vine St","location":{"type":"Point","coordinates":[-84.4175129,39.0559714]},"isApproved":true,"items":[],"keys":["Belgian","Breakfast & Brunch","American (New)"],"lastUpdated":1547527612610,"name":"Taste of Belgium","phone":"(513) 396-5800","price":"$$","reviewCount":875,"reviewScore":4,"meta":{"revision":0,"created":1547531153363,"version":0},"$loki":37},{"_id":"5c3d65bd3525a329e0c194f7","address":"8160 Beechmont Ave","location":{"type":"Point","coordinates":[-84.4175157,39.0559692]},"isApproved":true,"items":[],"keys":["Japanese","Seafood"],"lastUpdated":1547527612840,"name":"Hibachi Master","phone":"(513) 474-9888","price":"$$","reviewCount":80,"reviewScore":3.5,"meta":{"revision":0,"created":1547531153363,"version":0},"$loki":38},{"_id":"5c3d65bd3525a329e0bff843","address":"302 Philadelphia St","location":{"type":"Point","coordinates":[-84.4487084,39.0632837]},"isApproved":true,"items":[],"keys":["Burgers","Fast Food","Coffee & Tea"],"lastUpdated":1547527612218,"name":"McDonald’s","phone":"(859) 261-0361","price":"$","reviewCount":39,"reviewScore":2,"meta":{"revision":0,"created":1547531153363,"version":0},"$loki":39},{"_id":"5c3d65bd3525a329e0c19f7b","address":"709 Main St","location":{"type":"Point","coordinates":[-84.4996541,39.0435537]},"isApproved":true,"items":[],"keys":["Chinese","Latin American","Asian Fusion"],"lastUpdated":1547527612851,"name":"Lalo","phone":"(513) 381-4848","price":"$$","reviewCount":214,"reviewScore":4.5,"meta":{"revision":0,"created":1547531153363,"version":0},"$loki":40},{"_id":"5c3d65bd3525a329e0c0421e","address":"30 Eads Pkwy","location":{"type":"Point","coordinates":[-84.5075712,39.0407233]},"isApproved":true,"items":[],"keys":["Fast Food","Chicken Wings","Chicken Shop"],"lastUpdated":1547527612321,"name":"KFC","phone":"(812) 537-2355","price":"$","reviewCount":5,"reviewScore":4.5,"meta":{"revision":0,"created":1547531153363,"version":0},"$loki":41},{"_id":"5c3d65bd3525a329e0c05f3b","address":"596 3rd St","location":{"type":"Point","coordinates":[-84.5048902,39.0455476]},"isApproved":true,"items":[],"keys":["Fast Food","Burgers"],"lastUpdated":1547527612367,"name":"White Castle","phone":"(859) 431-4632","price":"$","reviewCount":17,"reviewScore":2,"meta":{"revision":0,"created":1547531153363,"version":0},"$loki":42},{"_id":"5c3d65bd3525a329e0c14f3c","address":"4451 Eastgate Blvd","location":{"type":"Point","coordinates":[-84.5046807,39.0448244]},"isApproved":true,"items":[],"keys":["Fast Food","Burgers","Ice Cream & Frozen Yogurt"],"lastUpdated":1547527612736,"name":"Sonic Drive-In","phone":"(513) 947-3777","price":"$","reviewCount":21,"reviewScore":3.5,"meta":{"revision":0,"created":1547531153363,"version":0},"$loki":43},{"_id":"5c3d65bd3525a329e0bffed3","address":"603 6th Ave","location":{"type":"Point","coordinates":[-84.5031063,39.047991]},"isApproved":true,"items":[],"keys":["Southern","Bars"],"lastUpdated":1547527612223,"name":"Purple Poulet","phone":"(859) 916-5602","price":"$$","reviewCount":89,"reviewScore":4.5,"meta":{"revision":0,"created":1547531153363,"version":0},"$loki":44},{"_id":"5c3d65bd3525a329e0c16e8c","address":"5066 Delhi Ave","location":{"type":"Point","coordinates":[-84.5033127,39.0466302]},"isApproved":true,"items":[],"keys":["Burgers","Fast Food"],"lastUpdated":1547527612780,"name":"Wendy’s","phone":"(513) 922-3593","price":"","reviewCount":6,"reviewScore":2,"meta":{"revision":0,"created":1547531153363,"version":0},"$loki":45},{"_id":"5c3d65bd3525a329e0c0ee85","address":"300 E 7th St","location":{"type":"Point","coordinates":[-84.503629,39.0464206]},"isApproved":true,"items":[],"keys":["Chicken Shop"],"lastUpdated":1547527612583,"name":"Money Chicken","phone":"(513) 381-3590","price":"","reviewCount":25,"reviewScore":3.5,"meta":{"revision":0,"created":1547531153363,"version":0},"$loki":46},{"_id":"5c3d65bd3525a329e0c0db34","address":"1315 Monmouth St","location":{"type":"Point","coordinates":[-84.5040083,39.0467415]},"isApproved":true,"items":[],"keys":["Chicken Wings","Fast Food","Chicken Shop"],"lastUpdated":1547527612556,"name":"KFC","phone":"(859) 291-7448","price":"$","reviewCount":9,"reviewScore":1.5,"meta":{"revision":0,"created":1547531153363,"version":0},"$loki":47},{"_id":"5c3d65bd3525a329e0c088fe","address":"407 2nd St","location":{"type":"Point","coordinates":[-84.5029557,39.0488637]},"isApproved":true,"items":[],"keys":["Diners"],"lastUpdated":1547527612429,"name":"Aurora Country Kitchen","phone":"","price":"","reviewCount":1,"reviewScore":5,"meta":{"revision":0,"created":1547531153363,"version":0},"$loki":48},{"_id":"5c3d65bd3525a329e0c1680a","address":"502 N Main St","location":{"type":"Point","coordinates":[-84.5029706,39.0513482]},"isApproved":true,"items":[],"keys":["Fast Food"],"lastUpdated":1547527612772,"name":"Skyline Chili","phone":"(859) 581-2123","price":"$","reviewCount":2,"reviewScore":4,"meta":{"revision":0,"created":1547531153363,"version":0},"$loki":49},{"_id":"5c3d65bd3525a329e0c06f09","address":"600 Vine St","location":{"type":"Point","coordinates":[-84.5040827,39.0605251]},"isApproved":true,"items":[],"keys":["Sushi Bars","Vegan","Gluten-Free"],"lastUpdated":1547527612388,"name":"FUSIAN","phone":"(513) 421-7647","price":"$","reviewCount":218,"reviewScore":4,"meta":{"revision":0,"created":1547531153363,"version":0},"$loki":50},{"_id":"5c3d65bd3525a329e0c0691c","address":"6625 Gracely Dr","location":{"type":"Point","coordinates":[-84.5026194214663,39.0589532936272]},"isApproved":true,"items":[],"keys":["Thai","Noodles","Vegan"],"lastUpdated":1547527612379,"name":"Buddha Barn","phone":"(513) 442-2010","price":"$$","reviewCount":60,"reviewScore":4.5,"meta":{"revision":0,"created":1547531153363,"version":0},"$loki":51},{"_id":"5c3d65bd3525a329e0c0f23d","address":"1301 Vine St","location":{"type":"Point","coordinates":[-84.5049897,39.062181]},"isApproved":true,"items":[],"keys":["Pizza","Italian"],"lastUpdated":1547527612591,"name":"Venice on Vine","phone":"(513) 221-7020","price":"$","reviewCount":73,"reviewScore":4,"meta":{"revision":0,"created":1547531153363,"version":0},"$loki":52},{"_id":"5c3d65bd3525a329e0c188fc","address":"1206 Broadway St","location":{"type":"Point","coordinates":[-84.4863478,39.0559386]},"isApproved":true,"items":[],"keys":["Cafes","Coffee & Tea","Desserts"],"lastUpdated":1547527612822,"name":"Urbana Cafe","phone":"(513) 813-3133","price":"$","reviewCount":110,"reviewScore":4.5,"meta":{"revision":0,"created":1547531153363,"version":0},"$loki":53},{"_id":"5c3d65bd3525a329e0c18275","address":"588 Buttermilk Pike","location":{"type":"Point","coordinates":[-84.4473931,39.0641456]},"isApproved":true,"items":[],"keys":["Seafood","American (New)","Cocktail Bars"],"lastUpdated":1547527612813,"name":"Bonefish Grill","phone":"(859) 426-8666","price":"$$","reviewCount":70,"reviewScore":3.5,"meta":{"revision":0,"created":1547531153363,"version":0},"$loki":54},{"_id":"5c3d65bd3525a329e0c17f26","address":"1031 S Thomas Ave","location":{"type":"Point","coordinates":[-84.4466813,39.0646965]},"isApproved":true,"items":[],"keys":["Chinese","Sushi Bars","Japanese"],"lastUpdated":1547527612802,"name":"New Garden","phone":"(859) 781-7888","price":"$","reviewCount":79,"reviewScore":4,"meta":{"revision":0,"created":1547531153363,"version":0},"$loki":55},{"_id":"5c3d65bd3525a329e0c06d7f","address":"3538 Columbia Pkwy","location":{"type":"Point","coordinates":[-84.4464958,39.0651261]},"isApproved":true,"items":[],"keys":["Cajun/Creole","Bars","American (Traditional)"],"lastUpdated":1547527612387,"name":"Allyn’s Cafe","phone":"(513) 871-5779","price":"$$","reviewCount":143,"reviewScore":3.5,"meta":{"revision":0,"created":1547531153363,"version":0},"$loki":56},{"_id":"5c3d65bd3525a329e0c0032c","address":"4450 Eastgate S Dr","location":{"type":"Point","coordinates":[-84.5292078539673,39.0682199807019]},"isApproved":true,"items":[],"keys":["Mediterranean","Greek","Sandwiches"],"lastUpdated":1547527612225,"name":"Tikka Grill Jungle Jim’s","phone":"(513) 752-0500","price":"$","reviewCount":11,"reviewScore":3.5,"meta":{"revision":0,"created":1547531153363,"version":0},"$loki":57},{"_id":"5c3d65bd3525a329e0c0c459","address":"8221 Beechmont Ave","location":{"type":"Point","coordinates":[-84.5496156988125,39.0532377497197]},"isApproved":true,"items":[],"keys":["Pubs","Sports Bars","American (Traditional)"],"lastUpdated":1547527612524,"name":"Arthur’s - Anderson","phone":"(513) 388-0152","price":"$$","reviewCount":95,"reviewScore":4,"meta":{"revision":0,"created":1547531153363,"version":0},"$loki":58},{"_id":"5c3d65bd3525a329e0c044f7","address":"83 Carothers Rd","location":{"type":"Point","coordinates":[-84.5418969,39.0608974]},"isApproved":true,"items":[],"keys":["Chicken Wings","Sports Bars","American (Traditional)"],"lastUpdated":1547527612322,"name":"Buffalo Wild Wings","phone":"(859) 261-0838","price":"$$","reviewCount":42,"reviewScore":2.5,"meta":{"revision":0,"created":1547531153363,"version":0},"$loki":59},{"_id":"5c3d65bd3525a329e0c0c5af","address":"94 Carothers Rd","location":{"type":"Point","coordinates":[-84.5410371,39.0605765]},"isApproved":true,"items":[],"keys":["Mexican","Fast Food"],"lastUpdated":1547527612524,"name":"Hot Head Burritos","phone":"(859) 581-2626","price":"$","reviewCount":6,"reviewScore":4,"meta":{"revision":0,"created":1547531153363,"version":0},"$loki":60},{"_id":"5c3d65bd3525a329e0c1acb7","address":"2238 Beechmont Ave","location":{"type":"Point","coordinates":[-84.5390547,39.0611127]},"isApproved":true,"items":[],"keys":["Burgers","Fast Food"],"lastUpdated":1547527612874,"name":"Wendy’s","phone":"(513) 231-4834","price":"$","reviewCount":16,"reviewScore":1.5,"meta":{"revision":0,"created":1547531153363,"version":0},"$loki":61},{"_id":"5c3d65bd3525a329e0c04aba","address":"18 E 5th St","location":{"type":"Point","coordinates":[-84.5399621,39.0623991]},"isApproved":true,"items":[],"keys":["American (Traditional)","Piano Bars"],"lastUpdated":1547527612331,"name":"Gangsters Dueling Piano Bar and Restaurant","phone":"(859) 491-8900","price":"$$","reviewCount":46,"reviewScore":3,"meta":{"revision":0,"created":1547531153363,"version":0},"$loki":62},{"_id":"5c3d65bd3525a329e0c0e5e9","address":"7625 Beechmont Ave","location":{"type":"Point","coordinates":[-84.5301495,39.067559]},"isApproved":true,"items":[],"keys":["Breakfast & Brunch","Cafes","American (Traditional)"],"lastUpdated":1547527612573,"name":"First Watch","phone":"(513) 231-4620","price":"$$","reviewCount":42,"reviewScore":4,"meta":{"revision":0,"created":1547531153363,"version":0},"$loki":63},{"_id":"5c3d65bd3525a329e0c0e6bd","address":"7175 Beechmont Avenue","location":{"type":"Point","coordinates":[-84.5301495,39.067559]},"isApproved":true,"items":[],"keys":["Hot Dogs","Fast Food"],"lastUpdated":1547527612574,"name":"Skyline Chili","phone":"(513) 231-2064","price":"$","reviewCount":14,"reviewScore":4,"meta":{"revision":0,"created":1547531153363,"version":0},"$loki":64},{"_id":"5c3d65bd3525a329e0c10511","address":"104 E 7th St","location":{"type":"Point","coordinates":[-84.5272473788336,39.0545506874847]},"isApproved":true,"items":[],"keys":["Breakfast & Brunch","Cafes","American (Traditional)"],"lastUpdated":1547527612618,"name":"First Watch","phone":"(513) 721-4744","price":"$$","reviewCount":146,"reviewScore":4,"meta":{"revision":0,"created":1547531153363,"version":0},"$loki":65},{"_id":"5c3d65bd3525a329e0c1399b","address":"2325 Anderson Rd","location":{"type":"Point","coordinates":[-84.5264869,39.0419555]},"isApproved":true,"items":[],"keys":["Burgers","Salad","Chicken Wings"],"lastUpdated":1547527612698,"name":"Peewee’s Place","phone":"(859) 341-4977","price":"$","reviewCount":31,"reviewScore":4,"meta":{"revision":0,"created":1547531153363,"version":0},"$loki":66},{"_id":"5c3d65bd3525a329e0c17563","address":"2192 Winemiller Lane","location":{"type":"Point","coordinates":[-84.5536064,39.0473228]},"isApproved":true,"items":[],"keys":["Diners","Burgers","Breakfast & Brunch"],"lastUpdated":1547527612790,"name":"Frisch’s Big Boy","phone":"(513) 735-7100","price":"$","reviewCount":15,"reviewScore":2,"meta":{"revision":0,"created":1547531153363,"version":0},"$loki":67},{"_id":"5c3d65bd3525a329e0c0e184","address":"305 Sycamore St","location":{"type":"Point","coordinates":[-84.5776751,39.0481598]},"isApproved":true,"items":[],"keys":["Wine Bars","Cafes"],"lastUpdated":1547527612565,"name":"Kidd Coffee & Wine Bar","phone":"(513) 398-0718","price":"$","reviewCount":2,"reviewScore":3.5,"meta":{"revision":0,"created":1547531153363,"version":0},"$loki":68},{"_id":"5c3d65bd3525a329e0c1061e","address":"1 Levee Way","location":{"type":"Point","coordinates":[-84.5780169,39.047832]},"isApproved":true,"items":[],"keys":["Pizza","Salad","Gluten-Free"],"lastUpdated":1547527612619,"name":"Dewey’s Pizza","phone":"(859) 431-9700","price":"$$","reviewCount":127,"reviewScore":4,"meta":{"revision":0,"created":1547531153363,"version":0},"$loki":69},{"_id":"5c3d65bd3525a329e0c18487","address":"4402 Glen Este Withamsville Rd","location":{"type":"Point","coordinates":[-84.5773108,39.0474488]},"isApproved":true,"items":[],"keys":["Fast Food","Chicken Wings"],"lastUpdated":1547527612814,"name":"Popeyes Louisiana Kitchen","phone":"(513) 943-9100","price":"$$","reviewCount":22,"reviewScore":2,"meta":{"revision":0,"created":1547531153363,"version":0},"$loki":70},{"_id":"5c3d65bd3525a329e0c03f8e","address":"812 Eastgate North Dr","location":{"type":"Point","coordinates":[-84.5786551,39.0471896]},"isApproved":true,"items":[],"keys":["Fast Food","Burgers","Coffee & Tea"],"lastUpdated":1547527612319,"name":"McDonald’s","phone":"(513) 752-2008","price":"$$","reviewCount":13,"reviewScore":2,"meta":{"revision":0,"created":1547531153363,"version":0},"$loki":71},{"_id":"5c3d65bd3525a329e0c0306e","address":"504 West 4th Street","location":{"type":"Point","coordinates":[-84.5768563638406,39.04649292257]},"isApproved":true,"items":[],"keys":["Fast Food"],"lastUpdated":1547527612295,"name":"Gold Star Chili","phone":"(859) 581-4028","price":"$","reviewCount":24,"reviewScore":4,"meta":{"revision":0,"created":1547531153363,"version":0},"$loki":72},{"_id":"5c3d65bd3525a329e0c15b77","address":"4022 Mt Carmel Tobasco Rd","location":{"type":"Point","coordinates":[-84.5767739,39.0465397]},"isApproved":true,"items":[],"keys":["American (Traditional)","Burgers","Sandwiches"],"lastUpdated":1547527612754,"name":"Butterbee’s American Grille","phone":"(513) 528-5800","price":"$$","reviewCount":91,"reviewScore":3.5,"meta":{"revision":0,"created":1547531153363,"version":0},"$loki":73},{"_id":"5c3d65bd3525a329e0c023c4","address":"103 Glover Dr","location":{"type":"Point","coordinates":[-84.576334,39.046842]},"isApproved":true,"items":[],"keys":["Chicken Wings"],"lastUpdated":1547527612277,"name":"Lee’s Famous Recipe Chicken","phone":"(937) 444-0114","price":"$","reviewCount":3,"reviewScore":1.5,"meta":{"revision":0,"created":1547531153363,"version":0},"$loki":74},{"_id":"5c3d65bd3525a329e0c0a0e3","address":"3087 Terminal Dr","location":{"type":"Point","coordinates":[-84.5769704,39.0476837]},"isApproved":true,"items":[],"keys":["Coffee & Tea","Burgers","Fast Food"],"lastUpdated":1547527612472,"name":"McDonald’s","phone":"(859) 767-3295","price":"","reviewCount":7,"reviewScore":1.5,"meta":{"revision":0,"created":1547531153363,"version":0},"$loki":75},{"_id":"5c3d65bd3525a329e0c0140b","address":"4209 W 8th St","location":{"type":"Point","coordinates":[-84.5761644367,39.0474143029]},"isApproved":true,"items":[],"keys":["Pizza"],"lastUpdated":1547527612249,"name":"Bob’s Maka Mia Pizza","phone":"(513) 244-1936","price":"","reviewCount":1,"reviewScore":5,"meta":{"revision":0,"created":1547531153363,"version":0},"$loki":76},{"_id":"5c3d65bd3525a329e0c1adf2","address":"3500 Eastern Ave","location":{"type":"Point","coordinates":[-84.5746154785156,39.0489463806152]},"isApproved":true,"items":[],"keys":["Karaoke","Mexican"],"lastUpdated":1547527612875,"name":"Tostados Grill","phone":"(513) 871-0212","price":"$$","reviewCount":64,"reviewScore":3,"meta":{"revision":0,"created":1547531153363,"version":0},"$loki":77},{"_id":"5c3d65bd3525a329e0c0040c","address":"2303 Buttermilk Crossing","location":{"type":"Point","coordinates":[-84.574490118003,39.048917722689]},"isApproved":true,"items":[],"keys":["Indian"],"lastUpdated":1547527612226,"name":"Guru India","phone":"(859) 341-5858","price":"$$","reviewCount":190,"reviewScore":4,"meta":{"revision":0,"created":1547531153363,"version":0},"$loki":78},{"_id":"5c3d65bd3525a329e0c18bc3","address":"170 Country Club Rd","location":{"type":"Point","coordinates":[-84.572818,39.043446]},"isApproved":true,"items":[],"keys":["Steakhouses","American (New)"],"lastUpdated":1547527612824,"name":"Woody’s On the Hill Bar & Grille","phone":"(812) 926-1747","price":"$$","reviewCount":12,"reviewScore":4.5,"meta":{"revision":0,"created":1547531153363,"version":0},"$loki":79},{"_id":"5c3d65bd3525a329e0c1a656","address":"8138 Beechmont Ave","location":{"type":"Point","coordinates":[-84.5724411,39.0430154]},"isApproved":true,"items":[],"keys":["Fast Food","Delis","Sandwiches"],"lastUpdated":1547527612860,"name":"Jersey Mike’s Subs","phone":"(513) 474-4344","price":"$","reviewCount":10,"reviewScore":4,"meta":{"revision":0,"created":1547531153363,"version":0},"$loki":80},{"_id":"5c3d65bd3525a329e0c161c4","address":"11 E 7th St","location":{"type":"Point","coordinates":[-84.5726872,39.0428737]},"isApproved":true,"items":[],"keys":["Dive Bars","American (Traditional)"],"lastUpdated":1547527612763,"name":"Madonna’s Bar & Grill","phone":"(513) 621-8838","price":"$","reviewCount":59,"reviewScore":4,"meta":{"revision":0,"created":1547531153363,"version":0},"$loki":81},{"_id":"5c3d65bd3525a329e0bff9db","address":"","location":{"type":"Point","coordinates":[-84.5718404431915,39.0429200734866]},"isApproved":true,"items":[],"keys":["Gluten-Free","Desserts"],"lastUpdated":1547527612219,"name":"Gluten Free Sonny Marie’s","phone":"(513) 319-3525","price":"","reviewCount":4,"reviewScore":4.5,"meta":{"revision":0,"created":1547531153363,"version":0},"$loki":82},{"_id":"5c3d65bd3525a329e0c076d2","address":"1401 Republic St","location":{"type":"Point","coordinates":[-84.5700498644175,39.0428733365596]},"isApproved":true,"items":[],"keys":["American (New)","Bars"],"lastUpdated":1547527612402,"name":"Salazar","phone":"(513) 621-7000","price":"$$$","reviewCount":246,"reviewScore":4.5,"meta":{"revision":0,"created":1547531153363,"version":0},"$loki":83},{"_id":"5c3d65bd3525a329e0c0f3a5","address":"2220 Grandview Dr","location":{"type":"Point","coordinates":[-84.5695661,39.0511824]},"isApproved":true,"items":[],"keys":["Chinese"],"lastUpdated":1547527612592,"name":"Asian Place","phone":"(859) 578-8707","price":"$","reviewCount":41,"reviewScore":4,"meta":{"revision":0,"created":1547531153363,"version":0},"$loki":84},{"_id":"5c3d65bd3525a329e0c11fee","address":"1017 S Fort Thomas Ave","location":{"type":"Point","coordinates":[-84.570295996964,39.0505949277973]},"isApproved":true,"items":[],"keys":["American (Traditional)","Bars","Breakfast & Brunch"],"lastUpdated":1547527612662,"name":"Midway Cafe","phone":"(859) 781-7666","price":"$$","reviewCount":62,"reviewScore":4,"meta":{"revision":0,"created":1547531153363,"version":0},"$loki":85},{"_id":"5c3d65bd3525a329e0c0bc65","address":"1801 Race St","location":{"type":"Point","coordinates":[-84.5743983,39.0494184]},"isApproved":true,"items":[],"keys":["Fast Food","Greek"],"lastUpdated":1547527612509,"name":"Areti’s Gyros","phone":"(513) 720-9034","price":"$","reviewCount":52,"reviewScore":4.5,"meta":{"revision":0,"created":1547531153363,"version":0},"$loki":86},{"_id":"5c3d65bd3525a329e0c0f24d","address":"10 N Fort Thomas Ave","location":{"type":"Point","coordinates":[-84.5738629996777,39.0512750163611]},"isApproved":true,"items":[],"keys":["Sandwiches","Fast Food"],"lastUpdated":1547527612591,"name":"Subway","phone":"(859) 441-3334","price":"$","reviewCount":3,"reviewScore":3,"meta":{"revision":0,"created":1547531153363,"version":0},"$loki":87},{"_id":"5c3d65bd3525a329e0c014ed","address":"1089 State Ave","location":{"type":"Point","coordinates":[-84.574157242281,39.052762514317]},"isApproved":true,"items":[],"keys":["Sandwiches"],"lastUpdated":1547527612249,"name":"Penn Station","phone":"(513) 831-7577","price":"$$","reviewCount":8,"reviewScore":3.5,"meta":{"revision":0,"created":1547531153363,"version":0},"$loki":88},{"_id":"5c3d65bd3525a329e0c0edb5","address":"3728 Winston Ave","location":{"type":"Point","coordinates":[-84.571774,39.0545649]},"isApproved":true,"items":[],"keys":["Diners"],"lastUpdated":1547527612582,"name":"Lynna’s Grill","phone":"(859) 291-4910","price":"$","reviewCount":15,"reviewScore":4.5,"meta":{"revision":0,"created":1547531153363,"version":0},"$loki":89},{"_id":"5c3d65bd3525a329e0c00446","address":"601 Vine St","location":{"type":"Point","coordinates":[-84.5755655,39.051288]},"isApproved":true,"items":[],"keys":["American (New)","Breakfast & Brunch","Desserts"],"lastUpdated":1547527612226,"name":"Palace Restaurant","phone":"","price":"$$$$","reviewCount":82,"reviewScore":3.5,"meta":{"revision":0,"created":1547531153363,"version":0},"$loki":90},{"_id":"5c3d65bd3525a329e0c10b4b","address":"851 Eastgate South Dr","location":{"type":"Point","coordinates":[-84.5758725,39.0495365]},"isApproved":true,"items":[],"keys":["Fast Food","Sandwiches"],"lastUpdated":1547527612632,"name":"Arbys","phone":"(513) 752-4222","price":"$","reviewCount":10,"reviewScore":1.5,"meta":{"revision":0,"created":1547531153363,"version":0},"$loki":91},{"_id":"5c3d65bd3525a329e0c16852","address":"4389 Eastgate Square Dr","location":{"type":"Point","coordinates":[-84.5757497,39.049603]},"isApproved":true,"items":[],"keys":["Steakhouses"],"lastUpdated":1547527612772,"name":"Fuji Japanese Steakhouse","phone":"(513) 752-9222","price":"$$","reviewCount":9,"reviewScore":3.5,"meta":{"revision":0,"created":1547531153363,"version":0},"$loki":92},{"_id":"5c3d65bd3525a329e0bffcb3","address":"2001 Hospital Dr","location":{"type":"Point","coordinates":[-84.5769774,39.0501966]},"isApproved":true,"items":[],"keys":["Fast Food","Burgers","Coffee & Tea"],"lastUpdated":1547527612221,"name":"McDonald’s","phone":"(513) 732-6516","price":"$","reviewCount":10,"reviewScore":2.5,"meta":{"revision":0,"created":1547531153363,"version":0},"$loki":93},{"_id":"5c3d65bd3525a329e0c1170f","address":"570 Clock Tower Way","location":{"type":"Point","coordinates":[-84.5771698,39.0495057]},"isApproved":true,"items":[],"keys":["Buffets"],"lastUpdated":1547527612650,"name":"Empire Buffet","phone":"(859) 341-8009","price":"$","reviewCount":57,"reviewScore":3,"meta":{"revision":0,"created":1547531153363,"version":0},"$loki":94},{"_id":"5c3d65bd3525a329e0c1b599","address":"501 Race St","location":{"type":"Point","coordinates":[-84.5776795459751,39.0499184599966]},"isApproved":true,"items":[],"keys":["Spanish","Latin American","Cocktail Bars"],"lastUpdated":1547527612886,"name":"Mita’s Restaurant and Bar","phone":"(513) 421-6482","price":"$$$","reviewCount":267,"reviewScore":4,"meta":{"revision":0,"created":1547531153363,"version":0},"$loki":95},{"_id":"5c3d65bd3525a329e0c083fc","address":"1000 Broadway St","location":{"type":"Point","coordinates":[-84.5776935,39.0514681]},"isApproved":true,"items":[],"keys":["Italian","Asian Fusion","American (New)"],"lastUpdated":1547527612421,"name":"Seven Chefs Buffet","phone":"(513) 252-0777","price":"","reviewCount":5,"reviewScore":2.5,"meta":{"revision":0,"created":1547531153363,"version":0},"$loki":96},{"_id":"5c3d65bd3525a329e0c09ac1","address":"3530 Decoursey Ave","location":{"type":"Point","coordinates":[-84.620067,38.979468]},"isApproved":true,"items":[],"keys":["Bars","Burgers"],"lastUpdated":1547527612464,"name":"Legends Bar & Grill","phone":"(859) 581-4140","price":"","reviewCount":5,"reviewScore":2,"meta":{"revision":0,"created":1547531153363,"version":0},"$loki":97},{"_id":"5c3d65bd3525a329e0c1810f","address":"621 W Plane St","location":{"type":"Point","coordinates":[-84.620067,38.979468]},"isApproved":true,"items":[],"keys":["Fast Food","Burgers"],"lastUpdated":1547527612808,"name":"Wendy’s","phone":"(513) 734-0794","price":"$","reviewCount":2,"reviewScore":1.5,"meta":{"revision":0,"created":1547531153363,"version":0},"$loki":98},{"_id":"5c3d65bd3525a329e0c18a70","address":"350 Forest Fair Dr","location":{"type":"Point","coordinates":[-84.620067,38.979468]},"isApproved":true,"items":[],"keys":["Mexican","Fast Food"],"lastUpdated":1547527612823,"name":"Chipotle Mexican Grill","phone":"(513) 671-3000","price":"$","reviewCount":10,"reviewScore":2.5,"meta":{"revision":0,"created":1547531153363,"version":0},"$loki":99},{"_id":"5c3d65bd3525a329e0c109d3","address":"3940 Olympic Blvd","location":{"type":"Point","coordinates":[-84.6291902,39.0546195]},"isApproved":true,"items":[],"keys":["Japanese"],"lastUpdated":1547527612626,"name":"Jo An Japanese Restaurant","phone":"(859) 746-2634","price":"$$","reviewCount":142,"reviewScore":4,"meta":{"revision":0,"created":1547531153363,"version":0},"$loki":100},{"_id":"5c3d65bd3525a329e0c06eb1","address":"1208 Main St","location":{"type":"Point","coordinates":[-84.6297189,39.0516775]},"isApproved":true,"items":[],"keys":["Bakeries","Sandwiches"],"lastUpdated":1547527612387,"name":"Allez Bakery","phone":"(513) 381-6700","price":"$","reviewCount":15,"reviewScore":4.5,"meta":{"revision":0,"created":1547531153363,"version":0},"$loki":101}],"idIndex":[1,2,3,4,5,6,7,8,9,10,11,12,13,14,15,16,17,18,19,20,21,22,23,24,25,26,27,28,29,30,31,32,33,34,35,36,37,38,39,40,41,42,43,44,45,46,47,48,49,50,51,52,53,54,55,56,57,58,59,60,61,62,63,64,65,66,67,68,69,70,71,72,73,74,75,76,77,78,79,80,81,82,83,84,85,86,87,88,89,90,91,92,93,94,95,96,97,98,99,100,101],"binaryIndices":{},"constraints":null,"uniqueNames":[],"transforms":{},"objType":"restaurants","dirty":true,"cachedIndex":null,"cachedBinaryIndex":null,"cachedData":null,"adaptiveBinaryIndices":true,"transactional":false,"cloneObjects":false,"cloneMethod":"parse-stringify","asyncListeners":false,"disableMeta":false,"disableChangesApi":true,"disableDeltaChangesApi":true,"autoupdate":false,"serializableIndices":true,"ttl":null,"maxId":101,"DynamicViews":[],"events":{"insert":[],"update":[],"pre-insert":[],"pre-update":[],"close":[],"flushbuffer":[],"error":[],"delete":[null],"warning":[null]},"changes":[]}],"databaseVersion":1.5,"engineVersion":1.5,"autosave":false,"autosaveInterval":5000,"autosaveHandle":null,"throttledSaves":true,"options":{"serializationMethod":"normal","destructureDelimiter":"$<\n"},"persistenceMethod":"fs","persistenceAdapter":null,"verbose":false,"events":{"init":[null],"loaded":[],"flushChanges":[],"close":[],"changes":[],"warning":[]},"ENV":"NODEJS"}