{"filename":"-85.75-40.25","collections":[{"name":"restaurants","data":[{"_id":"5c3d65bd3525a329e0c0b881","address":"40 W Jackson St","location":{"type":"Point","coordinates":[-86.0431333785436,40.2820280347735]},"isApproved":true,"items":[],"keys":["Breakfast & Brunch","American (Traditional)"],"lastUpdated":1547527612507,"name":"Erika’s Place","phone":"(317) 984-9303","price":"$$","reviewCount":27,"reviewScore":4.5,"meta":{"revision":0,"created":1547531155660,"version":0},"$loki":1},{"_id":"5c3d65bd3525a329e0bfffde","address":"120 N Sam Ralston Rd","location":{"type":"Point","coordinates":[-86.04241,40.28183]},"isApproved":true,"items":[],"keys":["Fast Food","Burgers"],"lastUpdated":1547527612223,"name":"White Castle","phone":"(765) 482-9683","price":"$","reviewCount":10,"reviewScore":2.5,"meta":{"revision":0,"created":1547531155660,"version":0},"$loki":2},{"_id":"5c3d65bd3525a329e0c0ae80","address":"808 Logan St","location":{"type":"Point","coordinates":[-86.041549,40.2814003]},"isApproved":true,"items":[],"keys":["Dive Bars","American (Traditional)","Sandwiches"],"lastUpdated":1547527612491,"name":"Syd’s","phone":"(317) 773-6132","price":"$$","reviewCount":55,"reviewScore":3.5,"meta":{"revision":0,"created":1547531155660,"version":0},"$loki":3},{"_id":"5c3d65bd3525a329e0c054c6","address":"320 S Lebanon St","location":{"type":"Point","coordinates":[-86.0406511,40.2773256]},"isApproved":true,"items":[],"keys":["Sandwiches","Fast Food","Delis"],"lastUpdated":1547527612347,"name":"Jimmy John’s","phone":"(765) 481-2777","price":"","reviewCount":6,"reviewScore":4,"meta":{"revision":0,"created":1547531155660,"version":0},"$loki":4},{"_id":"5c3d65bd3525a329e0c05ea4","address":"17409 Wheeler Rd","location":{"type":"Point","coordinates":[-86.0288794322226,40.2839603017155]},"isApproved":true,"items":[],"keys":["Pizza","Pubs"],"lastUpdated":1547527612367,"name":"Noble Roman’s Craft Pizza & Pub","phone":"(317) 867-3377","price":"$$","reviewCount":77,"reviewScore":4,"meta":{"revision":0,"created":1547531155660,"version":0},"$loki":5},{"_id":"5c3d65bd3525a329e0c138ec","address":"309 N Washington St","location":{"type":"Point","coordinates":[-86.0289977,40.2840606]},"isApproved":true,"items":[],"keys":["Fast Food","Chicken Wings","Chicken Shop"],"lastUpdated":1547527612698,"name":"KFC","phone":"(765) 362-0081","price":"$$","reviewCount":13,"reviewScore":1.5,"meta":{"revision":0,"created":1547531155660,"version":0},"$loki":6},{"_id":"5c3d65bd3525a329e0c1822a","address":"3216 Sr 32","location":{"type":"Point","coordinates":[-86.0308697028177,40.2822337842282]},"isApproved":true,"items":[],"keys":["Pizza"],"lastUpdated":1547527612809,"name":"HotBox Pizza","phone":"(317) 399-1900","price":"$$","reviewCount":10,"reviewScore":3,"meta":{"revision":0,"created":1547531155660,"version":0},"$loki":7},{"_id":"5c3d65bd3525a329e0c096df","address":"557 Westfield Rd","location":{"type":"Point","coordinates":[-86.0317,40.28259]},"isApproved":true,"items":[],"keys":["Fast Food","Ice Cream & Frozen Yogurt","Burgers"],"lastUpdated":1547527612454,"name":"Culver’s","phone":"(317) 219-6420","price":"$","reviewCount":12,"reviewScore":3.5,"meta":{"revision":0,"created":1547531155660,"version":0},"$loki":8},{"_id":"5c3d65bd3525a329e0c19457","address":"395 Westfield Rd","location":{"type":"Point","coordinates":[-86.031316440718,40.2827893999381]},"isApproved":true,"items":[],"keys":["Cafeteria","American (New)"],"lastUpdated":1547527612840,"name":"Riverview Cafe at Riverview Health Noblesville","phone":"(317) 803-6042","price":"","reviewCount":1,"reviewScore":3,"meta":{"revision":0,"created":1547531155660,"version":0},"$loki":9},{"_id":"5c3d65bd3525a329e0c0ce73","address":"506 N Main St","location":{"type":"Point","coordinates":[-86.04155,40.28933]},"isApproved":true,"items":[],"keys":["Restaurants"],"lastUpdated":1547527612534,"name":"Faye’s Northside Restaurant","phone":"(765) 675-4191","price":"","reviewCount":5,"reviewScore":4.5,"meta":{"revision":0,"created":1547531155660,"version":0},"$loki":10},{"_id":"5c3d65bd3525a329e0c01f12","address":"400 Sheridan Rd","location":{"type":"Point","coordinates":[-86.0326414,40.2821223]},"isApproved":true,"items":[],"keys":["Fast Food","Chicken Wings","Chicken Shop"],"lastUpdated":1547527612261,"name":"KFC","phone":"(317) 773-5958","price":"$","reviewCount":10,"reviewScore":2,"meta":{"revision":0,"created":1547531155660,"version":0},"$loki":11},{"_id":"5c3d65bd3525a329e0c1b50c","address":"2425 E Wabash St","location":{"type":"Point","coordinates":[-86.0372646,40.2821106]},"isApproved":true,"items":[],"keys":["Pizza"],"lastUpdated":1547527612885,"name":"Papa John’s Pizza","phone":"(765) 659-9555","price":"","reviewCount":1,"reviewScore":2,"meta":{"revision":0,"created":1547531155660,"version":0},"$loki":12},{"_id":"5c3d65bd3525a329e0c0de3a","address":"112 E Main St","location":{"type":"Point","coordinates":[-86.050096,40.282961]},"isApproved":true,"items":[],"keys":["Chinese","Vietnamese"],"lastUpdated":1547527612563,"name":"Super Bowl Pho","phone":"(317) 399-7858","price":"$","reviewCount":226,"reviewScore":4,"meta":{"revision":0,"created":1547531155660,"version":0},"$loki":13},{"_id":"5c3d65bd3525a329e0c0c357","address":"214 E Main St","location":{"type":"Point","coordinates":[-86.1300669,40.2764373]},"isApproved":true,"items":[],"keys":["American (Traditional)","Desserts","Seafood"],"lastUpdated":1547527612518,"name":"Sunny’s Chicken Westfield","phone":"(317) 399-7077","price":"$","reviewCount":44,"reviewScore":3.5,"meta":{"revision":0,"created":1547531155660,"version":0},"$loki":14},{"_id":"5c3d65bd3525a329e0c07f1d","address":"1551 E Wabash St","location":{"type":"Point","coordinates":[-86.1329023,40.1892565]},"isApproved":true,"items":[],"keys":["Burgers","Fast Food"],"lastUpdated":1547527612418,"name":"Wendy’s","phone":"(765) 659-2811","price":"","reviewCount":1,"reviewScore":5,"meta":{"revision":0,"created":1547531155660,"version":0},"$loki":15},{"_id":"5c3d65bd3525a329e0c05d9c","address":"137 W Main St","location":{"type":"Point","coordinates":[-86.1273707,40.1606991]},"isApproved":true,"items":[],"keys":["Burgers","Salad","American (Traditional)"],"lastUpdated":1547527612361,"name":"Wolfies Grill","phone":"(317) 399-7826","price":"$$","reviewCount":80,"reviewScore":4,"meta":{"revision":0,"created":1547531155660,"version":0},"$loki":16},{"_id":"5c3d65bd3525a329e0c1a997","address":"108 S Union St","location":{"type":"Point","coordinates":[-86.1291972,40.1315543]},"isApproved":true,"items":[],"keys":["Pizza","Italian","Sandwiches"],"lastUpdated":1547527612868,"name":"Jan’s Village Pizza","phone":"(317) 896-5050","price":"$","reviewCount":69,"reviewScore":3.5,"meta":{"revision":0,"created":1547531155660,"version":0},"$loki":17},{"_id":"5c3d65bd3525a329e0c06827","address":"4708 S Scatterfield Rd","location":{"type":"Point","coordinates":[-86.0800303146243,40.0507469913144]},"isApproved":true,"items":[],"keys":["Chinese"],"lastUpdated":1547527612378,"name":"Lantern House Asian Bistro","phone":"(765) 393-1431","price":"","reviewCount":6,"reviewScore":4,"meta":{"revision":0,"created":1547531155660,"version":0},"$loki":18},{"_id":"5c3d65bd3525a329e0c1b211","address":"2201 E Wabash St","location":{"type":"Point","coordinates":[-86.0800303146243,40.0507469913144]},"isApproved":true,"items":[],"keys":["Burgers"],"lastUpdated":1547527612877,"name":"Burger King","phone":"(765) 659-9082","price":"","reviewCount":1,"reviewScore":1,"meta":{"revision":0,"created":1547531155660,"version":0},"$loki":19},{"_id":"5c3d65bd3525a329e0c025b2","address":"3221 E State Rd 32","location":{"type":"Point","coordinates":[-86.050305,40.061396]},"isApproved":true,"items":[],"keys":["Pizza"],"lastUpdated":1547527612278,"name":"Little Caesars Pizza","phone":"(317) 867-3406","price":"$","reviewCount":2,"reviewScore":5,"meta":{"revision":0,"created":1547531155660,"version":0},"$loki":20},{"_id":"5c3d65bd3525a329e0c0e1dd","address":"221 S Perry St","location":{"type":"Point","coordinates":[-86.0295286774635,40.0478062844935]},"isApproved":true,"items":[],"keys":["Chinese","Buffets"],"lastUpdated":1547527612565,"name":"China Buffet","phone":"(765) 762-3978","price":"","reviewCount":5,"reviewScore":2,"meta":{"revision":0,"created":1547531155660,"version":0},"$loki":21},{"_id":"5c3d65bd3525a329e0c0d844","address":"17409 Wheeler Rd","location":{"type":"Point","coordinates":[-86.029395,40.0475368]},"isApproved":true,"items":[],"keys":["Sandwiches"],"lastUpdated":1547527612555,"name":"Jimmy John’s","phone":"(317) 804-2090","price":"","reviewCount":8,"reviewScore":3,"meta":{"revision":0,"created":1547531155660,"version":0},"$loki":22},{"_id":"5c3d65bd3525a329e0c14f78","address":"604 W Pendleton Ave","location":{"type":"Point","coordinates":[-86.0254,40.0492]},"isApproved":true,"items":[],"keys":["Pizza"],"lastUpdated":1547527612736,"name":"Pizza King","phone":"(765) 534-3200","price":"$$$","reviewCount":3,"reviewScore":2.5,"meta":{"revision":0,"created":1547531155660,"version":0},"$loki":23},{"_id":"5c3d65bd3525a329e0c15433","address":"597 Westfield Rd","location":{"type":"Point","coordinates":[-86.0254,40.0492]},"isApproved":true,"items":[],"keys":["Pizza","Chicken Wings","Sandwiches"],"lastUpdated":1547527612739,"name":"Domino’s Pizza","phone":"(317) 773-7373","price":"","reviewCount":13,"reviewScore":2,"meta":{"revision":0,"created":1547531155660,"version":0},"$loki":24},{"_id":"5c3d65bd3525a329e0c13650","address":"230 Conner St","location":{"type":"Point","coordinates":[-86.0270909,40.0470101]},"isApproved":true,"items":[],"keys":["Fast Food","Burgers"],"lastUpdated":1547527612696,"name":"Wendy’s","phone":"(317) 773-4065","price":"","reviewCount":7,"reviewScore":2,"meta":{"revision":0,"created":1547531155660,"version":0},"$loki":25},{"_id":"5c3d65bd3525a329e0c0f8fb","address":"180 W Logan St","location":{"type":"Point","coordinates":[-86.0266851,40.0474841]},"isApproved":true,"items":[],"keys":["Chinese"],"lastUpdated":1547527612600,"name":"Wok & Roll","phone":"(317) 219-7007","price":"$","reviewCount":30,"reviewScore":3.5,"meta":{"revision":0,"created":1547531155660,"version":0},"$loki":26},{"_id":"5c3d65bd3525a329e0c0bfec","address":"369 W Jackson St","location":{"type":"Point","coordinates":[-86.0259547472214,40.0476358521229]},"isApproved":true,"items":[],"keys":["Fast Food","Ice Cream & Frozen Yogurt"],"lastUpdated":1547527612516,"name":"Alexander’s On the Water","phone":"","price":"$","reviewCount":9,"reviewScore":3,"meta":{"revision":0,"created":1547531155660,"version":0},"$loki":27},{"_id":"5c3d65bd3525a329e0c120c9","address":"3703 State Rd 32 W","location":{"type":"Point","coordinates":[-86.025498,40.046948]},"isApproved":true,"items":[],"keys":["Burgers","Fast Food"],"lastUpdated":1547527612663,"name":"Wendy’s","phone":"(317) 867-3574","price":"$","reviewCount":11,"reviewScore":3,"meta":{"revision":0,"created":1547531155660,"version":0},"$loki":28},{"_id":"5c3d65bd3525a329e0c136c3","address":"781 E Main St","location":{"type":"Point","coordinates":[-86.022449,40.047509]},"isApproved":true,"items":[],"keys":["Breakfast & Brunch","American (Traditional)"],"lastUpdated":1547527612696,"name":"Westfield Diner Pancake House and Grill","phone":"(317) 804-2007","price":"$","reviewCount":48,"reviewScore":3.5,"meta":{"revision":0,"created":1547531155660,"version":0},"$loki":29},{"_id":"5c3d65bd3525a329e0c179b3","address":"201 Wjackson St","location":{"type":"Point","coordinates":[-86.0138714,40.046865]},"isApproved":true,"items":[],"keys":["Fast Food","Burgers","Coffee & Tea"],"lastUpdated":1547527612792,"name":"McDonald’s","phone":"(765) 764-0700","price":"","reviewCount":2,"reviewScore":2,"meta":{"revision":0,"created":1547531155660,"version":0},"$loki":30},{"_id":"5c3d65bd3525a329e0c10bee","address":"1707 N Lebanon St","location":{"type":"Point","coordinates":[-86.0144647210836,40.0466638968095]},"isApproved":true,"items":[],"keys":["Pizza","Italian","Chicken Wings"],"lastUpdated":1547527612632,"name":"Pizza Hut","phone":"(765) 482-6777","price":"$$","reviewCount":8,"reviewScore":4,"meta":{"revision":0,"created":1547531155660,"version":0},"$loki":31},{"_id":"5c3d65bd3525a329e0c01fa1","address":"1503 E Wabash St","location":{"type":"Point","coordinates":[-86.0145481,40.0468403]},"isApproved":true,"items":[],"keys":["Pizza","Italian","Chicken Wings"],"lastUpdated":1547527612269,"name":"Pizza Hut","phone":"(765) 654-8748","price":"","reviewCount":2,"reviewScore":1.5,"meta":{"revision":0,"created":1547531155660,"version":0},"$loki":32},{"_id":"5c3d65bd3525a329e0c1070e","address":"805 E Jefferson St","location":{"type":"Point","coordinates":[-86.0196698829532,40.0498243447333]},"isApproved":true,"items":[],"keys":["Fast Food","Burgers","Coffee & Tea"],"lastUpdated":1547527612619,"name":"McDonald’s","phone":"(765) 675-7645","price":"$","reviewCount":8,"reviewScore":1.5,"meta":{"revision":0,"created":1547531155660,"version":0},"$loki":33},{"_id":"5c3d65bd3525a329e0c11b4e","address":"2100 Broadway","location":{"type":"Point","coordinates":[-86.0196698829532,40.0498243447333]},"isApproved":true,"items":[],"keys":["Bakeries","Breakfast & Brunch","Cafes"],"lastUpdated":1547527612659,"name":"Grace Place Bakery Cafe","phone":"(765) 643-6688","price":"$$","reviewCount":7,"reviewScore":4.5,"meta":{"revision":0,"created":1547531155660,"version":0},"$loki":34},{"_id":"5c3d65bd3525a329e0c19c77","address":"770 Westfield Road","location":{"type":"Point","coordinates":[-86.018768,40.049406]},"isApproved":true,"items":[],"keys":["Pizza"],"lastUpdated":1547527612850,"name":"Papa Murphy’s","phone":"(317) 774-7272","price":"$$","reviewCount":3,"reviewScore":2.5,"meta":{"revision":0,"created":1547531155660,"version":0},"$loki":35},{"_id":"5c3d65bd3525a329e0c05bd0","address":"750 Westfield Rd","location":{"type":"Point","coordinates":[-86.0204281,40.0497097]},"isApproved":true,"items":[],"keys":["Chinese"],"lastUpdated":1547527612356,"name":"Happy Dragon","phone":"(317) 774-2288","price":"$","reviewCount":27,"reviewScore":4,"meta":{"revision":0,"created":1547531155660,"version":0},"$loki":36},{"_id":"5c3d65bd3525a329e0c16c4f","address":"550 Westfield Rd","location":{"type":"Point","coordinates":[-86.0214491933584,40.0473838265742]},"isApproved":true,"items":[],"keys":["Pizza","Italian","Bars"],"lastUpdated":1547527612774,"name":"Michaelangelos Italian Bistro","phone":"(317) 565-4446","price":"$$","reviewCount":69,"reviewScore":3,"meta":{"revision":0,"created":1547531155660,"version":0},"$loki":37},{"_id":"5c3d65bd3525a329e0c11e19","address":"960 Tournament Trl","location":{"type":"Point","coordinates":[-86.0155731,40.0453446]},"isApproved":true,"items":[],"keys":["Burgers","Ice Cream & Frozen Yogurt","Fast Food"],"lastUpdated":1547527612661,"name":"Bub’s Burgers","phone":"(317) 896-2874","price":"$$","reviewCount":63,"reviewScore":2.5,"meta":{"revision":0,"created":1547531155660,"version":0},"$loki":38},{"_id":"5c3d65bd3525a329e0c070d9","address":"318 Liberty St","location":{"type":"Point","coordinates":[-86.014577,40.045429]},"isApproved":true,"items":[],"keys":["Restaurants"],"lastUpdated":1547527612389,"name":"Courthouse Cafe","phone":"(765) 793-1724","price":"","reviewCount":1,"reviewScore":2,"meta":{"revision":0,"created":1547531155660,"version":0},"$loki":39},{"_id":"5c3d65bd3525a329e0c106eb","address":"219 Park St","location":{"type":"Point","coordinates":[-86.0138645768166,40.0454242138352]},"isApproved":true,"items":[],"keys":["Italian","Wine Bars"],"lastUpdated":1547527612619,"name":"The Italian House On Park","phone":"(317) 804-5619","price":"$$","reviewCount":124,"reviewScore":4.5,"meta":{"revision":0,"created":1547531155660,"version":0},"$loki":40},{"_id":"5c3d65bd3525a329e0c05697","address":"16502 N State Rd 63","location":{"type":"Point","coordinates":[-86.0232687368989,40.0460073553011]},"isApproved":true,"items":[],"keys":["Fast Food","Sandwiches"],"lastUpdated":1547527612348,"name":"Arby’s","phone":"(765) 793-7287","price":"$","reviewCount":4,"reviewScore":2,"meta":{"revision":0,"created":1547531155660,"version":0},"$loki":41},{"_id":"5c3d65bd3525a329e0c01396","address":"201 E Main St","location":{"type":"Point","coordinates":[-86.025981,40.046458]},"isApproved":true,"items":[],"keys":["Fast Food","Sandwiches"],"lastUpdated":1547527612248,"name":"Subway","phone":"(317) 867-1621","price":"$","reviewCount":4,"reviewScore":3.5,"meta":{"revision":0,"created":1547531155660,"version":0},"$loki":42},{"_id":"5c3d65bd3525a329e0c17995","address":"14 Harbourtown Ctr","location":{"type":"Point","coordinates":[-86.0272592,40.0466397]},"isApproved":true,"items":[],"keys":["Pizza","Italian"],"lastUpdated":1547527612792,"name":"Pizza King","phone":"(317) 877-0636","price":"$$","reviewCount":17,"reviewScore":2,"meta":{"revision":0,"created":1547531155660,"version":0},"$loki":43},{"_id":"5c3d65bd3525a329e0c04439","address":"19 Harbourtown Ctr","location":{"type":"Point","coordinates":[-86.027389,40.046327]},"isApproved":true,"items":[],"keys":["Chinese","Thai"],"lastUpdated":1547527612322,"name":"Peking Garden Restaurant","phone":"(317) 877-8888","price":"$","reviewCount":31,"reviewScore":4,"meta":{"revision":0,"created":1547531155660,"version":0},"$loki":44},{"_id":"5c3d65bd3525a329e0c13328","address":"925 E Jefferson","location":{"type":"Point","coordinates":[-86.0298489,40.0465676]},"isApproved":true,"items":[],"keys":["Tex-Mex","Fast Food","Mexican"],"lastUpdated":1547527612689,"name":"Taco Bell","phone":"(765) 675-6632","price":"$","reviewCount":1,"reviewScore":2,"meta":{"revision":0,"created":1547531155660,"version":0},"$loki":45},{"_id":"5c3d65bd3525a329e0c17aea","address":"654 Logan St","location":{"type":"Point","coordinates":[-86.0337981,40.0935307]},"isApproved":true,"items":[],"keys":["American (Traditional)"],"lastUpdated":1547527612799,"name":"Courtney’s Kitchen","phone":"(317) 773-2234","price":"$","reviewCount":75,"reviewScore":4,"meta":{"revision":0,"created":1547531155660,"version":0},"$loki":46},{"_id":"5c3d65bd3525a329e0c114fa","address":"122 S Main St","location":{"type":"Point","coordinates":[-86.0338849201798,40.0895589453723]},"isApproved":true,"items":[],"keys":["Pizza"],"lastUpdated":1547527612643,"name":"Pizza King","phone":"(765) 675-7483","price":"","reviewCount":6,"reviewScore":4,"meta":{"revision":0,"created":1547531155660,"version":0},"$loki":47},{"_id":"5c3d65bd3525a329e0c09da5","address":"625 Westfield Rd","location":{"type":"Point","coordinates":[-86.0339376,40.0896741]},"isApproved":true,"items":[],"keys":["Mexican"],"lastUpdated":1547527612471,"name":"Dona Paula","phone":"(317) 770-1770","price":"","reviewCount":1,"reviewScore":5,"meta":{"revision":0,"created":1547531155660,"version":0},"$loki":48},{"_id":"5c3d65bd3525a329e0c0ca93","address":"1425 Orchard Ln","location":{"type":"Point","coordinates":[-86.0339376,40.0896741]},"isApproved":true,"items":[],"keys":["Barbeque"],"lastUpdated":1547527612533,"name":"Hillbilly Fixins","phone":"(765) 683-0113","price":"$$","reviewCount":9,"reviewScore":4,"meta":{"revision":0,"created":1547531155660,"version":0},"$loki":49},{"_id":"5c3d65bd3525a329e0c0d254","address":"594 Locust St","location":{"type":"Point","coordinates":[-86.0704245,40.0936794]},"isApproved":true,"items":[],"keys":["Pizza","Vegetarian"],"lastUpdated":1547527612545,"name":"Papa Pepperoni’s Pizza","phone":"(765) 354-9880","price":"","reviewCount":4,"reviewScore":4,"meta":{"revision":0,"created":1547531155660,"version":0},"$loki":50},{"_id":"5c3d65bd3525a329e0c1a9d2","address":"610 Wfield Rd","location":{"type":"Point","coordinates":[-86.0704245,40.0936794]},"isApproved":true,"items":[],"keys":["Mexican","Fast Food","Tex-Mex"],"lastUpdated":1547527612868,"name":"Taco Bell","phone":"(317) 776-0795","price":"$","reviewCount":13,"reviewScore":2.5,"meta":{"revision":0,"created":1547531155660,"version":0},"$loki":51},{"_id":"5c3d65bd3525a329e0c0385d","address":"17650 Village Center Dr","location":{"type":"Point","coordinates":[-86.070738,40.093667]},"isApproved":true,"items":[],"keys":["Burgers","Fast Food","Coffee & Tea"],"lastUpdated":1547527612304,"name":"McDonald’s","phone":"(317) 896-1081","price":"$","reviewCount":10,"reviewScore":1,"meta":{"revision":0,"created":1547531155660,"version":0},"$loki":52},{"_id":"5c3d65bd3525a329e0c0b71f","address":"4434 S Scatterfield Rd","location":{"type":"Point","coordinates":[-86.070738,40.093667]},"isApproved":true,"items":[],"keys":["Mexican"],"lastUpdated":1547527612505,"name":"Riviera Maya Mexican Grill","phone":"(765) 641-0099","price":"$","reviewCount":23,"reviewScore":3.5,"meta":{"revision":0,"created":1547531155660,"version":0},"$loki":53},{"_id":"5c3d65bd3525a329e0bff427","address":"1701 Mounds Rd","location":{"type":"Point","coordinates":[-86.0707699194831,40.0934630616035]},"isApproved":true,"items":[],"keys":["Burgers"],"lastUpdated":1547527612216,"name":"The Lemon Drop","phone":"(765) 644-9055","price":"$","reviewCount":80,"reviewScore":4.5,"meta":{"revision":0,"created":1547531155660,"version":0},"$loki":54},{"_id":"5c3d65bd3525a329e0c0ae02","address":"2360 N Lebanon St","location":{"type":"Point","coordinates":[-86.0707699194831,40.0934630616035]},"isApproved":true,"items":[],"keys":["Pizza"],"lastUpdated":1547527612491,"name":"Pizza King","phone":"(765) 482-5980","price":"","reviewCount":3,"reviewScore":2.5,"meta":{"revision":0,"created":1547531155660,"version":0},"$loki":55},{"_id":"5c3d65bd3525a329e0bff857","address":"RR 2","location":{"type":"Point","coordinates":[-86.0700484,40.0937201]},"isApproved":true,"items":[],"keys":["Restaurants"],"lastUpdated":1547527612218,"name":"Dairy Queen","phone":"(317) 758-5555","price":"","reviewCount":2,"reviewScore":1,"meta":{"revision":0,"created":1547531155660,"version":0},"$loki":56},{"_id":"5c3d65bd3525a329e0c04cbf","address":"130 S Peru St","location":{"type":"Point","coordinates":[-86.0140686035156,40.1237030029297]},"isApproved":true,"items":[],"keys":["Pizza","Chicken Wings","Sandwiches"],"lastUpdated":1547527612338,"name":"Domino’s Pizza","phone":"(317) 984-7307","price":"$$","reviewCount":1,"reviewScore":4,"meta":{"revision":0,"created":1547531155660,"version":0},"$loki":57},{"_id":"5c3d65bd3525a329e0bffb16","address":"965 Tournament Trl","location":{"type":"Point","coordinates":[-86.0138714,40.1303213]},"isApproved":true,"items":[],"keys":["Mexican","Fast Food"],"lastUpdated":1547527612220,"name":"Taco Bell","phone":"(317) 867-0049","price":"$","reviewCount":37,"reviewScore":2,"meta":{"revision":0,"created":1547531155660,"version":0},"$loki":58},{"_id":"5c3d65bd3525a329e0c17fef","address":"425 Dr Martin Luther King Jr Blvd","location":{"type":"Point","coordinates":[-86.0138714,40.1303213]},"isApproved":true,"items":[],"keys":["Barbeque"],"lastUpdated":1547527612802,"name":"Pittt Barbeque & Grill","phone":"(765) 643-1309","price":"","reviewCount":7,"reviewScore":2.5,"meta":{"revision":0,"created":1547531155660,"version":0},"$loki":59},{"_id":"5c3d65bd3525a329e0c0a7af","address":"100 W Main St","location":{"type":"Point","coordinates":[-86.0138913,40.130302]},"isApproved":true,"items":[],"keys":["Mexican"],"lastUpdated":1547527612481,"name":"5 de Mayo","phone":"(317) 984-5005","price":"","reviewCount":9,"reviewScore":4,"meta":{"revision":0,"created":1547531155660,"version":0},"$loki":60},{"_id":"5c3d65bd3525a329e0c04db0","address":"5530 Scatterfield Rd","location":{"type":"Point","coordinates":[-86.0139511,40.1304039]},"isApproved":true,"items":[],"keys":["American (Traditional)","Burgers"],"lastUpdated":1547527612338,"name":"Ruby Tuesday","phone":"(765) 643-2496","price":"$$","reviewCount":26,"reviewScore":3.5,"meta":{"revision":0,"created":1547531155660,"version":0},"$loki":61},{"_id":"5c3d65bd3525a329e0c161c1","address":"711 E Main St","location":{"type":"Point","coordinates":[-86.0139511,40.1304039]},"isApproved":true,"items":[],"keys":["Pizza","Chicken Wings","Sandwiches"],"lastUpdated":1547527612763,"name":"Domino’s Pizza","phone":"(317) 896-9292","price":"$$","reviewCount":3,"reviewScore":3.5,"meta":{"revision":0,"created":1547531155660,"version":0},"$loki":62},{"_id":"5c3d65bd3525a329e0c16aef","address":"228 Park St","location":{"type":"Point","coordinates":[-86.0137866,40.1325026]},"isApproved":true,"items":[],"keys":["Sushi Bars"],"lastUpdated":1547527612773,"name":"Chiba","phone":"(317) 804-5367","price":"$$","reviewCount":123,"reviewScore":4.5,"meta":{"revision":0,"created":1547531155660,"version":0},"$loki":63},{"_id":"5c3d65bd3525a329e0c0f59d","address":"2437 E Wabash St","location":{"type":"Point","coordinates":[-86.0135833576522,40.1323540592326]},"isApproved":true,"items":[],"keys":["Chinese"],"lastUpdated":1547527612593,"name":"Great China Buffet","phone":"(765) 654-9025","price":"","reviewCount":3,"reviewScore":2,"meta":{"revision":0,"created":1547531155660,"version":0},"$loki":64},{"_id":"5c3d65bd3525a329e0c129fa","address":"8605 River Crossing Blvd","location":{"type":"Point","coordinates":[-86.0135833576522,40.1323540592326]},"isApproved":true,"items":[],"keys":["American (New)"],"lastUpdated":1547527612679,"name":"Late Harvest Kitchen","phone":"(317) 960-5936","price":"$$$","reviewCount":236,"reviewScore":4,"meta":{"revision":0,"created":1547531155660,"version":0},"$loki":65},{"_id":"5c3d65bd3525a329e0c065a4","address":"110 S Peru St","location":{"type":"Point","coordinates":[-86.0143776,40.1320598]},"isApproved":true,"items":[],"keys":["Fast Food","Sandwiches"],"lastUpdated":1547527612377,"name":"Subway","phone":"(317) 984-2090","price":"","reviewCount":3,"reviewScore":4.5,"meta":{"revision":0,"created":1547531155660,"version":0},"$loki":66},{"_id":"5c3d65bd3525a329e0c1a59b","address":"940 Tournament Trl","location":{"type":"Point","coordinates":[-86.0138514,40.1311394]},"isApproved":true,"items":[],"keys":["Burgers","Salad","Sandwiches"],"lastUpdated":1547527612860,"name":"Dairy Queen","phone":"(317) 804-8896","price":"$","reviewCount":20,"reviewScore":3,"meta":{"revision":0,"created":1547531155660,"version":0},"$loki":67},{"_id":"5c3d65bd3525a329e0c05a9e","address":"435 N Mount Zion Rd","location":{"type":"Point","coordinates":[-86.0166616,40.1324141]},"isApproved":true,"items":[],"keys":["Tex-Mex","Fast Food","Mexican"],"lastUpdated":1547527612356,"name":"Taco Bell","phone":"(765) 482-2355","price":"$","reviewCount":7,"reviewScore":2,"meta":{"revision":0,"created":1547531155660,"version":0},"$loki":68},{"_id":"5c3d65bd3525a329e0c01bb4","address":"409 W Jackson St","location":{"type":"Point","coordinates":[-86.019947,40.131528]},"isApproved":true,"items":[],"keys":["Barbeque","Burgers"],"lastUpdated":1547527612258,"name":"Boathouse Kitchen & Swan Dive","phone":"(317) 376-1882","price":"","reviewCount":10,"reviewScore":4,"meta":{"revision":0,"created":1547531155660,"version":0},"$loki":69},{"_id":"5c3d65bd3525a329e0c0678a","address":"231 Park St","location":{"type":"Point","coordinates":[-86.018842,40.132527]},"isApproved":true,"items":[],"keys":["Pizza"],"lastUpdated":1547527612378,"name":"Greeks Pizzeria","phone":"(317) 804-7777","price":"$$","reviewCount":23,"reviewScore":3.5,"meta":{"revision":0,"created":1547531155660,"version":0},"$loki":70},{"_id":"5c3d65bd3525a329e0c06a2b","address":"4403 E State Rd 32","location":{"type":"Point","coordinates":[-86.0194415599108,40.132385708262]},"isApproved":true,"items":[],"keys":["Sandwiches","Fast Food"],"lastUpdated":1547527612379,"name":"Subway","phone":"(765) 361-9626","price":"","reviewCount":1,"reviewScore":1,"meta":{"revision":0,"created":1547531155660,"version":0},"$loki":71},{"_id":"5c3d65bd3525a329e0c1642d","address":"815 N Main St","location":{"type":"Point","coordinates":[-86.0194415599108,40.132385708262]},"isApproved":true,"items":[],"keys":["Mexican"],"lastUpdated":1547527612764,"name":"El 5 De Mayo","phone":"(765) 534-4441","price":"$","reviewCount":9,"reviewScore":4.5,"meta":{"revision":0,"created":1547531155660,"version":0},"$loki":72},{"_id":"5c3d65bd3525a329e0c05c04","address":"11 N Main St","location":{"type":"Point","coordinates":[-86.0188737,40.1319508]},"isApproved":true,"items":[],"keys":["Pizza"],"lastUpdated":1547527612356,"name":"Pizza House","phone":"(317) 984-4399","price":"$$","reviewCount":18,"reviewScore":4,"meta":{"revision":0,"created":1547531155660,"version":0},"$loki":73},{"_id":"5c3d65bd3525a329e0c021c3","address":"2012 E 59th St","location":{"type":"Point","coordinates":[-85.8541216,40.0699222]},"isApproved":true,"items":[],"keys":["American (Traditional)","Breakfast & Brunch","Southern"],"lastUpdated":1547527612275,"name":"Cracker Barrel Old Country Store","phone":"(765) 642-6424","price":"$$","reviewCount":16,"reviewScore":3,"meta":{"revision":0,"created":1547531155660,"version":0},"$loki":74},{"_id":"5c3d65bd3525a329e0c10f07","address":"950 Field Dr","location":{"type":"Point","coordinates":[-85.8545614,40.0705375]},"isApproved":true,"items":[],"keys":["American (Traditional)","Karaoke"],"lastUpdated":1547527612640,"name":"Moose Lodge","phone":"(317) 773-9916","price":"","reviewCount":2,"reviewScore":2.5,"meta":{"revision":0,"created":1547531155660,"version":0},"$loki":75},{"_id":"5c3d65bd3525a329e0c11f56","address":"201 E Pendleton Ave","location":{"type":"Point","coordinates":[-85.8455644,40.0644591]},"isApproved":true,"items":[],"keys":["Ice Cream & Frozen Yogurt","Cafes"],"lastUpdated":1547527612662,"name":"Lapel’s Ice Cream Plus","phone":"(765) 534-3113","price":"$","reviewCount":4,"reviewScore":5,"meta":{"revision":0,"created":1547531155660,"version":0},"$loki":76},{"_id":"5c3d65bd3525a329e0c10646","address":"732 Main St","location":{"type":"Point","coordinates":[-85.848067,40.067532]},"isApproved":true,"items":[],"keys":["Pizza","Dive Bars"],"lastUpdated":1547527612619,"name":"Mardi Gras Pizza & Pub","phone":"(765) 534-3388","price":"$$","reviewCount":5,"reviewScore":3.5,"meta":{"revision":0,"created":1547531155660,"version":0},"$loki":77},{"_id":"5c3d65bd3525a329e0c1030a","address":"500 Broadway St","location":{"type":"Point","coordinates":[-85.7191373339739,40.051]},"isApproved":true,"items":[],"keys":["Sandwiches"],"lastUpdated":1547527612617,"name":"Frisch’s Anderson Big Boy","phone":"(765) 644-1223","price":"$","reviewCount":15,"reviewScore":3,"meta":{"revision":0,"created":1547531155660,"version":0},"$loki":78},{"_id":"5c3d65bd3525a329e0c12880","address":"6317 Dr Martin Luther King Junior Blvd","location":{"type":"Point","coordinates":[-85.6687061939503,40.0597634925248]},"isApproved":true,"items":[],"keys":["Pizza","Salad","Sandwiches"],"lastUpdated":1547527612678,"name":"Greek’s Pizzaria","phone":"(765) 640-5300","price":"$","reviewCount":18,"reviewScore":3,"meta":{"revision":0,"created":1547531155660,"version":0},"$loki":79},{"_id":"5c3d65bd3525a329e0c09391","address":"845 E 53rd St","location":{"type":"Point","coordinates":[-85.654689,40.062306]},"isApproved":true,"items":[],"keys":["Sports Bars","American (Traditional)"],"lastUpdated":1547527612452,"name":"Bourbon Street","phone":"(765) 642-5900","price":"","reviewCount":2,"reviewScore":2,"meta":{"revision":0,"created":1547531155660,"version":0},"$loki":80},{"_id":"5c3d65bd3525a329e0c01acd","address":"5009 S Scatterfield Rd","location":{"type":"Point","coordinates":[-85.6558899,40.061295]},"isApproved":true,"items":[],"keys":["Steakhouses"],"lastUpdated":1547527612258,"name":"Ponderosa Steakhouse","phone":"(765) 642-2720","price":"$$","reviewCount":16,"reviewScore":4,"meta":{"revision":0,"created":1547531155660,"version":0},"$loki":81},{"_id":"5c3d65bd3525a329e0c02073","address":"4410 Scatterfield Rd","location":{"type":"Point","coordinates":[-85.655422,40.059406]},"isApproved":true,"items":[],"keys":["Italian"],"lastUpdated":1547527612275,"name":"Fazoli’s","phone":"(765) 622-9163","price":"$","reviewCount":12,"reviewScore":4,"meta":{"revision":0,"created":1547531155660,"version":0},"$loki":82},{"_id":"5c3d65bd3525a329e0c05ea7","address":"2128 S Scatterfield Rd","location":{"type":"Point","coordinates":[-85.654828,40.055741]},"isApproved":true,"items":[],"keys":["Chinese"],"lastUpdated":1547527612367,"name":"China House","phone":"(765) 644-2828","price":"$","reviewCount":12,"reviewScore":3,"meta":{"revision":0,"created":1547531155660,"version":0},"$loki":83},{"_id":"5c3d65bd3525a329e0c19f4d","address":"5806 Scatterfield Rd","location":{"type":"Point","coordinates":[-85.654334,40.054703]},"isApproved":true,"items":[],"keys":["Seafood","American (Traditional)"],"lastUpdated":1547527612851,"name":"Red Lobster","phone":"(765) 643-7663","price":"$$","reviewCount":17,"reviewScore":3.5,"meta":{"revision":0,"created":1547531155660,"version":0},"$loki":84},{"_id":"5c3d65bd3525a329e0c19f8d","address":"1805 S Scatterfield Rd","location":{"type":"Point","coordinates":[-85.653524,40.051705]},"isApproved":true,"items":[],"keys":["Burgers","Fast Food"],"lastUpdated":1547527612851,"name":"Wendy’s","phone":"(765) 649-1777","price":"$","reviewCount":5,"reviewScore":4.5,"meta":{"revision":0,"created":1547531155660,"version":0},"$loki":85},{"_id":"5c3d65bd3525a329e0c19705","address":"6370 S Scatterfield Rd","location":{"type":"Point","coordinates":[-85.6521795,40.0516641]},"isApproved":true,"items":[],"keys":["American (Traditional)","Steakhouses","Sandwiches"],"lastUpdated":1547527612841,"name":"Montana Mike’s Steakhouse","phone":"(765) 649-8000","price":"$$","reviewCount":55,"reviewScore":3.5,"meta":{"revision":0,"created":1547531155660,"version":0},"$loki":86},{"_id":"5c3d65bd3525a329e0c0d49e","address":"2724 Nichol Ave","location":{"type":"Point","coordinates":[-85.6518199998373,40.0487431575318]},"isApproved":true,"items":[],"keys":["Szechuan"],"lastUpdated":1547527612547,"name":"Great Taste China","phone":"(765) 643-2893","price":"$$","reviewCount":8,"reviewScore":2,"meta":{"revision":0,"created":1547531155660,"version":0},"$loki":87},{"_id":"5c3d65bd3525a329e0c03aed","address":"211 E Main St","location":{"type":"Point","coordinates":[-85.6518964,40.0489316]},"isApproved":true,"items":[],"keys":["Buffets","Chinese"],"lastUpdated":1547527612312,"name":"Bamboo House Buffet","phone":"(765) 378-5400","price":"","reviewCount":5,"reviewScore":3,"meta":{"revision":0,"created":1547531155660,"version":0},"$loki":88},{"_id":"5c3d65bd3525a329e0c020d3","address":"5567 S Scatterfield Rd","location":{"type":"Point","coordinates":[-85.652358,40.0508481]},"isApproved":true,"items":[],"keys":["Chinese","Japanese","American (Traditional)"],"lastUpdated":1547527612275,"name":"Hibachi Grill & Supreme Buffet","phone":"(765) 393-0119","price":"$$","reviewCount":27,"reviewScore":2.5,"meta":{"revision":0,"created":1547531155660,"version":0},"$loki":89},{"_id":"5c3d65bd3525a329e0c159c1","address":"4682 S Scatterfield Rd","location":{"type":"Point","coordinates":[-85.6511137,40.0557991]},"isApproved":true,"items":[],"keys":["Mexican","Fast Food"],"lastUpdated":1547527612747,"name":"QDOBA Mexican Eats","phone":"(765) 393-2508","price":"$","reviewCount":10,"reviewScore":3,"meta":{"revision":0,"created":1547531155660,"version":0},"$loki":90},{"_id":"5c3d65bd3525a329e0c0956a","address":"2425 Broadway St","location":{"type":"Point","coordinates":[-85.6534133,40.0545799]},"isApproved":true,"items":[],"keys":["Pizza","Italian","Chicken Wings"],"lastUpdated":1547527612453,"name":"Pizza Hut","phone":"(765) 643-6909","price":"","reviewCount":4,"reviewScore":2,"meta":{"revision":0,"created":1547531155660,"version":0},"$loki":91},{"_id":"5c3d65bd3525a329e0c050ab","address":"501 S Scatterfield Rd","location":{"type":"Point","coordinates":[-85.6536137,40.0560298]},"isApproved":true,"items":[],"keys":["Fast Food","Ice Cream & Frozen Yogurt"],"lastUpdated":1547527612340,"name":"Dairy Queen","phone":"(765) 644-8956","price":"$","reviewCount":4,"reviewScore":3,"meta":{"revision":0,"created":1547531155660,"version":0},"$loki":92},{"_id":"5c3d65bd3525a329e0c1a752","address":"2705 Nichol Ave","location":{"type":"Point","coordinates":[-85.6520369,40.0568625]},"isApproved":true,"items":[],"keys":["Pizza"],"lastUpdated":1547527612866,"name":"Scampy’s Annex","phone":"(765) 649-7183","price":"$","reviewCount":9,"reviewScore":3,"meta":{"revision":0,"created":1547531155660,"version":0},"$loki":93},{"_id":"5c3d65bd3525a329e0bfff7f","address":"5555 S Scatterfield Rd","location":{"type":"Point","coordinates":[-85.653383,40.056856]},"isApproved":true,"items":[],"keys":["American (Traditional)","Breakfast & Brunch","Comfort Food"],"lastUpdated":1547527612223,"name":"Bob Evans","phone":"(765) 643-0064","price":"$","reviewCount":13,"reviewScore":2.5,"meta":{"revision":0,"created":1547531155660,"version":0},"$loki":94},{"_id":"5c3d65bd3525a329e0c01f13","address":"4741 S Scatterfield Rd","location":{"type":"Point","coordinates":[-85.6534581631422,40.0578947051268]},"isApproved":true,"items":[],"keys":["Sandwiches","Fast Food","Delis"],"lastUpdated":1547527612261,"name":"Jimmy John’s","phone":"(765) 640-5100","price":"$","reviewCount":6,"reviewScore":2,"meta":{"revision":0,"created":1547531155660,"version":0},"$loki":95},{"_id":"5c3d65bd3525a329e0c0d71e","address":"3820 Columbus Ave","location":{"type":"Point","coordinates":[-85.6534818,40.0586463]},"isApproved":true,"items":[],"keys":["Pizza"],"lastUpdated":1547527612554,"name":"Pizza King Restaurant & Delivery","phone":"(765) 649-0191","price":"","reviewCount":15,"reviewScore":2.5,"meta":{"revision":0,"created":1547531155660,"version":0},"$loki":96},{"_id":"5c3d65bd3525a329e0c1854f","address":"15600 W Commerce Rd","location":{"type":"Point","coordinates":[-85.6520168,40.0580118]},"isApproved":true,"items":[],"keys":["Burgers","Fast Food"],"lastUpdated":1547527612815,"name":"Wendy’s","phone":"(765) 378-1022","price":"","reviewCount":3,"reviewScore":1.5,"meta":{"revision":0,"created":1547531155660,"version":0},"$loki":97},{"_id":"5c3d65bd3525a329e0c0fa9f","address":"1015 S Peru","location":{"type":"Point","coordinates":[-85.6522299908245,40.0588777498912]},"isApproved":true,"items":[],"keys":["Fast Food","Burgers","Coffee & Tea"],"lastUpdated":1547527612601,"name":"McDonald’s","phone":"(317) 984-3264","price":"$","reviewCount":11,"reviewScore":1.5,"meta":{"revision":0,"created":1547531155660,"version":0},"$loki":98},{"_id":"5c3d65bd3525a329e0c09c65","address":"6315 Scatterfield Rd","location":{"type":"Point","coordinates":[-85.6534282,40.059206]},"isApproved":true,"items":[],"keys":["Buffets","Breakfast & Brunch","American (Traditional)"],"lastUpdated":1547527612465,"name":"Golden Corral","phone":"(765) 400-1608","price":"$$","reviewCount":28,"reviewScore":3,"meta":{"revision":0,"created":1547531155660,"version":0},"$loki":99},{"_id":"5c3d65bd3525a329e0c0159b","address":"2403 Broadway St","location":{"type":"Point","coordinates":[-85.6525225921953,40.06106388412]},"isApproved":true,"items":[],"keys":["Sandwiches","Fast Food"],"lastUpdated":1547527612249,"name":"Subway","phone":"(765) 649-8993","price":"","reviewCount":1,"reviewScore":2,"meta":{"revision":0,"created":1547531155660,"version":0},"$loki":100},{"_id":"5c3d65bd3525a329e0c15546","address":"925 S Scatterfield","location":{"type":"Point","coordinates":[-85.6520586,40.0615432]},"isApproved":true,"items":[],"keys":["Mexican","Tex-Mex","Fast Food"],"lastUpdated":1547527612745,"name":"Taco Bell","phone":"(765) 642-2264","price":"","reviewCount":1,"reviewScore":1,"meta":{"revision":0,"created":1547531155660,"version":0},"$loki":101},{"_id":"5c3d65bd3525a329e0c0c0bf","address":"1422 Raible St","location":{"type":"Point","coordinates":[-85.65343,40.06142]},"isApproved":true,"items":[],"keys":["Fast Food","Mexican","Tex-Mex"],"lastUpdated":1547527612516,"name":"Taco Bell","phone":"(765) 649-4785","price":"","reviewCount":4,"reviewScore":1.5,"meta":{"revision":0,"created":1547531155660,"version":0},"$loki":102},{"_id":"5c3d65bd3525a329e0c04478","address":"2110 SR 9 South","location":{"type":"Point","coordinates":[-85.6536486037885,40.0621948017647]},"isApproved":true,"items":[],"keys":["Fast Food","Burgers"],"lastUpdated":1547527612322,"name":"Rally’s","phone":"(765) 643-2464","price":"","reviewCount":7,"reviewScore":1.5,"meta":{"revision":0,"created":1547531155660,"version":0},"$loki":103},{"_id":"5c3d65bd3525a329e0c102ee","address":"1309 Park Rd","location":{"type":"Point","coordinates":[-85.640841,40.068324]},"isApproved":true,"items":[],"keys":["Coffee & Tea","Breakfast & Brunch","Bakeries"],"lastUpdated":1547527612617,"name":"Heaven’s Delight Bakery & Cafe","phone":"(765) 609-8001","price":"$","reviewCount":7,"reviewScore":5,"meta":{"revision":0,"created":1547531155660,"version":0},"$loki":104},{"_id":"5c3d65bd3525a329e0c0d45f","address":"4500 Dan Patch Cir","location":{"type":"Point","coordinates":[-85.6408877,40.0681762]},"isApproved":true,"items":[],"keys":["Steakhouses"],"lastUpdated":1547527612547,"name":"Homestretch Steakhouse","phone":"(765) 609-4527","price":"$$$","reviewCount":11,"reviewScore":3.5,"meta":{"revision":0,"created":1547531155660,"version":0},"$loki":105},{"_id":"5c3d65bd3525a329e0bffca3","address":"14636 Greyhound Plaza","location":{"type":"Point","coordinates":[-85.6407572,40.0694018]},"isApproved":true,"items":[],"keys":["Steakhouses","American (Traditional)"],"lastUpdated":1547527612221,"name":"Charleston’s","phone":"(317) 846-5965","price":"$$","reviewCount":132,"reviewScore":4,"meta":{"revision":0,"created":1547531155660,"version":0},"$loki":106},{"_id":"5c3d65bd3525a329e0c0f76e","address":"2460 E County Rd 67","location":{"type":"Point","coordinates":[-85.6324665,40.0832979]},"isApproved":true,"items":[],"keys":["American (Traditional)"],"lastUpdated":1547527612599,"name":"Becky’s Happy Mule Cafe","phone":"(765) 683-0388","price":"$","reviewCount":18,"reviewScore":4.5,"meta":{"revision":0,"created":1547531155660,"version":0},"$loki":107},{"_id":"5c3d65bd3525a329e0c1a8d1","address":"1931 E 60th St","location":{"type":"Point","coordinates":[-85.6533012,40.1108476]},"isApproved":true,"items":[],"keys":["American (Traditional)","Breakfast & Brunch","Diners"],"lastUpdated":1547527612867,"name":"Waffle House","phone":"(765) 649-7631","price":"$","reviewCount":14,"reviewScore":3,"meta":{"revision":0,"created":1547531155660,"version":0},"$loki":108},{"_id":"5c3d65bd3525a329e0c000fe","address":"4762 S Scatterfield Rd","location":{"type":"Point","coordinates":[-85.653261,40.1064523]},"isApproved":true,"items":[],"keys":["Pizza","Italian","Buffets"],"lastUpdated":1547527612224,"name":"Art’s Pizza","phone":"(765) 642-2787","price":"$","reviewCount":17,"reviewScore":4,"meta":{"revision":0,"created":1547531155660,"version":0},"$loki":109},{"_id":"5c3d65bd3525a329e0c0c86c","address":"5607 S Scatterfield Rd","location":{"type":"Point","coordinates":[-85.6534683116511,40.1061148517366]},"isApproved":true,"items":[],"keys":["Fast Food","Burgers"],"lastUpdated":1547527612526,"name":"Burger King","phone":"(765) 649-5272","price":"$","reviewCount":6,"reviewScore":2,"meta":{"revision":0,"created":1547531155660,"version":0},"$loki":110},{"_id":"5c3d65bd3525a329e0c0b272","address":"4434 S Scatterfield Rd","location":{"type":"Point","coordinates":[-85.655711889267,40.1129030400876]},"isApproved":true,"items":[],"keys":["Mexican"],"lastUpdated":1547527612498,"name":"Real Hacienda","phone":"(765) 641-0099","price":"$","reviewCount":8,"reviewScore":4,"meta":{"revision":0,"created":1547531155660,"version":0},"$loki":111},{"_id":"5c3d65bd3525a329e0c08a9d","address":"1117 Alexandria Pike","location":{"type":"Point","coordinates":[-85.6620009200684,40.1333732298832]},"isApproved":true,"items":[],"keys":["American (Traditional)","Breakfast & Brunch"],"lastUpdated":1547527612430,"name":"Bobber’s Cafe","phone":"(765) 393-2128","price":"$","reviewCount":24,"reviewScore":4.5,"meta":{"revision":0,"created":1547531155660,"version":0},"$loki":112},{"_id":"5c3d65bd3525a329e0c0783d","address":"1922 E 53rd St","location":{"type":"Point","coordinates":[-85.6774543,40.1366313]},"isApproved":true,"items":[],"keys":["American (Traditional)","Sports Bars","Burgers"],"lastUpdated":1547527612408,"name":"Applebee’s Grill + Bar","phone":"(765) 642-7763","price":"$$","reviewCount":28,"reviewScore":3,"meta":{"revision":0,"created":1547531155660,"version":0},"$loki":113},{"_id":"5c3d65bd3525a329e0c063e1","address":"8989 S Innovation Dr","location":{"type":"Point","coordinates":[-85.6777183,40.1412902]},"isApproved":true,"items":[],"keys":["Fast Food","Sandwiches"],"lastUpdated":1547527612370,"name":"Arby’s","phone":"(765) 378-5917","price":"","reviewCount":1,"reviewScore":5,"meta":{"revision":0,"created":1547531155660,"version":0},"$loki":114},{"_id":"5c3d65bd3525a329e0c127b2","address":"2001 E 53rd St","location":{"type":"Point","coordinates":[-85.6779468,40.1409509]},"isApproved":true,"items":[],"keys":["Fast Food","Sandwiches"],"lastUpdated":1547527612672,"name":"Arby’s","phone":"(765) 642-6367","price":"$","reviewCount":4,"reviewScore":2.5,"meta":{"revision":0,"created":1547531155660,"version":0},"$loki":115},{"_id":"5c3d65bd3525a329e0c02fe9","address":"5523 S State Rd 9","location":{"type":"Point","coordinates":[-85.677492,40.141055]},"isApproved":true,"items":[],"keys":["Burgers","Fast Food"],"lastUpdated":1547527612295,"name":"White Castle","phone":"(765) 642-7122","price":"$","reviewCount":11,"reviewScore":3.5,"meta":{"revision":0,"created":1547531155660,"version":0},"$loki":116},{"_id":"5c3d65bd3525a329e0c0cef2","address":"5901 S. Scatterfield Road","location":{"type":"Point","coordinates":[-85.679307,40.119067]},"isApproved":true,"items":[],"keys":["American (Traditional)","Sports Bars","Chicken Wings"],"lastUpdated":1547527612535,"name":"Buffalo Wild Wings","phone":"(765) 640-2999","price":"$$","reviewCount":10,"reviewScore":3,"meta":{"revision":0,"created":1547531155660,"version":0},"$loki":117},{"_id":"5c3d65bd3525a329e0c0cace","address":"2320 S Scatterfield Rd","location":{"type":"Point","coordinates":[-85.6787012,40.123099]},"isApproved":true,"items":[],"keys":["Chinese"],"lastUpdated":1547527612533,"name":"Wing On Inn","phone":"(765) 644-9100","price":"$","reviewCount":18,"reviewScore":4,"meta":{"revision":0,"created":1547531155660,"version":0},"$loki":118},{"_id":"5c3d65bd3525a329e0c04fe5","address":"1024 E 53rd St","location":{"type":"Point","coordinates":[-85.66452674,40.11292]},"isApproved":true,"items":[],"keys":["Restaurants"],"lastUpdated":1547527612339,"name":"Yip’s Chop Stick House","phone":"(765) 642-8380","price":"$","reviewCount":8,"reviewScore":3.5,"meta":{"revision":0,"created":1547531155660,"version":0},"$loki":119},{"_id":"5c3d65bd3525a329e0c04bea","address":"619 Jackson St","location":{"type":"Point","coordinates":[-85.6805515,40.1096681]},"isApproved":true,"items":[],"keys":["Bakeries","Breakfast & Brunch","Gluten-Free"],"lastUpdated":1547527612337,"name":"Farm Society","phone":"(765) 298-8592","price":"","reviewCount":16,"reviewScore":5,"meta":{"revision":0,"created":1547531155660,"version":0},"$loki":120},{"_id":"5c3d65bd3525a329e0c17113","address":"21 W 8th St","location":{"type":"Point","coordinates":[-85.6803950375646,40.1080317441663]},"isApproved":true,"items":[],"keys":["Mexican"],"lastUpdated":1547527612782,"name":"Burro Loco","phone":"(765) 640-6565","price":"$$","reviewCount":41,"reviewScore":4,"meta":{"revision":0,"created":1547531155660,"version":0},"$loki":121},{"_id":"5c3d65bd3525a329e0c177f4","address":"1935 E 53rd St","location":{"type":"Point","coordinates":[-85.6808542460203,40.1017689577738]},"isApproved":true,"items":[],"keys":["American (Traditional)","Breakfast & Brunch","Burgers"],"lastUpdated":1547527612792,"name":"IHOP","phone":"(765) 640-4600","price":"$$","reviewCount":9,"reviewScore":2.5,"meta":{"revision":0,"created":1547531155660,"version":0},"$loki":122},{"_id":"5c3d65bd3525a329e0c0c37b","address":"2130 Broadway St","location":{"type":"Point","coordinates":[-85.67977258808,40.103840469421]},"isApproved":true,"items":[],"keys":["Pizza","American (New)","Breakfast & Brunch"],"lastUpdated":1547527612518,"name":"Nick’s Restaurant","phone":"(765) 642-8066","price":"","reviewCount":7,"reviewScore":4.5,"meta":{"revision":0,"created":1547531155660,"version":0},"$loki":123},{"_id":"5c3d65bd3525a329e0c1aa47","address":"1023 Meridian St","location":{"type":"Point","coordinates":[-85.6795838,40.1055576]},"isApproved":true,"items":[],"keys":["Desserts","Breakfast & Brunch","American (Traditional)"],"lastUpdated":1547527612868,"name":"Little Red’s Cafe and Bakery","phone":"(765) 393-1977","price":"","reviewCount":1,"reviewScore":5,"meta":{"revision":0,"created":1547531155660,"version":0},"$loki":124},{"_id":"5c3d65bd3525a329e0c1555d","address":"2701 N Broadway","location":{"type":"Point","coordinates":[-85.6795035,40.1056745]},"isApproved":true,"items":[],"keys":["Seafood","Fast Food","American (Traditional)"],"lastUpdated":1547527612745,"name":"Captain D’s","phone":"(765) 356-4825","price":"$$","reviewCount":14,"reviewScore":3.5,"meta":{"revision":0,"created":1547531155660,"version":0},"$loki":125},{"_id":"5c3d65bd3525a329e0c02514","address":"20 E 29th St","location":{"type":"Point","coordinates":[-85.6788817,40.1047925]},"isApproved":true,"items":[],"keys":["American (New)"],"lastUpdated":1547527612278,"name":"Lee’s Famous Recipe Chicken","phone":"(765) 649-0888","price":"$","reviewCount":16,"reviewScore":4,"meta":{"revision":0,"created":1547531155660,"version":0},"$loki":126},{"_id":"5c3d65bd3525a329e0c07e77","address":"28 E 13th St","location":{"type":"Point","coordinates":[-85.6784204,40.1032772]},"isApproved":true,"items":[],"keys":["Coffee & Tea","American (Traditional)"],"lastUpdated":1547527612417,"name":"The Toast Cafe","phone":"(765) 644-8131","price":"$","reviewCount":31,"reviewScore":4.5,"meta":{"revision":0,"created":1547531155660,"version":0},"$loki":127},{"_id":"5c3d65bd3525a329e0c1ae0e","address":"615 S Scatterfield Rd","location":{"type":"Point","coordinates":[-85.6777901574969,40.1049099755603]},"isApproved":true,"items":[],"keys":["Pizza"],"lastUpdated":1547527612876,"name":"Marco’s Pizza","phone":"(765) 643-5900","price":"","reviewCount":2,"reviewScore":3,"meta":{"revision":0,"created":1547531155660,"version":0},"$loki":128},{"_id":"5c3d65bd3525a329e0c12f69","address":"1508 Central Ave","location":{"type":"Point","coordinates":[-85.6766946,40.1009214]},"isApproved":true,"items":[],"keys":["Delis"],"lastUpdated":1547527612687,"name":"Train Stop Deli","phone":"(765) 274-2222","price":"$","reviewCount":22,"reviewScore":5,"meta":{"revision":0,"created":1547531155660,"version":0},"$loki":129},{"_id":"5c3d65bd3525a329e0c11de7","address":"519 Golf Club Rd","location":{"type":"Point","coordinates":[-85.6790021,40.10244]},"isApproved":true,"items":[],"keys":["American (New)"],"lastUpdated":1547527612661,"name":"The Edge","phone":"(765) 642-4979","price":"","reviewCount":1,"reviewScore":4,"meta":{"revision":0,"created":1547531155660,"version":0},"$loki":130},{"_id":"5c3d65bd3525a329e0c0b0d1","address":"205 W 29th St","location":{"type":"Point","coordinates":[-85.6820709,40.087076]},"isApproved":true,"items":[],"keys":["Mexican"],"lastUpdated":1547527612497,"name":"Lindo Michoacan","phone":"(765) 649-9158","price":"$","reviewCount":14,"reviewScore":4.5,"meta":{"revision":0,"created":1547531155660,"version":0},"$loki":131},{"_id":"5c3d65bd3525a329e0c01381","address":"2822 Main St","location":{"type":"Point","coordinates":[-85.6781997,40.0875471]},"isApproved":true,"items":[],"keys":["Pizza"],"lastUpdated":1547527612248,"name":"Art’s Varsity Pizza","phone":"(765) 643-4447","price":"$","reviewCount":6,"reviewScore":4.5,"meta":{"revision":0,"created":1547531155660,"version":0},"$loki":132},{"_id":"5c3d65bd3525a329e0c1284e","address":"1013 Meridian St","location":{"type":"Point","coordinates":[-85.6774576,40.0874196]},"isApproved":true,"items":[],"keys":["Sandwiches","Gift Shops"],"lastUpdated":1547527612678,"name":"The Cabbage Rose Eatery & Gift shop","phone":"(765) 393-3061","price":"$","reviewCount":6,"reviewScore":3.5,"meta":{"revision":0,"created":1547531155660,"version":0},"$loki":133},{"_id":"5c3d65bd3525a329e0c00b90","address":"4500 Dan Patch","location":{"type":"Point","coordinates":[-85.6737417,40.093423]},"isApproved":true,"items":[],"keys":["Buffets"],"lastUpdated":1547527612230,"name":"Prime Harvest Buffet","phone":"(765) 642-7223","price":"$$","reviewCount":14,"reviewScore":3,"meta":{"revision":0,"created":1547531155660,"version":0},"$loki":134},{"_id":"5c3d65bd3525a329e0c1528f","address":"19 W Main St","location":{"type":"Point","coordinates":[-85.6665043,40.0872909]},"isApproved":true,"items":[],"keys":["Pizza"],"lastUpdated":1547527612737,"name":"Pizza King","phone":"(765) 378-0291","price":"$$","reviewCount":9,"reviewScore":3.5,"meta":{"revision":0,"created":1547531155660,"version":0},"$loki":135},{"_id":"5c3d65bd3525a329e0c17e5d","address":"2508 Nichol Ave","location":{"type":"Point","coordinates":[-85.6538696,40.0982381]},"isApproved":true,"items":[],"keys":["Burgers","Fast Food"],"lastUpdated":1547527612801,"name":"Wendy’s","phone":"(765) 649-7775","price":"","reviewCount":3,"reviewScore":2.5,"meta":{"revision":0,"created":1547531155660,"version":0},"$loki":136},{"_id":"5c3d65bd3525a329e0c1461b","address":"8801 W Market Square Dr","location":{"type":"Point","coordinates":[-85.651148,40.094705]},"isApproved":true,"items":[],"keys":["Fast Food","Burgers"],"lastUpdated":1547527612715,"name":"White Castle","phone":"(765) 378-1179","price":"$","reviewCount":5,"reviewScore":3.5,"meta":{"revision":0,"created":1547531155660,"version":0},"$loki":137},{"_id":"5c3d65bd3525a329e0c0dd59","address":"1834 E 18th St","location":{"type":"Point","coordinates":[-85.6531808,40.0983083]},"isApproved":true,"items":[],"keys":["Fast Food","Seafood"],"lastUpdated":1547527612563,"name":"Long John Silver’s","phone":"(765) 644-0451","price":"","reviewCount":1,"reviewScore":4,"meta":{"revision":0,"created":1547531155660,"version":0},"$loki":138},{"_id":"5c3d65bd3525a329e0c03028","address":"5233 Scatterfield Rd","location":{"type":"Point","coordinates":[-85.6517674774068,40.0966234226583]},"isApproved":true,"items":[],"keys":["Fast Food","Burgers","Coffee & Tea"],"lastUpdated":1547527612295,"name":"McDonald’s","phone":"(765) 640-9737","price":"","reviewCount":10,"reviewScore":2,"meta":{"revision":0,"created":1547531155660,"version":0},"$loki":139},{"_id":"5c3d65bd3525a329e0c18ed1","address":"2817 Broadway St","location":{"type":"Point","coordinates":[-85.651475,40.0958987]},"isApproved":true,"items":[],"keys":["Burgers","Fast Food"],"lastUpdated":1547527612831,"name":"Wendy’s","phone":"(765) 649-8270","price":"","reviewCount":1,"reviewScore":2,"meta":{"revision":0,"created":1547531155660,"version":0},"$loki":140},{"_id":"5c3d65bd3525a329e0c002be","address":"4500 Dan Patch Cir","location":{"type":"Point","coordinates":[-85.6520379334688,40.0960611468702]},"isApproved":true,"items":[],"keys":["Barbeque","Southern"],"lastUpdated":1547527612225,"name":"Voodoo BBQ & Grill","phone":"(765) 609-4758","price":"$","reviewCount":15,"reviewScore":3.5,"meta":{"revision":0,"created":1547531155660,"version":0},"$loki":141},{"_id":"5c3d65bd3525a329e0c12750","address":"2820 Broadway St","location":{"type":"Point","coordinates":[-85.6520721,40.0949755]},"isApproved":true,"items":[],"keys":["Fast Food","Sandwiches"],"lastUpdated":1547527612672,"name":"Arby’s","phone":"(765) 642-6524","price":"","reviewCount":3,"reviewScore":2.5,"meta":{"revision":0,"created":1547531155660,"version":0},"$loki":142},{"_id":"5c3d65bd3525a329e0c0ac73","address":"915 S Scatterfield Rd","location":{"type":"Point","coordinates":[-85.6521974,40.0930491]},"isApproved":true,"items":[],"keys":["Greek"],"lastUpdated":1547527612490,"name":"King Gyros","phone":"(765) 640-4260","price":"$","reviewCount":14,"reviewScore":4,"meta":{"revision":0,"created":1547531155660,"version":0},"$loki":143},{"_id":"5c3d65bd3525a329e0c07d41","address":"519 Golf Club Rd","location":{"type":"Point","coordinates":[-85.6593728,40.0942943]},"isApproved":true,"items":[],"keys":["American (Traditional)","Pubs"],"lastUpdated":1547527612411,"name":"Bloomers Pub & Eatery","phone":"(765) 642-4979","price":"$$","reviewCount":21,"reviewScore":4,"meta":{"revision":0,"created":1547531155660,"version":0},"$loki":144},{"_id":"5c3d65bd3525a329e0c19f55","address":"15 Town Ctr Plz","location":{"type":"Point","coordinates":[-85.6521974,40.0728286]},"isApproved":true,"items":[],"keys":["Barbeque"],"lastUpdated":1547527612851,"name":"Ribs Express","phone":"(765) 640-2120","price":"$","reviewCount":4,"reviewScore":2.5,"meta":{"revision":0,"created":1547531155660,"version":0},"$loki":145},{"_id":"5c3d65bd3525a329e0c0eba0","address":"2027 Broadway St","location":{"type":"Point","coordinates":[-85.652202,40.070108]},"isApproved":true,"items":[],"keys":["Italian","Pizza","Sandwiches"],"lastUpdated":1547527612581,"name":"Art’s Pizza","phone":"(765) 643-2787","price":"$$","reviewCount":21,"reviewScore":4,"meta":{"revision":0,"created":1547531155660,"version":0},"$loki":146},{"_id":"5c3d65bd3525a329e0c13bf8","address":"111 W 14th St","location":{"type":"Point","coordinates":[-85.6496733,40.0645426]},"isApproved":true,"items":[],"keys":["Burgers","Fast Food","Coffee & Tea"],"lastUpdated":1547527612705,"name":"McDonald’s","phone":"(765) 642-2273","price":"","reviewCount":4,"reviewScore":3,"meta":{"revision":0,"created":1547531155660,"version":0},"$loki":147},{"_id":"5c3d65bd3525a329e0c0cac4","address":"404 E Main St","location":{"type":"Point","coordinates":[-85.652070119977,40.0669013967931]},"isApproved":true,"items":[],"keys":["Ice Cream & Frozen Yogurt","Fast Food"],"lastUpdated":1547527612533,"name":"Chesterfield Dairy Queen","phone":"(765) 378-3144","price":"","reviewCount":3,"reviewScore":5,"meta":{"revision":0,"created":1547531155660,"version":0},"$loki":148},{"_id":"5c3d65bd3525a329e0c0639d","address":"8800 S Dale Harker Dr","location":{"type":"Point","coordinates":[-85.6525365159562,40.0676789884141]},"isApproved":true,"items":[],"keys":["Diners","Breakfast & Brunch","American (Traditional)"],"lastUpdated":1547527612370,"name":"Waffle House","phone":"(765) 378-0788","price":"$","reviewCount":3,"reviewScore":3,"meta":{"revision":0,"created":1547531155660,"version":0},"$loki":149},{"_id":"5c3d65bd3525a329e0c18340","address":"5627 S Scatterfield Rd","location":{"type":"Point","coordinates":[-85.6534976971755,40.0665498675559]},"isApproved":true,"items":[],"keys":["Fast Food","Breakfast & Brunch"],"lastUpdated":1547527612814,"name":"Hardee’s","phone":"(765) 649-9247","price":"","reviewCount":3,"reviewScore":1,"meta":{"revision":0,"created":1547531155660,"version":0},"$loki":150},{"_id":"5c3d65bd3525a329e0c0e3ee","address":"2623 Nichol Ave","location":{"type":"Point","coordinates":[-85.6520412,40.0657993]},"isApproved":true,"items":[],"keys":["Chinese"],"lastUpdated":1547527612572,"name":"China Chef","phone":"","price":"$$","reviewCount":1,"reviewScore":1,"meta":{"revision":0,"created":1547531155660,"version":0},"$loki":151},{"_id":"5c3d65bd3525a329e0c0c307","address":"2904 Columbus Ave","location":{"type":"Point","coordinates":[-85.652209,40.065484]},"isApproved":true,"items":[],"keys":["Restaurants"],"lastUpdated":1547527612518,"name":"29th Street Cafe","phone":"(765) 649-1238","price":"$","reviewCount":4,"reviewScore":3,"meta":{"revision":0,"created":1547531155660,"version":0},"$loki":152},{"_id":"5c3d65bd3525a329e0c02559","address":"1106 Main St","location":{"type":"Point","coordinates":[-85.6522175,40.0648551]},"isApproved":true,"items":[],"keys":["Sushi Bars","Chinese"],"lastUpdated":1547527612278,"name":"Yosaku","phone":"(765) 606-8070","price":"$","reviewCount":10,"reviewScore":4,"meta":{"revision":0,"created":1547531155660,"version":0},"$loki":153},{"_id":"5c3d65bd3525a329e0c139b9","address":"100 Maple Vlg Shppng Ctr","location":{"type":"Point","coordinates":[-85.6665645,40.0757638]},"isApproved":true,"items":[],"keys":["Pizza","Italian","Sandwiches"],"lastUpdated":1547527612698,"name":"Pizza King","phone":"(765) 354-9250","price":"","reviewCount":4,"reviewScore":4,"meta":{"revision":0,"created":1547531155660,"version":0},"$loki":154},{"_id":"5c3d65bd3525a329e0c190fc","address":"1827 E 18th St","location":{"type":"Point","coordinates":[-85.6677959,40.0758695]},"isApproved":true,"items":[],"keys":["Pizza"],"lastUpdated":1547527612832,"name":"Domino’s Pizza","phone":"(765) 644-2900","price":"","reviewCount":4,"reviewScore":2,"meta":{"revision":0,"created":1547531155660,"version":0},"$loki":155},{"_id":"5c3d65bd3525a329e0c0bc8a","address":"21 W 38th St","location":{"type":"Point","coordinates":[-85.6790276616812,40.0760613871474]},"isApproved":true,"items":[],"keys":["Japanese","Chinese"],"lastUpdated":1547527612509,"name":"Ninja of Japan","phone":"(765) 393-2613","price":"$","reviewCount":35,"reviewScore":4.5,"meta":{"revision":0,"created":1547531155660,"version":0},"$loki":156},{"_id":"5c3d65bd3525a329e0c17027","address":"5310 S Scatterfield Rd","location":{"type":"Point","coordinates":[-85.6773372,40.0769848]},"isApproved":true,"items":[],"keys":["Mexican","Tex-Mex","Fast Food"],"lastUpdated":1547527612782,"name":"Taco Bell","phone":"(765) 642-0896","price":"$","reviewCount":7,"reviewScore":1.5,"meta":{"revision":0,"created":1547531155660,"version":0},"$loki":157},{"_id":"5c3d65bd3525a329e0c184e0","address":"2830 N Broadway","location":{"type":"Point","coordinates":[-85.6928204,40.07653]},"isApproved":true,"items":[],"keys":["Burgers","Fast Food","Coffee & Tea"],"lastUpdated":1547527612814,"name":"McDonald’s","phone":"(765) 643-1557","price":"","reviewCount":4,"reviewScore":3.5,"meta":{"revision":0,"created":1547531155660,"version":0},"$loki":158},{"_id":"5c3d65bd3525a329e0c05764","address":"5033 Scatterfield Rd","location":{"type":"Point","coordinates":[-85.7108451,40.1023427]},"isApproved":true,"items":[],"keys":["Bakeries","Breakfast & Brunch","American (Traditional)"],"lastUpdated":1547527612349,"name":"Perkins Restaurant & Bakery","phone":"(765) 642-2332","price":"$","reviewCount":21,"reviewScore":3,"meta":{"revision":0,"created":1547531155660,"version":0},"$loki":159},{"_id":"5c3d65bd3525a329e0c191ce","address":"2231 Park Rd","location":{"type":"Point","coordinates":[-85.7116469,40.1022924]},"isApproved":true,"items":[],"keys":["Mexican"],"lastUpdated":1547527612833,"name":"Taco Bell","phone":"(765) 640-0950","price":"","reviewCount":1,"reviewScore":1,"meta":{"revision":0,"created":1547531155660,"version":0},"$loki":160},{"_id":"5c3d65bd3525a329e0c09472","address":"5713 S Scatterfield Rd","location":{"type":"Point","coordinates":[-85.713791,40.101303]},"isApproved":true,"items":[],"keys":["Fast Food","Chicken Wings"],"lastUpdated":1547527612453,"name":"Popeyes Louisiana Kitchen","phone":"(765) 622-4994","price":"$","reviewCount":13,"reviewScore":2,"meta":{"revision":0,"created":1547531155660,"version":0},"$loki":161},{"_id":"5c3d65bd3525a329e0c17026","address":"8990 Innovative Dr","location":{"type":"Point","coordinates":[-85.713411,40.1015585]},"isApproved":true,"items":[],"keys":["Tex-Mex","Fast Food","Mexican"],"lastUpdated":1547527612782,"name":"Taco Bell","phone":"(765) 378-6487","price":"$","reviewCount":3,"reviewScore":1,"meta":{"revision":0,"created":1547531155660,"version":0},"$loki":162},{"_id":"5c3d65bd3525a329e0c08952","address":"4688 S Scatterfield Rd","location":{"type":"Point","coordinates":[-85.711094,40.101876]},"isApproved":true,"items":[],"keys":["Chinese","Fast Food"],"lastUpdated":1547527612429,"name":"Panda Express","phone":"(765) 643-0263","price":"$","reviewCount":4,"reviewScore":3,"meta":{"revision":0,"created":1547531155660,"version":0},"$loki":163},{"_id":"5c3d65bd3525a329e0c15d40","address":"2743 Nichol Ave","location":{"type":"Point","coordinates":[-85.7179449,40.1011998]},"isApproved":true,"items":[],"keys":["Barbeque","Greek","Hot Dogs"],"lastUpdated":1547527612755,"name":"King Gyros","phone":"(765) 640-1526","price":"$","reviewCount":12,"reviewScore":4.5,"meta":{"revision":0,"created":1547531155660,"version":0},"$loki":164},{"_id":"5c3d65bd3525a329e0c000c9","address":"1100 E 5th St","location":{"type":"Point","coordinates":[-85.7160769,40.1011975]},"isApproved":true,"items":[],"keys":["Fast Food"],"lastUpdated":1547527612224,"name":"Chick-fil-A","phone":"","price":"","reviewCount":1,"reviewScore":5,"meta":{"revision":0,"created":1547531155660,"version":0},"$loki":165},{"_id":"5c3d65bd3525a329e0c11013","address":"6952 W County Rd 850 N","location":{"type":"Point","coordinates":[-85.744449,40.106651]},"isApproved":true,"items":[],"keys":["American (Traditional)"],"lastUpdated":1547527612640,"name":"Valley View Golf Course And Restaurant","phone":"(765) 354-4653","price":"$","reviewCount":1,"reviewScore":5,"meta":{"revision":0,"created":1547531155660,"version":0},"$loki":166},{"_id":"5c3d65bd3525a329e0c08106","address":"2321 Charles St","location":{"type":"Point","coordinates":[-85.7304066,40.0929955]},"isApproved":true,"items":[],"keys":["Sandwiches","Fast Food"],"lastUpdated":1547527612419,"name":"Subway","phone":"(765) 622-0202","price":"","reviewCount":3,"reviewScore":3.5,"meta":{"revision":0,"created":1547531155660,"version":0},"$loki":167},{"_id":"5c3d65bd3525a329e0c01e49","address":"4722 South Scatterfield Road","location":{"type":"Point","coordinates":[-85.7045997,40.1078639]},"isApproved":true,"items":[],"keys":["Pizza"],"lastUpdated":1547527612260,"name":"Papa Murphy’s","phone":"(765) 643-1111","price":"","reviewCount":1,"reviewScore":4,"meta":{"revision":0,"created":1547531155660,"version":0},"$loki":168},{"_id":"5c3d65bd3525a329e0c181dc","address":"1000 W 3rd St","location":{"type":"Point","coordinates":[-85.6920094,40.1129262]},"isApproved":true,"items":[],"keys":["Pizza","Italian"],"lastUpdated":1547527612809,"name":"Tommy J’s Pizza","phone":"(765) 622-9150","price":"$$","reviewCount":35,"reviewScore":4.5,"meta":{"revision":0,"created":1547531155660,"version":0},"$loki":169},{"_id":"5c3d65bd3525a329e0c0b593","address":"16001 W Commerce Rd","location":{"type":"Point","coordinates":[-85.6761607642213,40.147509278752]},"isApproved":true,"items":[],"keys":["Sandwiches","Fast Food"],"lastUpdated":1547527612499,"name":"Subway","phone":"(765) 378-1344","price":"$","reviewCount":3,"reviewScore":2,"meta":{"revision":0,"created":1547531155660,"version":0},"$loki":170},{"_id":"5c3d65bd3525a329e0c10360","address":"2607 Nichol Ave","location":{"type":"Point","coordinates":[-85.6752313,40.1478701]},"isApproved":true,"items":[],"keys":["Pizza","Italian","Chicken Wings"],"lastUpdated":1547527612617,"name":"Pizza Hut","phone":"(765) 641-2420","price":"","reviewCount":3,"reviewScore":1,"meta":{"revision":0,"created":1547531155660,"version":0},"$loki":171},{"_id":"5c3d65bd3525a329e0c0e03a","address":"4231 S Scatterfield Rd","location":{"type":"Point","coordinates":[-85.672299,40.1521129]},"isApproved":true,"items":[],"keys":["Sandwiches"],"lastUpdated":1547527612564,"name":"Penn Station","phone":"(765) 642-0061","price":"$","reviewCount":10,"reviewScore":3.5,"meta":{"revision":0,"created":1547531155660,"version":0},"$loki":172},{"_id":"5c3d65bd3525a329e0c0a57c","address":"421 E 23rd St","location":{"type":"Point","coordinates":[-85.6734133,40.1507637]},"isApproved":true,"items":[],"keys":["Bars","American (Traditional)","Breakfast & Brunch"],"lastUpdated":1547527612480,"name":"South Park Cafe","phone":"(765) 644-2323","price":"","reviewCount":1,"reviewScore":4,"meta":{"revision":0,"created":1547531155660,"version":0},"$loki":173},{"_id":"5c3d65bd3525a329e0c09b08","address":"1929 W 8th St","location":{"type":"Point","coordinates":[-85.673566,40.1494589]},"isApproved":true,"items":[],"keys":["Restaurants"],"lastUpdated":1547527612464,"name":"Big Baby’s Bar & Grill","phone":"(765) 643-6822","price":"","reviewCount":1,"reviewScore":1,"meta":{"revision":0,"created":1547531155660,"version":0},"$loki":174},{"_id":"5c3d65bd3525a329e0c122cf","address":"1320 Meridian St","location":{"type":"Point","coordinates":[-85.6740984602084,40.1490699379215]},"isApproved":true,"items":[],"keys":["Mexican","Latin American","Tex-Mex"],"lastUpdated":1547527612669,"name":"Riviera Maya Mexican Grill","phone":"(765) 622-1779","price":"$","reviewCount":22,"reviewScore":3.5,"meta":{"revision":0,"created":1547531155660,"version":0},"$loki":175},{"_id":"5c3d65bd3525a329e0c18ecb","address":"5825 Scatterfield Rd","location":{"type":"Point","coordinates":[-85.674264729023,40.1483759714689]},"isApproved":true,"items":[],"keys":["Burgers","Breakfast & Brunch","American (Traditional)"],"lastUpdated":1547527612831,"name":"Steak ’n Shake","phone":"(765) 622-9367","price":"$","reviewCount":43,"reviewScore":2,"meta":{"revision":0,"created":1547531155660,"version":0},"$loki":176},{"_id":"5c3d65bd3525a329e0c0ad55","address":"2618 N Broadway Ave","location":{"type":"Point","coordinates":[-85.5393648037713,40.063116745712]},"isApproved":true,"items":[],"keys":["Mexican","Tex-Mex","Fast Food"],"lastUpdated":1547527612490,"name":"Taco Bell","phone":"(765) 683-0121","price":"","reviewCount":2,"reviewScore":3,"meta":{"revision":0,"created":1547531155660,"version":0},"$loki":177},{"_id":"5c3d65bd3525a329e0c161c2","address":"3737 Madison Ave","location":{"type":"Point","coordinates":[-85.5580301,40.1211545]},"isApproved":true,"items":[],"keys":["Pizza","Italian","Caterers"],"lastUpdated":1547527612763,"name":"Pizza King","phone":"(765) 649-9204","price":"$$","reviewCount":5,"reviewScore":2.5,"meta":{"revision":0,"created":1547531155660,"version":0},"$loki":178},{"_id":"5c3d65bd3525a329e0c1571d","address":"9008 S Walnut St","location":{"type":"Point","coordinates":[-85.5567872,40.112956]},"isApproved":true,"items":[],"keys":["Barbeque"],"lastUpdated":1547527612746,"name":"Bird’s Smokehouse BBQ","phone":"(765) 378-1900","price":"$$","reviewCount":66,"reviewScore":3.5,"meta":{"revision":0,"created":1547531155660,"version":0},"$loki":179},{"_id":"5c3d65bd3525a329e0c09f4a","address":"2040 S Scatterfield Rd","location":{"type":"Point","coordinates":[-85.5735672302944,40.1133687570681]},"isApproved":true,"items":[],"keys":["Pizza"],"lastUpdated":1547527612472,"name":"Papa John’s Pizza","phone":"(765) 643-7272","price":"","reviewCount":18,"reviewScore":1,"meta":{"revision":0,"created":1547531155660,"version":0},"$loki":180},{"_id":"5c3d65bd3525a329e0c1810b","address":"2014 Scatterfield Rd","location":{"type":"Point","coordinates":[-85.5748378,40.1135339]},"isApproved":true,"items":[],"keys":["Fast Food","Burgers","Coffee & Tea"],"lastUpdated":1547527612808,"name":"McDonald’s","phone":"(765) 649-4707","price":"","reviewCount":5,"reviewScore":3,"meta":{"revision":0,"created":1547531155660,"version":0},"$loki":181},{"_id":"5c3d65bd3525a329e0c0b2fa","address":"15150 W Commerce Dr","location":{"type":"Point","coordinates":[-85.5710594,40.1144282]},"isApproved":true,"items":[],"keys":["Pizza","Italian","Chicken Wings"],"lastUpdated":1547527612498,"name":"Pizza Hut","phone":"(765) 378-0279","price":"","reviewCount":2,"reviewScore":1,"meta":{"revision":0,"created":1547531155660,"version":0},"$loki":182},{"_id":"5c3d65bd3525a329e0c010d3","address":"5608 S Scatterfield Rd","location":{"type":"Point","coordinates":[-85.5683,40.1138]},"isApproved":true,"items":[],"keys":["Burgers","Fast Food"],"lastUpdated":1547527612239,"name":"Wendy’s","phone":"(765) 649-5901","price":"$","reviewCount":5,"reviewScore":2,"meta":{"revision":0,"created":1547531155660,"version":0},"$loki":183},{"_id":"5c3d65bd3525a329e0c05c77","address":"3710 Main St","location":{"type":"Point","coordinates":[-85.5649087,40.1144728]},"isApproved":true,"items":[],"keys":["Sandwiches","Fast Food"],"lastUpdated":1547527612357,"name":"Subway","phone":"(765) 642-4444","price":"","reviewCount":2,"reviewScore":1.5,"meta":{"revision":0,"created":1547531155660,"version":0},"$loki":184},{"_id":"5c3d65bd3525a329e0c101bd","address":"4730 S Scatterfield Rd","location":{"type":"Point","coordinates":[-85.5660746,40.1142378]},"isApproved":true,"items":[],"keys":["Sandwiches","Salad","Soup"],"lastUpdated":1547527612610,"name":"Panera Bread","phone":"(765) 622-9115","price":"$","reviewCount":12,"reviewScore":3.5,"meta":{"revision":0,"created":1547531155660,"version":0},"$loki":185},{"_id":"5c3d65bd3525a329e0c18408","address":"2910 Broadway St","location":{"type":"Point","coordinates":[-85.563582,40.1131042]},"isApproved":true,"items":[],"keys":["Restaurants"],"lastUpdated":1547527612814,"name":"Burger King","phone":"(765) 640-8468","price":"$","reviewCount":2,"reviewScore":1,"meta":{"revision":0,"created":1547531155660,"version":0},"$loki":186},{"_id":"5c3d65bd3525a329e0c12faa","address":"410 E Main St","location":{"type":"Point","coordinates":[-85.5967836,40.1133322]},"isApproved":true,"items":[],"keys":["American (Traditional)"],"lastUpdated":1547527612688,"name":"Flamingo Joe’s Diner","phone":"(765) 378-0060","price":"$","reviewCount":3,"reviewScore":1.5,"meta":{"revision":0,"created":1547531155660,"version":0},"$loki":187},{"_id":"5c3d65bd3525a329e0c0ed2b","address":"6620 S Scatterfield Rd","location":{"type":"Point","coordinates":[-85.588832,40.113853]},"isApproved":true,"items":[],"keys":["Fast Food","Chicken Wings","Chicken Shop"],"lastUpdated":1547527612582,"name":"KFC","phone":"(765) 643-8353","price":"$","reviewCount":4,"reviewScore":4.5,"meta":{"revision":0,"created":1547531155660,"version":0},"$loki":188},{"_id":"5c3d65bd3525a329e0c03217","address":"2424 Nichol Ave","location":{"type":"Point","coordinates":[-85.5897883,40.1138634]},"isApproved":true,"items":[],"keys":["Pizza"],"lastUpdated":1547527612296,"name":"Pizza King","phone":"(765) 649-7738","price":"$$","reviewCount":5,"reviewScore":4.5,"meta":{"revision":0,"created":1547531155660,"version":0},"$loki":189},{"_id":"5c3d65bd3525a329e0c0bf30","address":"1606 S Scatterfield Rd","location":{"type":"Point","coordinates":[-85.5918175,40.1132016]},"isApproved":true,"items":[],"keys":["Pizza","Italian"],"lastUpdated":1547527612516,"name":"Mancino’s Pizza & Grinders of Anderson","phone":"(765) 642-2300","price":"$","reviewCount":12,"reviewScore":3,"meta":{"revision":0,"created":1547531155660,"version":0},"$loki":190},{"_id":"5c3d65bd3525a329e0c0e951","address":"6386 S Scatterfield Rd","location":{"type":"Point","coordinates":[-85.5346881,40.0543576]},"isApproved":true,"items":[],"keys":["Fast Food","Ice Cream & Frozen Yogurt","Burgers"],"lastUpdated":1547527612580,"name":"Culver’s","phone":"(765) 640-5158","price":"$","reviewCount":14,"reviewScore":3.5,"meta":{"revision":0,"created":1547531155660,"version":0},"$loki":191},{"_id":"5c3d65bd3525a329e0c0bf33","address":"2038 S Scatterfield Rd","location":{"type":"Point","coordinates":[-85.5175695,40.0554768]},"isApproved":true,"items":[],"keys":["Breakfast & Brunch"],"lastUpdated":1547527612516,"name":"Anderson Grill","phone":"(765) 393-0658","price":"","reviewCount":9,"reviewScore":4,"meta":{"revision":0,"created":1547531155660,"version":0},"$loki":192}],"idIndex":[1,2,3,4,5,6,7,8,9,10,11,12,13,14,15,16,17,18,19,20,21,22,23,24,25,26,27,28,29,30,31,32,33,34,35,36,37,38,39,40,41,42,43,44,45,46,47,48,49,50,51,52,53,54,55,56,57,58,59,60,61,62,63,64,65,66,67,68,69,70,71,72,73,74,75,76,77,78,79,80,81,82,83,84,85,86,87,88,89,90,91,92,93,94,95,96,97,98,99,100,101,102,103,104,105,106,107,108,109,110,111,112,113,114,115,116,117,118,119,120,121,122,123,124,125,126,127,128,129,130,131,132,133,134,135,136,137,138,139,140,141,142,143,144,145,146,147,148,149,150,151,152,153,154,155,156,157,158,159,160,161,162,163,164,165,166,167,168,169,170,171,172,173,174,175,176,177,178,179,180,181,182,183,184,185,186,187,188,189,190,191,192],"binaryIndices":{},"constraints":null,"uniqueNames":[],"transforms":{},"objType":"restaurants","dirty":true,"cachedIndex":null,"cachedBinaryIndex":null,"cachedData":null,"adaptiveBinaryIndices":true,"transactional":false,"cloneObjects":false,"cloneMethod":"parse-stringify","asyncListeners":false,"disableMeta":false,"disableChangesApi":true,"disableDeltaChangesApi":true,"autoupdate":false,"serializableIndices":true,"ttl":null,"maxId":192,"DynamicViews":[],"events":{"insert":[],"update":[],"pre-insert":[],"pre-update":[],"close":[],"flushbuffer":[],"error":[],"delete":[null],"warning":[null]},"changes":[]}],"databaseVersion":1.5,"engineVersion":1.5,"autosave":false,"autosaveInterval":5000,"autosaveHandle":null,"throttledSaves":true,"options":{"serializationMethod":"normal","destructureDelimiter":"$<\n"},"persistenceMethod":"fs","persistenceAdapter":null,"verbose":false,"events":{"init":[null],"loaded":[],"flushChanges":[],"close":[],"changes":[],"warning":[]},"ENV":"NODEJS"}