{"filename":"-85.25-39.5","collections":[{"name":"restaurants","data":[{"_id":"5c3d65bd3525a329e0c1767d","address":"207 W Union St","location":{"type":"Point","coordinates":[-84.9309193,39.6361703]},"isApproved":true,"items":[],"keys":["American (Traditional)","Burgers","Chicken Wings"],"lastUpdated":1547527612791,"name":"J’s Dairy Inn","phone":"(765) 458-5812","price":"$","reviewCount":23,"reviewScore":3.5,"meta":{"revision":0,"created":1547531149428,"version":0},"$loki":1},{"_id":"5c3d65bd3525a329e0c0e992","address":"205 W State St","location":{"type":"Point","coordinates":[-84.9329335,39.6358]},"isApproved":true,"items":[],"keys":["Bars","American (Traditional)","Pizza"],"lastUpdated":1547527612581,"name":"Glenwood Inn","phone":"(765) 679-1470","price":"","reviewCount":1,"reviewScore":5,"meta":{"revision":0,"created":1547531149428,"version":0},"$loki":2},{"_id":"5c3d65bd3525a329e0c0b1d4","address":"800 N Eastern Ave","location":{"type":"Point","coordinates":[-84.9307374,39.6374744]},"isApproved":true,"items":[],"keys":["Restaurants"],"lastUpdated":1547527612497,"name":"Eagles F O E","phone":"(765) 825-4041","price":"","reviewCount":1,"reviewScore":4,"meta":{"revision":0,"created":1547531149428,"version":0},"$loki":3},{"_id":"5c3d65bd3525a329e0c0a4f3","address":"1400 N Main St","location":{"type":"Point","coordinates":[-84.9304934,39.6319924]},"isApproved":true,"items":[],"keys":["American (Traditional)","Breakfast & Brunch"],"lastUpdated":1547527612480,"name":"Park Restaurant","phone":"(765) 932-2940","price":"$$","reviewCount":17,"reviewScore":4,"meta":{"revision":0,"created":1547531149428,"version":0},"$loki":4},{"_id":"5c3d65bd3525a329e0c00dfa","address":"224 W Main St","location":{"type":"Point","coordinates":[-84.959172,39.276197]},"isApproved":true,"items":[],"keys":["American (Traditional)","Soup","Beer Bar"],"lastUpdated":1547527612237,"name":"Quatman Cafe","phone":"(513) 229-0222","price":"$","reviewCount":78,"reviewScore":4,"meta":{"revision":0,"created":1547531149428,"version":0},"$loki":5},{"_id":"5c3d65bd3525a329e0c12591","address":"4764 Cornell Rd","location":{"type":"Point","coordinates":[-84.9603284,39.2774104]},"isApproved":true,"items":[],"keys":["Turkish","Mediterranean","Greek"],"lastUpdated":1547527612670,"name":"Durum Grill","phone":"(513) 376-8144","price":"$","reviewCount":160,"reviewScore":4.5,"meta":{"revision":0,"created":1547531149428,"version":0},"$loki":6},{"_id":"5c3d65bd3525a329e0c16c30","address":"3152 Lighthouse Dr","location":{"type":"Point","coordinates":[-84.9576962416191,39.2918066308854]},"isApproved":true,"items":[],"keys":["Bars","American (Traditional)","Pool Halls"],"lastUpdated":1547527612774,"name":"Sneaky Pete’s","phone":"(513) 860-2221","price":"$","reviewCount":30,"reviewScore":4,"meta":{"revision":0,"created":1547531149428,"version":0},"$loki":7},{"_id":"5c3d65bd3525a329e0c0bbfb","address":"7916 S Mason Montgomery Rd","location":{"type":"Point","coordinates":[-85.094314,39.2362565]},"isApproved":true,"items":[],"keys":["Pizza"],"lastUpdated":1547527612509,"name":"Jet’s Pizza","phone":"(513) 229-8620","price":"$$","reviewCount":20,"reviewScore":4,"meta":{"revision":0,"created":1547531149428,"version":0},"$loki":8},{"_id":"5c3d65bd3525a329e0c08281","address":"6126 Winton Rd","location":{"type":"Point","coordinates":[-85.0947024,39.2363335]},"isApproved":true,"items":[],"keys":["Burgers","Chicken Wings","Sandwiches"],"lastUpdated":1547527612420,"name":"Par’s Place","phone":"(513) 829-3773","price":"$","reviewCount":13,"reviewScore":3.5,"meta":{"revision":0,"created":1547531149428,"version":0},"$loki":9},{"_id":"5c3d65bd3525a329e0c10a8a","address":"11961 Lebanon Rd","location":{"type":"Point","coordinates":[-85.0900689296296,39.2361890927681]},"isApproved":true,"items":[],"keys":["American (Traditional)","Bars"],"lastUpdated":1547527612631,"name":"Brick House Bar & Grill","phone":"(513) 429-5934","price":"$$","reviewCount":57,"reviewScore":4,"meta":{"revision":0,"created":1547531149428,"version":0},"$loki":10},{"_id":"5c3d65bd3525a329e0c09885","address":"9521 Fields Ertel Rd","location":{"type":"Point","coordinates":[-85.0951154,39.2313347]},"isApproved":true,"items":[],"keys":["Asian Fusion"],"lastUpdated":1547527612462,"name":"Asian Paradise","phone":"(513) 239-8881","price":"$$","reviewCount":148,"reviewScore":4,"meta":{"revision":0,"created":1547531149428,"version":0},"$loki":11},{"_id":"5c3d65bd3525a329e0c1989a","address":"1300 Cincinnati Dayton Rd","location":{"type":"Point","coordinates":[-85.2026669,39.2351001]},"isApproved":true,"items":[],"keys":["Greek","American (Traditional)","Mediterranean"],"lastUpdated":1547527612842,"name":"Grecian Delight","phone":"(513) 424-5411","price":"$","reviewCount":65,"reviewScore":4.5,"meta":{"revision":0,"created":1547531149428,"version":0},"$loki":12},{"_id":"5c3d65bd3525a329e0c11350","address":"2045 S Erie Hwy","location":{"type":"Point","coordinates":[-85.2231958,39.2981121]},"isApproved":true,"items":[],"keys":["Greek","Mediterranean","Fast Food"],"lastUpdated":1547527612642,"name":"Mike’s Chili & Gyros","phone":"(513) 737-6666","price":"$","reviewCount":23,"reviewScore":3.5,"meta":{"revision":0,"created":1547531149428,"version":0},"$loki":13},{"_id":"5c3d65bd3525a329e0c06ede","address":"19034 S Main","location":{"type":"Point","coordinates":[-85.2225257456303,39.2975693196058]},"isApproved":true,"items":[],"keys":["American (Traditional)"],"lastUpdated":1547527612388,"name":"Scooty’s BBQ","phone":"(765) 647-3519","price":"$$","reviewCount":3,"reviewScore":3,"meta":{"revision":0,"created":1547531149428,"version":0},"$loki":14},{"_id":"5c3d65bd3525a329e0c177fb","address":"204 W Loveland Ave","location":{"type":"Point","coordinates":[-85.2206009,39.2968022]},"isApproved":true,"items":[],"keys":["American (New)","Wine Bars"],"lastUpdated":1547527612792,"name":"Tano Bistro & Catering","phone":"(513) 683-8266","price":"","reviewCount":10,"reviewScore":4,"meta":{"revision":0,"created":1547531149428,"version":0},"$loki":15},{"_id":"5c3d65bd3525a329e0c19c9c","address":"10825 Kenwood Rd","location":{"type":"Point","coordinates":[-85.2218,39.2992485]},"isApproved":true,"items":[],"keys":["Restaurants"],"lastUpdated":1547527612850,"name":"Wornick","phone":"(513) 794-9800","price":"","reviewCount":2,"reviewScore":3,"meta":{"revision":0,"created":1547531149428,"version":0},"$loki":16},{"_id":"5c3d65bd3525a329e0c00292","address":"12000 Lebanon Road","location":{"type":"Point","coordinates":[-85.2218971028924,39.2996292855251]},"isApproved":true,"items":[],"keys":["Fast Food","Hot Dogs"],"lastUpdated":1547527612225,"name":"Skyline Chili","phone":"(513) 773-0605","price":"$","reviewCount":14,"reviewScore":3.5,"meta":{"revision":0,"created":1547531149428,"version":0},"$loki":17},{"_id":"5c3d65bd3525a329e0c0d326","address":"8828 Harrison Ave.","location":{"type":"Point","coordinates":[-85.2221237,39.2993831]},"isApproved":true,"items":[],"keys":["Burgers","Hot Dogs","Food Trucks"],"lastUpdated":1547527612546,"name":"U Look Hungry","phone":"(513) 240-0908","price":"","reviewCount":1,"reviewScore":4,"meta":{"revision":0,"created":1547531149428,"version":0},"$loki":18},{"_id":"5c3d65bd3525a329e0c0c862","address":"400 Wyoming Ave","location":{"type":"Point","coordinates":[-85.2179873565395,39.3052071435244]},"isApproved":true,"items":[],"keys":["Barbeque","Desserts","American (Traditional)"],"lastUpdated":1547527612526,"name":"Station Family BBQ","phone":"(513) 679-6797","price":"","reviewCount":6,"reviewScore":4,"meta":{"revision":0,"created":1547531149428,"version":0},"$loki":19},{"_id":"5c3d65bd3525a329e0c1a3f8","address":"504 E Pearl St","location":{"type":"Point","coordinates":[-85.2182801,39.2966362]},"isApproved":true,"items":[],"keys":["American (Traditional)","Breweries"],"lastUpdated":1547527612859,"name":"LiL’ Charlie’s Restaurant & Brewery","phone":"(812) 934-6392","price":"$$","reviewCount":71,"reviewScore":4,"meta":{"revision":0,"created":1547531149428,"version":0},"$loki":20},{"_id":"5c3d65bd3525a329e0c0813c","address":"5152 Merten Dr","location":{"type":"Point","coordinates":[-85.2023435,39.2899122]},"isApproved":true,"items":[],"keys":["Italian","Seafood"],"lastUpdated":1547527612419,"name":"Carrabba’s Italian Grill","phone":"(513) 339-0900","price":"$$","reviewCount":73,"reviewScore":3,"meta":{"revision":0,"created":1547531149428,"version":0},"$loki":21},{"_id":"5c3d65bd3525a329e0c13094","address":"12082B Montgomery Rd","location":{"type":"Point","coordinates":[-85.1974642,39.3262689]},"isApproved":true,"items":[],"keys":["Indian"],"lastUpdated":1547527612688,"name":"Ruchi Mess","phone":"(513) 781-3396","price":"$","reviewCount":27,"reviewScore":4,"meta":{"revision":0,"created":1547531149428,"version":0},"$loki":22},{"_id":"5c3d65bd3525a329e0c0574d","address":"4122 Hunt Rd","location":{"type":"Point","coordinates":[-85.2048256,39.3389372]},"isApproved":true,"items":[],"keys":["Mediterranean","Turkish","Greek"],"lastUpdated":1547527612349,"name":"Truva Cafe Mediterranean","phone":"(513) 791-0763","price":"$$","reviewCount":137,"reviewScore":4.5,"meta":{"revision":0,"created":1547531149428,"version":0},"$loki":23},{"_id":"5c3d65bd3525a329e0c18abe","address":"8007 State Rte 128","location":{"type":"Point","coordinates":[-85.204229,39.340255]},"isApproved":true,"items":[],"keys":["Pizza"],"lastUpdated":1547527612823,"name":"Guido’s Restaurant","phone":"(513) 353-9900","price":"$","reviewCount":1,"reviewScore":5,"meta":{"revision":0,"created":1547531149428,"version":0},"$loki":24},{"_id":"5c3d65bd3525a329e0c04deb","address":"10513 Harrison Ave","location":{"type":"Point","coordinates":[-85.2050886,39.3407473]},"isApproved":true,"items":[],"keys":["Mexican"],"lastUpdated":1547527612338,"name":"El Mariachi","phone":"(513) 367-2204","price":"$$","reviewCount":39,"reviewScore":4,"meta":{"revision":0,"created":1547531149428,"version":0},"$loki":25},{"_id":"5c3d65bd3525a329e0c0cedc","address":"128 Cross County Plz","location":{"type":"Point","coordinates":[-85.2158745,39.3120572]},"isApproved":true,"items":[],"keys":["Chinese"],"lastUpdated":1547527612535,"name":"China Wok","phone":"(812) 934-4032","price":"$","reviewCount":9,"reviewScore":3.5,"meta":{"revision":0,"created":1547531149428,"version":0},"$loki":26},{"_id":"5c3d65bd3525a329e0c18e57","address":"1044 State Rd 229","location":{"type":"Point","coordinates":[-85.2140661674769,39.312520150479]},"isApproved":true,"items":[],"keys":["Mexican"],"lastUpdated":1547527612831,"name":"The Toros","phone":"(812) 933-0159","price":"$$","reviewCount":17,"reviewScore":3.5,"meta":{"revision":0,"created":1547531149428,"version":0},"$loki":27},{"_id":"5c3d65bd3525a329e0c1064e","address":"7821 Hamilton Avenue","location":{"type":"Point","coordinates":[-85.215767,39.306737]},"isApproved":true,"items":[],"keys":["Fast Food"],"lastUpdated":1547527612619,"name":"Gold Star Chili","phone":"(513) 522-4376","price":"$","reviewCount":4,"reviewScore":4,"meta":{"revision":0,"created":1547531149428,"version":0},"$loki":28},{"_id":"5c3d65bd3525a329e0c0f4fc","address":"11015 Prince Ln","location":{"type":"Point","coordinates":[-85.2159013,39.3062218]},"isApproved":true,"items":[],"keys":["American (Traditional)","Breakfast & Brunch","Comfort Food"],"lastUpdated":1547527612592,"name":"Bob Evans","phone":"(513) 772-1199","price":"$","reviewCount":28,"reviewScore":3,"meta":{"revision":0,"created":1547531149428,"version":0},"$loki":29},{"_id":"5c3d65bd3525a329e0c05365","address":"732 Middleton Way","location":{"type":"Point","coordinates":[-85.217916,39.3076256]},"isApproved":true,"items":[],"keys":["Pizza","Italian"],"lastUpdated":1547527612346,"name":"Mio’s","phone":"(513) 697-6467","price":"$$","reviewCount":30,"reviewScore":4,"meta":{"revision":0,"created":1547531149428,"version":0},"$loki":30},{"_id":"5c3d65bd3525a329e0c18a99","address":"19049 Clayborn St","location":{"type":"Point","coordinates":[-85.1344463601708,39.447554304486]},"isApproved":true,"items":[],"keys":["Bed & Breakfast","American (Traditional)"],"lastUpdated":1547527612823,"name":"The Farmhouse","phone":"(765) 647-2645","price":"$$","reviewCount":25,"reviewScore":4.5,"meta":{"revision":0,"created":1547531149428,"version":0},"$loki":31},{"_id":"5c3d65bd3525a329e0c04a4e","address":"3403 Princeton Rd","location":{"type":"Point","coordinates":[-85.140026,39.449769]},"isApproved":true,"items":[],"keys":["Fast Food"],"lastUpdated":1547527612331,"name":"Chick-fil-A","phone":"(513) 892-4232","price":"$","reviewCount":16,"reviewScore":5,"meta":{"revision":0,"created":1547531149428,"version":0},"$loki":32},{"_id":"5c3d65bd3525a329e0bfffe8","address":"509 W Benson St","location":{"type":"Point","coordinates":[-85.13644250517,39.4466126535658]},"isApproved":true,"items":[],"keys":["Diners","Breakfast & Brunch","Sandwiches"],"lastUpdated":1547527612223,"name":"The Bridge House Restaurant","phone":"(513) 761-8369","price":"$","reviewCount":21,"reviewScore":4,"meta":{"revision":0,"created":1547531149428,"version":0},"$loki":33},{"_id":"5c3d65bd3525a329e0c1a451","address":"121 S Depot St","location":{"type":"Point","coordinates":[-85.136773,39.446781]},"isApproved":true,"items":[],"keys":["Cafes","Breakfast & Brunch","Burgers"],"lastUpdated":1547527612859,"name":"Big Four Cafe","phone":"(812) 932-3687","price":"$","reviewCount":42,"reviewScore":4,"meta":{"revision":0,"created":1547531149428,"version":0},"$loki":34},{"_id":"5c3d65bd3525a329e0c0735e","address":"194 N Brookwood Ave","location":{"type":"Point","coordinates":[-85.135648,39.446444]},"isApproved":true,"items":[],"keys":["Burgers"],"lastUpdated":1547527612399,"name":"Mad Mike’s Burgers & Fries","phone":"(513) 844-6453","price":"$$","reviewCount":25,"reviewScore":4,"meta":{"revision":0,"created":1547531149428,"version":0},"$loki":35},{"_id":"5c3d65bd3525a329e0c1b469","address":"4040 Cooper Rd","location":{"type":"Point","coordinates":[-85.1347775,39.4465279]},"isApproved":true,"items":[],"keys":["Golf","American (Traditional)","Beer, Wine & Spirits"],"lastUpdated":1547527612885,"name":"Sandtrap Grill","phone":"(513) 686-1211","price":"","reviewCount":1,"reviewScore":4,"meta":{"revision":0,"created":1547531149428,"version":0},"$loki":36},{"_id":"5c3d65bd3525a329e0c12cf9","address":"86 N Brookwood Ave","location":{"type":"Point","coordinates":[-85.133241713047,39.4463527280692]},"isApproved":true,"items":[],"keys":["Chinese"],"lastUpdated":1547527612681,"name":"Golden Dragon","phone":"(513) 894-6888","price":"$$","reviewCount":8,"reviewScore":3,"meta":{"revision":0,"created":1547531149428,"version":0},"$loki":37},{"_id":"5c3d65bd3525a329e0c000b6","address":"2629 Water Park Dr","location":{"type":"Point","coordinates":[-85.0124396,39.4237271]},"isApproved":true,"items":[],"keys":["Bars","American (New)"],"lastUpdated":1547527612223,"name":"Woodhouse Kitchen + Bar","phone":"(513) 466-8170","price":"$$$","reviewCount":46,"reviewScore":4.5,"meta":{"revision":0,"created":1547531149428,"version":0},"$loki":38},{"_id":"5c3d65bd3525a329e0c12cfc","address":"419 W Benson St","location":{"type":"Point","coordinates":[-85.0129915,39.4273637]},"isApproved":true,"items":[],"keys":["American (Traditional)","Desserts","Pubs"],"lastUpdated":1547527612681,"name":"Benson’s Tavern","phone":"(513) 918-5310","price":"$$","reviewCount":57,"reviewScore":4,"meta":{"revision":0,"created":1547531149428,"version":0},"$loki":39},{"_id":"5c3d65bd3525a329e0c0432c","address":"404 2nd Ave","location":{"type":"Point","coordinates":[-85.016626,39.4286293]},"isApproved":true,"items":[],"keys":["Italian","Venues & Event Spaces","Wine Bars"],"lastUpdated":1547527612321,"name":"Pitrelli’s","phone":"(513) 770-0122","price":"$$","reviewCount":107,"reviewScore":3.5,"meta":{"revision":0,"created":1547531149428,"version":0},"$loki":40},{"_id":"5c3d65bd3525a329e0c06f1a","address":"10577 Springfield Pike","location":{"type":"Point","coordinates":[-85.0130524,39.4224209]},"isApproved":true,"items":[],"keys":["Asian Fusion","Sushi Bars","Japanese"],"lastUpdated":1547527612388,"name":"Fusabowl","phone":"(513) 772-7888","price":"$$","reviewCount":15,"reviewScore":4.5,"meta":{"revision":0,"created":1547531149428,"version":0},"$loki":41},{"_id":"5c3d65bd3525a329e0c0503e","address":"530 Wessel Dr","location":{"type":"Point","coordinates":[-85.0131743,39.4175006]},"isApproved":true,"items":[],"keys":["Indian"],"lastUpdated":1547527612339,"name":"OM India","phone":"(513) 858-4141","price":"","reviewCount":1,"reviewScore":5,"meta":{"revision":0,"created":1547531149428,"version":0},"$loki":42},{"_id":"5c3d65bd3525a329e0c08094","address":"9301 Winton Rd","location":{"type":"Point","coordinates":[-85.013093,39.4183854]},"isApproved":true,"items":[],"keys":["Burgers","Fast Food","Ice Cream & Frozen Yogurt"],"lastUpdated":1547527612419,"name":"Freddy’s Frozen Custard & Steakburgers","phone":"(513) 521-1643","price":"$","reviewCount":34,"reviewScore":3,"meta":{"revision":0,"created":1547531149428,"version":0},"$loki":43},{"_id":"5c3d65bd3525a329e0c0a045","address":"1 Wyoming Ave","location":{"type":"Point","coordinates":[-85.013186,39.420389]},"isApproved":true,"items":[],"keys":["Breakfast & Brunch"],"lastUpdated":1547527612472,"name":"Half Day Cafe","phone":"(513) 821-2323","price":"$$","reviewCount":195,"reviewScore":4,"meta":{"revision":0,"created":1547531149428,"version":0},"$loki":44},{"_id":"5c3d65bd3525a329e0c0bfd8","address":"559 Main St","location":{"type":"Point","coordinates":[-85.0124433,39.4205377]},"isApproved":true,"items":[],"keys":["American (Traditional)","Barbeque","Sandwiches"],"lastUpdated":1547527612516,"name":"Korners Kountry Kitchen","phone":"(765) 547-1039","price":"$","reviewCount":29,"reviewScore":4,"meta":{"revision":0,"created":1547531149428,"version":0},"$loki":45},{"_id":"5c3d65bd3525a329e0c0cea4","address":"610 Northland Blvd","location":{"type":"Point","coordinates":[-85.0118544,39.4189985]},"isApproved":true,"items":[],"keys":["Mexican"],"lastUpdated":1547527612534,"name":"Taco Loco","phone":"(513) 851-8100","price":"$","reviewCount":44,"reviewScore":4,"meta":{"revision":0,"created":1547531149428,"version":0},"$loki":46},{"_id":"5c3d65bd3525a329e0c1aed6","address":"6890 Tylersville Rd","location":{"type":"Point","coordinates":[-85.0100675,39.4102006]},"isApproved":true,"items":[],"keys":["Pizza","Beer Bar","Sandwiches"],"lastUpdated":1547527612876,"name":"Fratelli’s Pizzeria","phone":"(513) 777-5061","price":"$$","reviewCount":77,"reviewScore":4,"meta":{"revision":0,"created":1547531149428,"version":0},"$loki":47},{"_id":"5c3d65bd3525a329e0c18304","address":"1736 N State St","location":{"type":"Point","coordinates":[-85.1632881,39.8125035]},"isApproved":true,"items":[],"keys":["Diners","Breakfast & Brunch","American (Traditional)"],"lastUpdated":1547527612813,"name":"Waffle House","phone":"(317) 462-6343","price":"$","reviewCount":11,"reviewScore":4.5,"meta":{"revision":0,"created":1547531149428,"version":0},"$loki":48},{"_id":"5c3d65bd3525a329e0bffca5","address":"23 E 38th St","location":{"type":"Point","coordinates":[-85.1714685,39.8118807]},"isApproved":true,"items":[],"keys":["Burgers","American (Traditional)","Cheesesteaks"],"lastUpdated":1547527612221,"name":"Big City Grill & Lemonade","phone":"(317) 283-7000","price":"$","reviewCount":84,"reviewScore":4.5,"meta":{"revision":0,"created":1547531149428,"version":0},"$loki":49},{"_id":"5c3d65bd3525a329e0c0f237","address":"3360 W Morris St","location":{"type":"Point","coordinates":[-85.1721974,39.8127134]},"isApproved":true,"items":[],"keys":["Mexican","Peruvian"],"lastUpdated":1547527612591,"name":"El Corcel Mexican Restaurant","phone":"(317) 731-7084","price":"$$","reviewCount":24,"reviewScore":4,"meta":{"revision":0,"created":1547531149428,"version":0},"$loki":50},{"_id":"5c3d65bd3525a329e0c15df3","address":"135 W Main St","location":{"type":"Point","coordinates":[-85.1709826,39.8128235]},"isApproved":true,"items":[],"keys":["Steakhouses","Seafood","Soul Food"],"lastUpdated":1547527612755,"name":"Kopper Kettle Inn Restaurant","phone":"(765) 763-6767","price":"$$","reviewCount":38,"reviewScore":4,"meta":{"revision":0,"created":1547531149428,"version":0},"$loki":51},{"_id":"5c3d65bd3525a329e0c19642","address":"5537 E Washington St","location":{"type":"Point","coordinates":[-85.1957596,39.8127269]},"isApproved":true,"items":[],"keys":["Mexican"],"lastUpdated":1547527612841,"name":"Ixca","phone":"(317) 986-4154","price":"$$","reviewCount":95,"reviewScore":4.5,"meta":{"revision":0,"created":1547531149428,"version":0},"$loki":52},{"_id":"5c3d65bd3525a329e0c15f91","address":"7363 N Michigan Rd","location":{"type":"Point","coordinates":[-85.124052,39.675761]},"isApproved":true,"items":[],"keys":["Salvadoran","Mexican"],"lastUpdated":1547527612756,"name":"Pupuseria Casa Maria","phone":"(317) 347-0193","price":"$","reviewCount":68,"reviewScore":4.5,"meta":{"revision":0,"created":1547531149428,"version":0},"$loki":53},{"_id":"5c3d65bd3525a329e0c039a4","address":"5055 S Dearborn St","location":{"type":"Point","coordinates":[-85.1287105,39.6645769]},"isApproved":true,"items":[],"keys":["Bars","Breakfast & Brunch","American (Traditional)"],"lastUpdated":1547527612311,"name":"Harry C’s Craft House","phone":"(317) 787-3787","price":"$","reviewCount":11,"reviewScore":3.5,"meta":{"revision":0,"created":1547531149428,"version":0},"$loki":54},{"_id":"5c3d65bd3525a329e0c018da","address":"826 S State St","location":{"type":"Point","coordinates":[-85.1329047,39.6713681]},"isApproved":true,"items":[],"keys":["Salad","Mexican"],"lastUpdated":1547527612251,"name":"La Fiesta","phone":"","price":"","reviewCount":1,"reviewScore":4,"meta":{"revision":0,"created":1547531149428,"version":0},"$loki":55},{"_id":"5c3d65bd3525a329e0c1860f","address":"1006 Virginia Ave","location":{"type":"Point","coordinates":[-85.1285078,39.6719682]},"isApproved":true,"items":[],"keys":["Ramen","Sandwiches"],"lastUpdated":1547527612815,"name":"Black Eye Take Out","phone":"","price":"","reviewCount":20,"reviewScore":4,"meta":{"revision":0,"created":1547531149428,"version":0},"$loki":56},{"_id":"5c3d65bd3525a329e0c00208","address":"4351 Lafayette Rd","location":{"type":"Point","coordinates":[-85.1270286,39.6586141]},"isApproved":true,"items":[],"keys":["Chinese","Vietnamese","Bubble Tea"],"lastUpdated":1547527612225,"name":"Huong Sizzling Wok","phone":"(317) 297-3441","price":"$","reviewCount":88,"reviewScore":4,"meta":{"revision":0,"created":1547531149428,"version":0},"$loki":57},{"_id":"5c3d65bd3525a329e0c05b93","address":"1626 N Main St","location":{"type":"Point","coordinates":[-85.1330465,39.6398579]},"isApproved":true,"items":[],"keys":["Sandwiches"],"lastUpdated":1547527612356,"name":"Justrite Drive-In Restaurant","phone":"(765) 932-2762","price":"$","reviewCount":5,"reviewScore":3.5,"meta":{"revision":0,"created":1547531149428,"version":0},"$loki":58},{"_id":"5c3d65bd3525a329e0c191c2","address":"7435 W 10th St","location":{"type":"Point","coordinates":[-85.1330465,39.6398579]},"isApproved":true,"items":[],"keys":["Breakfast & Brunch"],"lastUpdated":1547527612833,"name":"Flap-Jacks Pancake House","phone":"(317) 273-0123","price":"$","reviewCount":52,"reviewScore":4.5,"meta":{"revision":0,"created":1547531149428,"version":0},"$loki":59},{"_id":"5c3d65bd3525a329e0c1aa96","address":"5646 E Washington St","location":{"type":"Point","coordinates":[-85.1338772,39.6394702]},"isApproved":true,"items":[],"keys":["Pizza","Sandwiches","Salad"],"lastUpdated":1547527612868,"name":"Jockamo Upper Crust Pizza","phone":"(317) 356-6612","price":"$$","reviewCount":427,"reviewScore":4,"meta":{"revision":0,"created":1547531149428,"version":0},"$loki":60},{"_id":"5c3d65bd3525a329e0c199e4","address":"203 Vine St","location":{"type":"Point","coordinates":[-85.1299737632294,39.6378177563066]},"isApproved":true,"items":[],"keys":["Southern","American (Traditional)"],"lastUpdated":1547527612848,"name":"Southern Style Family Dining","phone":"(765) 825-9400","price":"$","reviewCount":10,"reviewScore":4,"meta":{"revision":0,"created":1547531149428,"version":0},"$loki":61},{"_id":"5c3d65bd3525a329e0c03c39","address":"5201 Lodge Rd","location":{"type":"Point","coordinates":[-85.1281132,39.6385856]},"isApproved":true,"items":[],"keys":["American (Traditional)","Desserts"],"lastUpdated":1547527612312,"name":"Trailblazer Dining Room","phone":"(513) 664-3500","price":"$$","reviewCount":5,"reviewScore":3.5,"meta":{"revision":0,"created":1547531149428,"version":0},"$loki":62},{"_id":"5c3d65bd3525a329e0c027aa","address":"201 N Main St","location":{"type":"Point","coordinates":[-85.1277176,39.639132]},"isApproved":true,"items":[],"keys":["Pizza","Mexican","Sandwiches"],"lastUpdated":1547527612285,"name":"Pizza King of Liberty","phone":"(765) 458-5775","price":"$$","reviewCount":8,"reviewScore":4,"meta":{"revision":0,"created":1547531149428,"version":0},"$loki":63},{"_id":"5c3d65bd3525a329e0c1046f","address":"1901 N Main St","location":{"type":"Point","coordinates":[-85.135417,39.643558]},"isApproved":true,"items":[],"keys":["Pizza","Mexican"],"lastUpdated":1547527612618,"name":"Pizza King of Rushville","phone":"(765) 932-4243","price":"","reviewCount":1,"reviewScore":4,"meta":{"revision":0,"created":1547531149428,"version":0},"$loki":64},{"_id":"5c3d65bd3525a329e0c058c4","address":"8255 Craig St","location":{"type":"Point","coordinates":[-85.137973,39.644532]},"isApproved":true,"items":[],"keys":["Grocery","Mexican"],"lastUpdated":1547527612354,"name":"Supermercado Pollo Michoacano","phone":"(317) 863-8442","price":"","reviewCount":8,"reviewScore":4,"meta":{"revision":0,"created":1547531149428,"version":0},"$loki":65},{"_id":"5c3d65bd3525a329e0c05449","address":"8867 Pendleton Pike","location":{"type":"Point","coordinates":[-85.1412849,39.6422461]},"isApproved":true,"items":[],"keys":["Korean"],"lastUpdated":1547527612347,"name":"Mama’s House","phone":"(317) 897-0808","price":"$$","reviewCount":226,"reviewScore":3.5,"meta":{"revision":0,"created":1547531149428,"version":0},"$loki":66},{"_id":"5c3d65bd3525a329e0c14af8","address":"202 E Seminary St","location":{"type":"Point","coordinates":[-85.1412849,39.6422461]},"isApproved":true,"items":[],"keys":["British","Breweries"],"lastUpdated":1547527612728,"name":"Norris English Pub","phone":"(765) 223-2337","price":"$","reviewCount":28,"reviewScore":4,"meta":{"revision":0,"created":1547531149428,"version":0},"$loki":67},{"_id":"5c3d65bd3525a329e0c0307c","address":"8150 Oaklandon Rd","location":{"type":"Point","coordinates":[-85.1383868604898,39.6424180985135]},"isApproved":true,"items":[],"keys":["Asian Fusion","Desserts","Seafood"],"lastUpdated":1547527612295,"name":"Asian Cuisine","phone":"(317) 823-5888","price":"$","reviewCount":27,"reviewScore":4,"meta":{"revision":0,"created":1547531149428,"version":0},"$loki":68},{"_id":"5c3d65bd3525a329e0c14e64","address":"1909 N Main St","location":{"type":"Point","coordinates":[-85.1383868604898,39.6424180985135]},"isApproved":true,"items":[],"keys":["Chinese"],"lastUpdated":1547527612735,"name":"China Town","phone":"(765) 932-3001","price":"","reviewCount":4,"reviewScore":4.5,"meta":{"revision":0,"created":1547531149428,"version":0},"$loki":69},{"_id":"5c3d65bd3525a329e0c032d7","address":"1010 W 3rd St","location":{"type":"Point","coordinates":[-85.1397689,39.6406395]},"isApproved":true,"items":[],"keys":["Ice Cream & Frozen Yogurt","Burgers","Sandwiches"],"lastUpdated":1547527612302,"name":"Stagg’s Dairy Treats & Restaurant","phone":"(765) 938-3251","price":"$","reviewCount":11,"reviewScore":4.5,"meta":{"revision":0,"created":1547531149428,"version":0},"$loki":70},{"_id":"5c3d65bd3525a329e0c0c8c3","address":"910 W 10th St","location":{"type":"Point","coordinates":[-85.1397689,39.6406395]},"isApproved":true,"items":[],"keys":["Burgers","Chicken Wings","Sports Bars"],"lastUpdated":1547527612526,"name":"Stacked Pickle - IUPUI","phone":"(317) 426-3600","price":"$$","reviewCount":100,"reviewScore":3,"meta":{"revision":0,"created":1547531149428,"version":0},"$loki":71},{"_id":"5c3d65bd3525a329e0c05dd8","address":"200 S Main St","location":{"type":"Point","coordinates":[-85.1378279,39.6402993]},"isApproved":true,"items":[],"keys":["Fast Food"],"lastUpdated":1547527612361,"name":"Hardee’s","phone":"(765) 938-1218","price":"$","reviewCount":2,"reviewScore":3.5,"meta":{"revision":0,"created":1547531149428,"version":0},"$loki":72},{"_id":"5c3d65bd3525a329e0c13c17","address":"2035 N Riley Hwy","location":{"type":"Point","coordinates":[-85.1480377,39.6398805]},"isApproved":true,"items":[],"keys":["Burgers","Fast Food"],"lastUpdated":1547527612705,"name":"Wendy’s","phone":"(317) 421-1703","price":"$","reviewCount":8,"reviewScore":3,"meta":{"revision":0,"created":1547531149428,"version":0},"$loki":73},{"_id":"5c3d65bd3525a329e0c0039a","address":"302 W 2nd St","location":{"type":"Point","coordinates":[-85.3020489,39.6239054]},"isApproved":true,"items":[],"keys":["Mexican"],"lastUpdated":1547527612226,"name":"El Reparo Mexican Restaurant","phone":"(765) 932-5544","price":"$","reviewCount":12,"reviewScore":4,"meta":{"revision":0,"created":1547531149428,"version":0},"$loki":74},{"_id":"5c3d65bd3525a329e0c19f8e","address":"832 E Westfield Blvd","location":{"type":"Point","coordinates":[-85.352313,39.806586]},"isApproved":true,"items":[],"keys":["Comfort Food","Beer Bar","Sandwiches"],"lastUpdated":1547527612851,"name":"Flatwater Restaurant","phone":"(317) 257-5466","price":"$$","reviewCount":253,"reviewScore":4,"meta":{"revision":0,"created":1547531149428,"version":0},"$loki":75},{"_id":"5c3d65bd3525a329e0c0e85c","address":"637 E 5th St","location":{"type":"Point","coordinates":[-85.4455559,39.6300122]},"isApproved":true,"items":[],"keys":["Italian","Pizza"],"lastUpdated":1547527612575,"name":"Pizza King","phone":"(765) 825-8568","price":"$","reviewCount":10,"reviewScore":3,"meta":{"revision":0,"created":1547531149428,"version":0},"$loki":76},{"_id":"5c3d65bd3525a329e0c04e38","address":"1630 N Main St","location":{"type":"Point","coordinates":[-85.445567,39.630251]},"isApproved":true,"items":[],"keys":["Mexican"],"lastUpdated":1547527612338,"name":"Mezcal Bar & Grill","phone":"(765) 932-2400","price":"","reviewCount":4,"reviewScore":4,"meta":{"revision":0,"created":1547531149428,"version":0},"$loki":77},{"_id":"5c3d65bd3525a329e0c0fe5d","address":"1821 N Main St","location":{"type":"Point","coordinates":[-85.4442913038724,39.6256043318968]},"isApproved":true,"items":[],"keys":["Ice Cream & Frozen Yogurt","Fast Food"],"lastUpdated":1547527612609,"name":"Dairy Queen","phone":"(765) 938-5577","price":"","reviewCount":2,"reviewScore":2.5,"meta":{"revision":0,"created":1547531149428,"version":0},"$loki":78},{"_id":"5c3d65bd3525a329e0c04bab","address":"8889 State Route 725 E","location":{"type":"Point","coordinates":[-85.4442061,39.626508]},"isApproved":true,"items":[],"keys":["Sandwiches","Pizza"],"lastUpdated":1547527612337,"name":"Mama Mac’s","phone":"(937) 787-3700","price":"","reviewCount":5,"reviewScore":4.5,"meta":{"revision":0,"created":1547531149428,"version":0},"$loki":79},{"_id":"5c3d65bd3525a329e0c14b4c","address":"Rushville Shpg Ctr","location":{"type":"Point","coordinates":[-85.4455559,39.6292877]},"isApproved":true,"items":[],"keys":["Florists","Delis"],"lastUpdated":1547527612728,"name":"Kroger","phone":"(765) 932-5511","price":"$","reviewCount":1,"reviewScore":3,"meta":{"revision":0,"created":1547531149428,"version":0},"$loki":80},{"_id":"5c3d65bd3525a329e0c0eaf9","address":"7 W Union St","location":{"type":"Point","coordinates":[-85.444458,39.6228235]},"isApproved":true,"items":[],"keys":["Restaurants"],"lastUpdated":1547527612581,"name":"Liberty Restaurant","phone":"(765) 458-5223","price":"","reviewCount":2,"reviewScore":4.5,"meta":{"revision":0,"created":1547531149428,"version":0},"$loki":81},{"_id":"5c3d65bd3525a329e0c14858","address":"90 Depot St","location":{"type":"Point","coordinates":[-85.4443874,39.6235257]},"isApproved":true,"items":[],"keys":["Burgers","Ice Cream & Frozen Yogurt"],"lastUpdated":1547527612727,"name":"Depot Dairy","phone":"(937) 452-3653","price":"$$","reviewCount":7,"reviewScore":3,"meta":{"revision":0,"created":1547531149428,"version":0},"$loki":82},{"_id":"5c3d65bd3525a329e0c12bad","address":"216 S Main St","location":{"type":"Point","coordinates":[-85.444435,39.614984]},"isApproved":true,"items":[],"keys":["Restaurants"],"lastUpdated":1547527612680,"name":"Liberty Bell Restaurant","phone":"(765) 458-6115","price":"$","reviewCount":14,"reviewScore":3.5,"meta":{"revision":0,"created":1547531149428,"version":0},"$loki":83},{"_id":"5c3d65bd3525a329e0c01921","address":"9 N Main St","location":{"type":"Point","coordinates":[-85.444727,39.6091871]},"isApproved":true,"items":[],"keys":["Mexican"],"lastUpdated":1547527612251,"name":"El Reparo","phone":"(765) 458-1520","price":"$$","reviewCount":17,"reviewScore":4,"meta":{"revision":0,"created":1547531149428,"version":0},"$loki":84},{"_id":"5c3d65bd3525a329e0c17c79","address":"58 E Central Ave","location":{"type":"Point","coordinates":[-85.4443874,39.6060113]},"isApproved":true,"items":[],"keys":["Pizza"],"lastUpdated":1547527612800,"name":"4j’s Pizza and Cafe","phone":"(937) 452-1011","price":"","reviewCount":1,"reviewScore":5,"meta":{"revision":0,"created":1547531149428,"version":0},"$loki":85},{"_id":"5c3d65bd3525a329e0c08f8e","address":"250 N Main St","location":{"type":"Point","coordinates":[-85.4435528,39.6085127]},"isApproved":true,"items":[],"keys":["American (Traditional)"],"lastUpdated":1547527612438,"name":"The Corner Restaurant","phone":"(765) 938-3910","price":"$","reviewCount":12,"reviewScore":3.5,"meta":{"revision":0,"created":1547531149428,"version":0},"$loki":86},{"_id":"5c3d65bd3525a329e0c0f218","address":"5507 W Elkton Gifford Rd","location":{"type":"Point","coordinates":[-85.4463594,39.6092137]},"isApproved":true,"items":[],"keys":["Seafood"],"lastUpdated":1547527612591,"name":"Pj’s Place","phone":"(937) 787-3600","price":"","reviewCount":1,"reviewScore":4,"meta":{"revision":0,"created":1547531149428,"version":0},"$loki":87},{"_id":"5c3d65bd3525a329e0c0b876","address":"732 N Main St","location":{"type":"Point","coordinates":[-85.4479895938484,39.6084226653451]},"isApproved":true,"items":[],"keys":["Sushi Bars","Japanese"],"lastUpdated":1547527612506,"name":"Sakura Japanese Hibachi & Sushi","phone":"(765) 938-1883","price":"$$","reviewCount":9,"reviewScore":4.5,"meta":{"revision":0,"created":1547531149428,"version":0},"$loki":88},{"_id":"5c3d65bd3525a329e0c05e27","address":"211 N Perkins St","location":{"type":"Point","coordinates":[-85.459918,39.611591]},"isApproved":true,"items":[],"keys":["Pizza","Italian"],"lastUpdated":1547527612362,"name":"Pizza King of Rushville","phone":"(765) 932-2212","price":"$$","reviewCount":14,"reviewScore":4,"meta":{"revision":0,"created":1547531149428,"version":0},"$loki":89},{"_id":"5c3d65bd3525a329e0c0b681","address":"3147 Princeton Rd","location":{"type":"Point","coordinates":[-85.3059079125524,39.3984439274386]},"isApproved":true,"items":[],"keys":["Mexican","Salad","Seafood"],"lastUpdated":1547527612500,"name":"La Cazuela Mexican Grill & Bar","phone":"(513) 887-1230","price":"$$","reviewCount":39,"reviewScore":4,"meta":{"revision":0,"created":1547531149428,"version":0},"$loki":90},{"_id":"5c3d65bd3525a329e0c0af3f","address":"600 Cincinnati Mills Dr","location":{"type":"Point","coordinates":[-85.3060197653474,39.3985583981962]},"isApproved":true,"items":[],"keys":["Japanese"],"lastUpdated":1547527612491,"name":"Oyishi Japan","phone":"(513) 719-7187","price":"","reviewCount":2,"reviewScore":4,"meta":{"revision":0,"created":1547531149428,"version":0},"$loki":91},{"_id":"5c3d65bd3525a329e0c10a73","address":"5106 Pleasant Ave","location":{"type":"Point","coordinates":[-85.2972254,39.3363997]},"isApproved":true,"items":[],"keys":["Chinese"],"lastUpdated":1547527612631,"name":"Lee’s Chinese Restaurant","phone":"(513) 868-1168","price":"$","reviewCount":29,"reviewScore":4.5,"meta":{"revision":0,"created":1547531149428,"version":0},"$loki":92},{"_id":"5c3d65bd3525a329e0c115b2","address":"8260 Arbor Square Dr","location":{"type":"Point","coordinates":[-85.3280149,39.3183237]},"isApproved":true,"items":[],"keys":["Mexican","Tex-Mex"],"lastUpdated":1547527612649,"name":"Moe’s Southwest Grill","phone":"(513) 770-0696","price":"$","reviewCount":24,"reviewScore":3.5,"meta":{"revision":0,"created":1547531149428,"version":0},"$loki":93},{"_id":"5c3d65bd3525a329e0c11f21","address":"8348 E County Road 200 S","location":{"type":"Point","coordinates":[-85.3311030888302,39.308473857723]},"isApproved":true,"items":[],"keys":["Diners"],"lastUpdated":1547527612662,"name":"Midtown Diner","phone":"(812) 663-8980","price":"","reviewCount":5,"reviewScore":4,"meta":{"revision":0,"created":1547531149428,"version":0},"$loki":94}],"idIndex":[1,2,3,4,5,6,7,8,9,10,11,12,13,14,15,16,17,18,19,20,21,22,23,24,25,26,27,28,29,30,31,32,33,34,35,36,37,38,39,40,41,42,43,44,45,46,47,48,49,50,51,52,53,54,55,56,57,58,59,60,61,62,63,64,65,66,67,68,69,70,71,72,73,74,75,76,77,78,79,80,81,82,83,84,85,86,87,88,89,90,91,92,93,94],"binaryIndices":{},"constraints":null,"uniqueNames":[],"transforms":{},"objType":"restaurants","dirty":true,"cachedIndex":null,"cachedBinaryIndex":null,"cachedData":null,"adaptiveBinaryIndices":true,"transactional":false,"cloneObjects":false,"cloneMethod":"parse-stringify","asyncListeners":false,"disableMeta":false,"disableChangesApi":true,"disableDeltaChangesApi":true,"autoupdate":false,"serializableIndices":true,"ttl":null,"maxId":94,"DynamicViews":[],"events":{"insert":[],"update":[],"pre-insert":[],"pre-update":[],"close":[],"flushbuffer":[],"error":[],"delete":[null],"warning":[null]},"changes":[]}],"databaseVersion":1.5,"engineVersion":1.5,"autosave":false,"autosaveInterval":5000,"autosaveHandle":null,"throttledSaves":true,"options":{"serializationMethod":"normal","destructureDelimiter":"$<\n"},"persistenceMethod":"fs","persistenceAdapter":null,"verbose":false,"events":{"init":[null],"loaded":[],"flushChanges":[],"close":[],"changes":[],"warning":[]},"ENV":"NODEJS"}