{"filename":"-85.25-40","collections":[{"name":"restaurants","data":[{"_id":"5c3d65bd3525a329e0c09391","address":"845 E 53rd St","location":{"type":"Point","coordinates":[-85.654689,40.062306]},"isApproved":true,"items":[],"keys":["Sports Bars","American (Traditional)"],"lastUpdated":1547527612452,"name":"Bourbon Street","phone":"(765) 642-5900","price":"","reviewCount":2,"reviewScore":2,"meta":{"revision":0,"created":1547531149534,"version":0},"$loki":1},{"_id":"5c3d65bd3525a329e0c01acd","address":"5009 S Scatterfield Rd","location":{"type":"Point","coordinates":[-85.6558899,40.061295]},"isApproved":true,"items":[],"keys":["Steakhouses"],"lastUpdated":1547527612258,"name":"Ponderosa Steakhouse","phone":"(765) 642-2720","price":"$$","reviewCount":16,"reviewScore":4,"meta":{"revision":0,"created":1547531149534,"version":0},"$loki":2},{"_id":"5c3d65bd3525a329e0c02073","address":"4410 Scatterfield Rd","location":{"type":"Point","coordinates":[-85.655422,40.059406]},"isApproved":true,"items":[],"keys":["Italian"],"lastUpdated":1547527612275,"name":"Fazoli’s","phone":"(765) 622-9163","price":"$","reviewCount":12,"reviewScore":4,"meta":{"revision":0,"created":1547531149534,"version":0},"$loki":3},{"_id":"5c3d65bd3525a329e0c05ea7","address":"2128 S Scatterfield Rd","location":{"type":"Point","coordinates":[-85.654828,40.055741]},"isApproved":true,"items":[],"keys":["Chinese"],"lastUpdated":1547527612367,"name":"China House","phone":"(765) 644-2828","price":"$","reviewCount":12,"reviewScore":3,"meta":{"revision":0,"created":1547531149534,"version":0},"$loki":4},{"_id":"5c3d65bd3525a329e0c19f4d","address":"5806 Scatterfield Rd","location":{"type":"Point","coordinates":[-85.654334,40.054703]},"isApproved":true,"items":[],"keys":["Seafood","American (Traditional)"],"lastUpdated":1547527612851,"name":"Red Lobster","phone":"(765) 643-7663","price":"$$","reviewCount":17,"reviewScore":3.5,"meta":{"revision":0,"created":1547531149534,"version":0},"$loki":5},{"_id":"5c3d65bd3525a329e0c19f8d","address":"1805 S Scatterfield Rd","location":{"type":"Point","coordinates":[-85.653524,40.051705]},"isApproved":true,"items":[],"keys":["Burgers","Fast Food"],"lastUpdated":1547527612851,"name":"Wendy’s","phone":"(765) 649-1777","price":"$","reviewCount":5,"reviewScore":4.5,"meta":{"revision":0,"created":1547531149534,"version":0},"$loki":6},{"_id":"5c3d65bd3525a329e0c19705","address":"6370 S Scatterfield Rd","location":{"type":"Point","coordinates":[-85.6521795,40.0516641]},"isApproved":true,"items":[],"keys":["American (Traditional)","Steakhouses","Sandwiches"],"lastUpdated":1547527612841,"name":"Montana Mike’s Steakhouse","phone":"(765) 649-8000","price":"$$","reviewCount":55,"reviewScore":3.5,"meta":{"revision":0,"created":1547531149534,"version":0},"$loki":7},{"_id":"5c3d65bd3525a329e0c0d49e","address":"2724 Nichol Ave","location":{"type":"Point","coordinates":[-85.6518199998373,40.0487431575318]},"isApproved":true,"items":[],"keys":["Szechuan"],"lastUpdated":1547527612547,"name":"Great Taste China","phone":"(765) 643-2893","price":"$$","reviewCount":8,"reviewScore":2,"meta":{"revision":0,"created":1547531149534,"version":0},"$loki":8},{"_id":"5c3d65bd3525a329e0c03aed","address":"211 E Main St","location":{"type":"Point","coordinates":[-85.6518964,40.0489316]},"isApproved":true,"items":[],"keys":["Buffets","Chinese"],"lastUpdated":1547527612312,"name":"Bamboo House Buffet","phone":"(765) 378-5400","price":"","reviewCount":5,"reviewScore":3,"meta":{"revision":0,"created":1547531149534,"version":0},"$loki":9},{"_id":"5c3d65bd3525a329e0c020d3","address":"5567 S Scatterfield Rd","location":{"type":"Point","coordinates":[-85.652358,40.0508481]},"isApproved":true,"items":[],"keys":["Chinese","Japanese","American (Traditional)"],"lastUpdated":1547527612275,"name":"Hibachi Grill & Supreme Buffet","phone":"(765) 393-0119","price":"$$","reviewCount":27,"reviewScore":2.5,"meta":{"revision":0,"created":1547531149534,"version":0},"$loki":10},{"_id":"5c3d65bd3525a329e0c159c1","address":"4682 S Scatterfield Rd","location":{"type":"Point","coordinates":[-85.6511137,40.0557991]},"isApproved":true,"items":[],"keys":["Mexican","Fast Food"],"lastUpdated":1547527612747,"name":"QDOBA Mexican Eats","phone":"(765) 393-2508","price":"$","reviewCount":10,"reviewScore":3,"meta":{"revision":0,"created":1547531149534,"version":0},"$loki":11},{"_id":"5c3d65bd3525a329e0c0956a","address":"2425 Broadway St","location":{"type":"Point","coordinates":[-85.6534133,40.0545799]},"isApproved":true,"items":[],"keys":["Pizza","Italian","Chicken Wings"],"lastUpdated":1547527612453,"name":"Pizza Hut","phone":"(765) 643-6909","price":"","reviewCount":4,"reviewScore":2,"meta":{"revision":0,"created":1547531149534,"version":0},"$loki":12},{"_id":"5c3d65bd3525a329e0c050ab","address":"501 S Scatterfield Rd","location":{"type":"Point","coordinates":[-85.6536137,40.0560298]},"isApproved":true,"items":[],"keys":["Fast Food","Ice Cream & Frozen Yogurt"],"lastUpdated":1547527612340,"name":"Dairy Queen","phone":"(765) 644-8956","price":"$","reviewCount":4,"reviewScore":3,"meta":{"revision":0,"created":1547531149534,"version":0},"$loki":13},{"_id":"5c3d65bd3525a329e0c1a752","address":"2705 Nichol Ave","location":{"type":"Point","coordinates":[-85.6520369,40.0568625]},"isApproved":true,"items":[],"keys":["Pizza"],"lastUpdated":1547527612866,"name":"Scampy’s Annex","phone":"(765) 649-7183","price":"$","reviewCount":9,"reviewScore":3,"meta":{"revision":0,"created":1547531149534,"version":0},"$loki":14},{"_id":"5c3d65bd3525a329e0bfff7f","address":"5555 S Scatterfield Rd","location":{"type":"Point","coordinates":[-85.653383,40.056856]},"isApproved":true,"items":[],"keys":["American (Traditional)","Breakfast & Brunch","Comfort Food"],"lastUpdated":1547527612223,"name":"Bob Evans","phone":"(765) 643-0064","price":"$","reviewCount":13,"reviewScore":2.5,"meta":{"revision":0,"created":1547531149534,"version":0},"$loki":15},{"_id":"5c3d65bd3525a329e0c01f13","address":"4741 S Scatterfield Rd","location":{"type":"Point","coordinates":[-85.6534581631422,40.0578947051268]},"isApproved":true,"items":[],"keys":["Sandwiches","Fast Food","Delis"],"lastUpdated":1547527612261,"name":"Jimmy John’s","phone":"(765) 640-5100","price":"$","reviewCount":6,"reviewScore":2,"meta":{"revision":0,"created":1547531149534,"version":0},"$loki":16},{"_id":"5c3d65bd3525a329e0c0d71e","address":"3820 Columbus Ave","location":{"type":"Point","coordinates":[-85.6534818,40.0586463]},"isApproved":true,"items":[],"keys":["Pizza"],"lastUpdated":1547527612554,"name":"Pizza King Restaurant & Delivery","phone":"(765) 649-0191","price":"","reviewCount":15,"reviewScore":2.5,"meta":{"revision":0,"created":1547531149534,"version":0},"$loki":17},{"_id":"5c3d65bd3525a329e0c1854f","address":"15600 W Commerce Rd","location":{"type":"Point","coordinates":[-85.6520168,40.0580118]},"isApproved":true,"items":[],"keys":["Burgers","Fast Food"],"lastUpdated":1547527612815,"name":"Wendy’s","phone":"(765) 378-1022","price":"","reviewCount":3,"reviewScore":1.5,"meta":{"revision":0,"created":1547531149534,"version":0},"$loki":18},{"_id":"5c3d65bd3525a329e0c0fa9f","address":"1015 S Peru","location":{"type":"Point","coordinates":[-85.6522299908245,40.0588777498912]},"isApproved":true,"items":[],"keys":["Fast Food","Burgers","Coffee & Tea"],"lastUpdated":1547527612601,"name":"McDonald’s","phone":"(317) 984-3264","price":"$","reviewCount":11,"reviewScore":1.5,"meta":{"revision":0,"created":1547531149534,"version":0},"$loki":19},{"_id":"5c3d65bd3525a329e0c09c65","address":"6315 Scatterfield Rd","location":{"type":"Point","coordinates":[-85.6534282,40.059206]},"isApproved":true,"items":[],"keys":["Buffets","Breakfast & Brunch","American (Traditional)"],"lastUpdated":1547527612465,"name":"Golden Corral","phone":"(765) 400-1608","price":"$$","reviewCount":28,"reviewScore":3,"meta":{"revision":0,"created":1547531149534,"version":0},"$loki":20},{"_id":"5c3d65bd3525a329e0c0159b","address":"2403 Broadway St","location":{"type":"Point","coordinates":[-85.6525225921953,40.06106388412]},"isApproved":true,"items":[],"keys":["Sandwiches","Fast Food"],"lastUpdated":1547527612249,"name":"Subway","phone":"(765) 649-8993","price":"","reviewCount":1,"reviewScore":2,"meta":{"revision":0,"created":1547531149534,"version":0},"$loki":21},{"_id":"5c3d65bd3525a329e0c15546","address":"925 S Scatterfield","location":{"type":"Point","coordinates":[-85.6520586,40.0615432]},"isApproved":true,"items":[],"keys":["Mexican","Tex-Mex","Fast Food"],"lastUpdated":1547527612745,"name":"Taco Bell","phone":"(765) 642-2264","price":"","reviewCount":1,"reviewScore":1,"meta":{"revision":0,"created":1547531149534,"version":0},"$loki":22},{"_id":"5c3d65bd3525a329e0c0c0bf","address":"1422 Raible St","location":{"type":"Point","coordinates":[-85.65343,40.06142]},"isApproved":true,"items":[],"keys":["Fast Food","Mexican","Tex-Mex"],"lastUpdated":1547527612516,"name":"Taco Bell","phone":"(765) 649-4785","price":"","reviewCount":4,"reviewScore":1.5,"meta":{"revision":0,"created":1547531149534,"version":0},"$loki":23},{"_id":"5c3d65bd3525a329e0c04478","address":"2110 SR 9 South","location":{"type":"Point","coordinates":[-85.6536486037885,40.0621948017647]},"isApproved":true,"items":[],"keys":["Fast Food","Burgers"],"lastUpdated":1547527612322,"name":"Rally’s","phone":"(765) 643-2464","price":"","reviewCount":7,"reviewScore":1.5,"meta":{"revision":0,"created":1547531149534,"version":0},"$loki":24},{"_id":"5c3d65bd3525a329e0c102ee","address":"1309 Park Rd","location":{"type":"Point","coordinates":[-85.640841,40.068324]},"isApproved":true,"items":[],"keys":["Coffee & Tea","Breakfast & Brunch","Bakeries"],"lastUpdated":1547527612617,"name":"Heaven’s Delight Bakery & Cafe","phone":"(765) 609-8001","price":"$","reviewCount":7,"reviewScore":5,"meta":{"revision":0,"created":1547531149534,"version":0},"$loki":25},{"_id":"5c3d65bd3525a329e0c0d45f","address":"4500 Dan Patch Cir","location":{"type":"Point","coordinates":[-85.6408877,40.0681762]},"isApproved":true,"items":[],"keys":["Steakhouses"],"lastUpdated":1547527612547,"name":"Homestretch Steakhouse","phone":"(765) 609-4527","price":"$$$","reviewCount":11,"reviewScore":3.5,"meta":{"revision":0,"created":1547531149534,"version":0},"$loki":26},{"_id":"5c3d65bd3525a329e0bffca3","address":"14636 Greyhound Plaza","location":{"type":"Point","coordinates":[-85.6407572,40.0694018]},"isApproved":true,"items":[],"keys":["Steakhouses","American (Traditional)"],"lastUpdated":1547527612221,"name":"Charleston’s","phone":"(317) 846-5965","price":"$$","reviewCount":132,"reviewScore":4,"meta":{"revision":0,"created":1547531149534,"version":0},"$loki":27},{"_id":"5c3d65bd3525a329e0c0f76e","address":"2460 E County Rd 67","location":{"type":"Point","coordinates":[-85.6324665,40.0832979]},"isApproved":true,"items":[],"keys":["American (Traditional)"],"lastUpdated":1547527612599,"name":"Becky’s Happy Mule Cafe","phone":"(765) 683-0388","price":"$","reviewCount":18,"reviewScore":4.5,"meta":{"revision":0,"created":1547531149534,"version":0},"$loki":28},{"_id":"5c3d65bd3525a329e0c1461b","address":"8801 W Market Square Dr","location":{"type":"Point","coordinates":[-85.651148,40.094705]},"isApproved":true,"items":[],"keys":["Fast Food","Burgers"],"lastUpdated":1547527612715,"name":"White Castle","phone":"(765) 378-1179","price":"$","reviewCount":5,"reviewScore":3.5,"meta":{"revision":0,"created":1547531149534,"version":0},"$loki":29},{"_id":"5c3d65bd3525a329e0c19f55","address":"15 Town Ctr Plz","location":{"type":"Point","coordinates":[-85.6521974,40.0728286]},"isApproved":true,"items":[],"keys":["Barbeque"],"lastUpdated":1547527612851,"name":"Ribs Express","phone":"(765) 640-2120","price":"$","reviewCount":4,"reviewScore":2.5,"meta":{"revision":0,"created":1547531149534,"version":0},"$loki":30},{"_id":"5c3d65bd3525a329e0c0eba0","address":"2027 Broadway St","location":{"type":"Point","coordinates":[-85.652202,40.070108]},"isApproved":true,"items":[],"keys":["Italian","Pizza","Sandwiches"],"lastUpdated":1547527612581,"name":"Art’s Pizza","phone":"(765) 643-2787","price":"$$","reviewCount":21,"reviewScore":4,"meta":{"revision":0,"created":1547531149534,"version":0},"$loki":31},{"_id":"5c3d65bd3525a329e0c13bf8","address":"111 W 14th St","location":{"type":"Point","coordinates":[-85.6496733,40.0645426]},"isApproved":true,"items":[],"keys":["Burgers","Fast Food","Coffee & Tea"],"lastUpdated":1547527612705,"name":"McDonald’s","phone":"(765) 642-2273","price":"","reviewCount":4,"reviewScore":3,"meta":{"revision":0,"created":1547531149534,"version":0},"$loki":32},{"_id":"5c3d65bd3525a329e0c0cac4","address":"404 E Main St","location":{"type":"Point","coordinates":[-85.652070119977,40.0669013967931]},"isApproved":true,"items":[],"keys":["Ice Cream & Frozen Yogurt","Fast Food"],"lastUpdated":1547527612533,"name":"Chesterfield Dairy Queen","phone":"(765) 378-3144","price":"","reviewCount":3,"reviewScore":5,"meta":{"revision":0,"created":1547531149534,"version":0},"$loki":33},{"_id":"5c3d65bd3525a329e0c0639d","address":"8800 S Dale Harker Dr","location":{"type":"Point","coordinates":[-85.6525365159562,40.0676789884141]},"isApproved":true,"items":[],"keys":["Diners","Breakfast & Brunch","American (Traditional)"],"lastUpdated":1547527612370,"name":"Waffle House","phone":"(765) 378-0788","price":"$","reviewCount":3,"reviewScore":3,"meta":{"revision":0,"created":1547531149534,"version":0},"$loki":34},{"_id":"5c3d65bd3525a329e0c18340","address":"5627 S Scatterfield Rd","location":{"type":"Point","coordinates":[-85.6534976971755,40.0665498675559]},"isApproved":true,"items":[],"keys":["Fast Food","Breakfast & Brunch"],"lastUpdated":1547527612814,"name":"Hardee’s","phone":"(765) 649-9247","price":"","reviewCount":3,"reviewScore":1,"meta":{"revision":0,"created":1547531149534,"version":0},"$loki":35},{"_id":"5c3d65bd3525a329e0c0e3ee","address":"2623 Nichol Ave","location":{"type":"Point","coordinates":[-85.6520412,40.0657993]},"isApproved":true,"items":[],"keys":["Chinese"],"lastUpdated":1547527612572,"name":"China Chef","phone":"","price":"$$","reviewCount":1,"reviewScore":1,"meta":{"revision":0,"created":1547531149534,"version":0},"$loki":36},{"_id":"5c3d65bd3525a329e0c0c307","address":"2904 Columbus Ave","location":{"type":"Point","coordinates":[-85.652209,40.065484]},"isApproved":true,"items":[],"keys":["Restaurants"],"lastUpdated":1547527612518,"name":"29th Street Cafe","phone":"(765) 649-1238","price":"$","reviewCount":4,"reviewScore":3,"meta":{"revision":0,"created":1547531149534,"version":0},"$loki":37},{"_id":"5c3d65bd3525a329e0c02559","address":"1106 Main St","location":{"type":"Point","coordinates":[-85.6522175,40.0648551]},"isApproved":true,"items":[],"keys":["Sushi Bars","Chinese"],"lastUpdated":1547527612278,"name":"Yosaku","phone":"(765) 606-8070","price":"$","reviewCount":10,"reviewScore":4,"meta":{"revision":0,"created":1547531149534,"version":0},"$loki":38},{"_id":"5c3d65bd3525a329e0c0ad55","address":"2618 N Broadway Ave","location":{"type":"Point","coordinates":[-85.5393648037713,40.063116745712]},"isApproved":true,"items":[],"keys":["Mexican","Tex-Mex","Fast Food"],"lastUpdated":1547527612490,"name":"Taco Bell","phone":"(765) 683-0121","price":"","reviewCount":2,"reviewScore":3,"meta":{"revision":0,"created":1547531149534,"version":0},"$loki":39},{"_id":"5c3d65bd3525a329e0c161c2","address":"3737 Madison Ave","location":{"type":"Point","coordinates":[-85.5580301,40.1211545]},"isApproved":true,"items":[],"keys":["Pizza","Italian","Caterers"],"lastUpdated":1547527612763,"name":"Pizza King","phone":"(765) 649-9204","price":"$$","reviewCount":5,"reviewScore":2.5,"meta":{"revision":0,"created":1547531149534,"version":0},"$loki":40},{"_id":"5c3d65bd3525a329e0c1571d","address":"9008 S Walnut St","location":{"type":"Point","coordinates":[-85.5567872,40.112956]},"isApproved":true,"items":[],"keys":["Barbeque"],"lastUpdated":1547527612746,"name":"Bird’s Smokehouse BBQ","phone":"(765) 378-1900","price":"$$","reviewCount":66,"reviewScore":3.5,"meta":{"revision":0,"created":1547531149534,"version":0},"$loki":41},{"_id":"5c3d65bd3525a329e0c09f4a","address":"2040 S Scatterfield Rd","location":{"type":"Point","coordinates":[-85.5735672302944,40.1133687570681]},"isApproved":true,"items":[],"keys":["Pizza"],"lastUpdated":1547527612472,"name":"Papa John’s Pizza","phone":"(765) 643-7272","price":"","reviewCount":18,"reviewScore":1,"meta":{"revision":0,"created":1547531149534,"version":0},"$loki":42},{"_id":"5c3d65bd3525a329e0c1810b","address":"2014 Scatterfield Rd","location":{"type":"Point","coordinates":[-85.5748378,40.1135339]},"isApproved":true,"items":[],"keys":["Fast Food","Burgers","Coffee & Tea"],"lastUpdated":1547527612808,"name":"McDonald’s","phone":"(765) 649-4707","price":"","reviewCount":5,"reviewScore":3,"meta":{"revision":0,"created":1547531149534,"version":0},"$loki":43},{"_id":"5c3d65bd3525a329e0c0b2fa","address":"15150 W Commerce Dr","location":{"type":"Point","coordinates":[-85.5710594,40.1144282]},"isApproved":true,"items":[],"keys":["Pizza","Italian","Chicken Wings"],"lastUpdated":1547527612498,"name":"Pizza Hut","phone":"(765) 378-0279","price":"","reviewCount":2,"reviewScore":1,"meta":{"revision":0,"created":1547531149534,"version":0},"$loki":44},{"_id":"5c3d65bd3525a329e0c010d3","address":"5608 S Scatterfield Rd","location":{"type":"Point","coordinates":[-85.5683,40.1138]},"isApproved":true,"items":[],"keys":["Burgers","Fast Food"],"lastUpdated":1547527612239,"name":"Wendy’s","phone":"(765) 649-5901","price":"$","reviewCount":5,"reviewScore":2,"meta":{"revision":0,"created":1547531149534,"version":0},"$loki":45},{"_id":"5c3d65bd3525a329e0c05c77","address":"3710 Main St","location":{"type":"Point","coordinates":[-85.5649087,40.1144728]},"isApproved":true,"items":[],"keys":["Sandwiches","Fast Food"],"lastUpdated":1547527612357,"name":"Subway","phone":"(765) 642-4444","price":"","reviewCount":2,"reviewScore":1.5,"meta":{"revision":0,"created":1547531149534,"version":0},"$loki":46},{"_id":"5c3d65bd3525a329e0c101bd","address":"4730 S Scatterfield Rd","location":{"type":"Point","coordinates":[-85.5660746,40.1142378]},"isApproved":true,"items":[],"keys":["Sandwiches","Salad","Soup"],"lastUpdated":1547527612610,"name":"Panera Bread","phone":"(765) 622-9115","price":"$","reviewCount":12,"reviewScore":3.5,"meta":{"revision":0,"created":1547531149534,"version":0},"$loki":47},{"_id":"5c3d65bd3525a329e0c18408","address":"2910 Broadway St","location":{"type":"Point","coordinates":[-85.563582,40.1131042]},"isApproved":true,"items":[],"keys":["Restaurants"],"lastUpdated":1547527612814,"name":"Burger King","phone":"(765) 640-8468","price":"$","reviewCount":2,"reviewScore":1,"meta":{"revision":0,"created":1547531149534,"version":0},"$loki":48},{"_id":"5c3d65bd3525a329e0c12faa","address":"410 E Main St","location":{"type":"Point","coordinates":[-85.5967836,40.1133322]},"isApproved":true,"items":[],"keys":["American (Traditional)"],"lastUpdated":1547527612688,"name":"Flamingo Joe’s Diner","phone":"(765) 378-0060","price":"$","reviewCount":3,"reviewScore":1.5,"meta":{"revision":0,"created":1547531149534,"version":0},"$loki":49},{"_id":"5c3d65bd3525a329e0c0ed2b","address":"6620 S Scatterfield Rd","location":{"type":"Point","coordinates":[-85.588832,40.113853]},"isApproved":true,"items":[],"keys":["Fast Food","Chicken Wings","Chicken Shop"],"lastUpdated":1547527612582,"name":"KFC","phone":"(765) 643-8353","price":"$","reviewCount":4,"reviewScore":4.5,"meta":{"revision":0,"created":1547531149534,"version":0},"$loki":50},{"_id":"5c3d65bd3525a329e0c03217","address":"2424 Nichol Ave","location":{"type":"Point","coordinates":[-85.5897883,40.1138634]},"isApproved":true,"items":[],"keys":["Pizza"],"lastUpdated":1547527612296,"name":"Pizza King","phone":"(765) 649-7738","price":"$$","reviewCount":5,"reviewScore":4.5,"meta":{"revision":0,"created":1547531149534,"version":0},"$loki":51},{"_id":"5c3d65bd3525a329e0c0bf30","address":"1606 S Scatterfield Rd","location":{"type":"Point","coordinates":[-85.5918175,40.1132016]},"isApproved":true,"items":[],"keys":["Pizza","Italian"],"lastUpdated":1547527612516,"name":"Mancino’s Pizza & Grinders of Anderson","phone":"(765) 642-2300","price":"$","reviewCount":12,"reviewScore":3,"meta":{"revision":0,"created":1547531149534,"version":0},"$loki":52},{"_id":"5c3d65bd3525a329e0c0e951","address":"6386 S Scatterfield Rd","location":{"type":"Point","coordinates":[-85.5346881,40.0543576]},"isApproved":true,"items":[],"keys":["Fast Food","Ice Cream & Frozen Yogurt","Burgers"],"lastUpdated":1547527612580,"name":"Culver’s","phone":"(765) 640-5158","price":"$","reviewCount":14,"reviewScore":3.5,"meta":{"revision":0,"created":1547531149534,"version":0},"$loki":53},{"_id":"5c3d65bd3525a329e0c0bf33","address":"2038 S Scatterfield Rd","location":{"type":"Point","coordinates":[-85.5175695,40.0554768]},"isApproved":true,"items":[],"keys":["Breakfast & Brunch"],"lastUpdated":1547527612516,"name":"Anderson Grill","phone":"(765) 393-0658","price":"","reviewCount":9,"reviewScore":4,"meta":{"revision":0,"created":1547531149534,"version":0},"$loki":54},{"_id":"5c3d65bd3525a329e0c0a8e7","address":"1102 Fletcher Ave","location":{"type":"Point","coordinates":[-85.3863149,39.9102629]},"isApproved":true,"items":[],"keys":["Pizza","Bars"],"lastUpdated":1547527612482,"name":"Sam’s Silver Circle Bar","phone":"(317) 636-6288","price":"$","reviewCount":50,"reviewScore":4,"meta":{"revision":0,"created":1547531149534,"version":0},"$loki":55},{"_id":"5c3d65bd3525a329e0c0c902","address":"4923 N College Ave","location":{"type":"Point","coordinates":[-85.385913,39.909447]},"isApproved":true,"items":[],"keys":["Pubs","American (Traditional)","Vegan"],"lastUpdated":1547527612526,"name":"The Sinking Ship","phone":"(317) 920-7999","price":"$$","reviewCount":369,"reviewScore":4,"meta":{"revision":0,"created":1547531149534,"version":0},"$loki":56},{"_id":"5c3d65bd3525a329e0c03e95","address":"3954 E 82nd St","location":{"type":"Point","coordinates":[-85.384056,39.9095321]},"isApproved":true,"items":[],"keys":["Diners","Breakfast & Brunch","American (Traditional)"],"lastUpdated":1547527612313,"name":"Metro Diner","phone":"(317) 296-8262","price":"$$","reviewCount":353,"reviewScore":4,"meta":{"revision":0,"created":1547531149534,"version":0},"$loki":57},{"_id":"5c3d65bd3525a329e0c0df57","address":"49 W Maryland St","location":{"type":"Point","coordinates":[-85.3602114,39.9026975]},"isApproved":true,"items":[],"keys":["Korean"],"lastUpdated":1547527612564,"name":"Seoul Fresh","phone":"","price":"","reviewCount":63,"reviewScore":4.5,"meta":{"revision":0,"created":1547531149534,"version":0},"$loki":58},{"_id":"5c3d65bd3525a329e0c17c35","address":"7876 Michigan Rd","location":{"type":"Point","coordinates":[-85.154163,39.907612]},"isApproved":true,"items":[],"keys":["Mexican"],"lastUpdated":1547527612800,"name":"El Pastorcito","phone":"(317) 872-5676","price":"$","reviewCount":50,"reviewScore":4,"meta":{"revision":0,"created":1547531149534,"version":0},"$loki":59},{"_id":"5c3d65bd3525a329e0c0dbb0","address":"3661 W 86th St","location":{"type":"Point","coordinates":[-85.1532295,39.9031044]},"isApproved":true,"items":[],"keys":["Bars","American (Traditional)"],"lastUpdated":1547527612556,"name":"Illusions Bar & Grill","phone":"(317) 220-8972","price":"","reviewCount":3,"reviewScore":4,"meta":{"revision":0,"created":1547531149534,"version":0},"$loki":60},{"_id":"5c3d65bd3525a329e0c1ac63","address":"118 S Audubon Rd","location":{"type":"Point","coordinates":[-85.1606555,39.9110599]},"isApproved":true,"items":[],"keys":["Hot Dogs","Burgers","Sandwiches"],"lastUpdated":1547527612869,"name":"The Mug","phone":"(317) 820-3662","price":"$$","reviewCount":108,"reviewScore":4,"meta":{"revision":0,"created":1547531149534,"version":0},"$loki":61},{"_id":"5c3d65bd3525a329e0c10ac8","address":"550 N University Blvd","location":{"type":"Point","coordinates":[-85.0419996,39.8925711]},"isApproved":true,"items":[],"keys":["Cafes","Salad","Sandwiches"],"lastUpdated":1547527612631,"name":"Sonny’s Bistro","phone":"(317) 962-5559","price":"$","reviewCount":7,"reviewScore":3,"meta":{"revision":0,"created":1547531149534,"version":0},"$loki":62},{"_id":"5c3d65bd3525a329e0c120ba","address":"423 W South St","location":{"type":"Point","coordinates":[-84.9923989,39.8589247]},"isApproved":true,"items":[],"keys":["Bars","American (New)"],"lastUpdated":1547527612663,"name":"Tavern on South","phone":"(317) 602-3115","price":"$$","reviewCount":192,"reviewScore":3.5,"meta":{"revision":0,"created":1547531149534,"version":0},"$loki":63},{"_id":"5c3d65bd3525a329e0c0d1d7","address":"1480 N State Rd 1","location":{"type":"Point","coordinates":[-85.1448640599847,39.8483453666561]},"isApproved":true,"items":[],"keys":["Indian","Breakfast & Brunch","Pakistani"],"lastUpdated":1547527612545,"name":"Tiffin Indian & American Food","phone":"(765) 478-6300","price":"","reviewCount":7,"reviewScore":4,"meta":{"revision":0,"created":1547531149534,"version":0},"$loki":64},{"_id":"5c3d65bd3525a329e0c02908","address":"8310 Pendleton Pike","location":{"type":"Point","coordinates":[-85.144519,39.847146]},"isApproved":true,"items":[],"keys":["Chinese"],"lastUpdated":1547527612285,"name":"Rice King","phone":"(317) 542-7797","price":"$","reviewCount":11,"reviewScore":3.5,"meta":{"revision":0,"created":1547531149534,"version":0},"$loki":65},{"_id":"5c3d65bd3525a329e0c18304","address":"1736 N State St","location":{"type":"Point","coordinates":[-85.1632881,39.8125035]},"isApproved":true,"items":[],"keys":["Diners","Breakfast & Brunch","American (Traditional)"],"lastUpdated":1547527612813,"name":"Waffle House","phone":"(317) 462-6343","price":"$","reviewCount":11,"reviewScore":4.5,"meta":{"revision":0,"created":1547531149534,"version":0},"$loki":66},{"_id":"5c3d65bd3525a329e0bffca5","address":"23 E 38th St","location":{"type":"Point","coordinates":[-85.1714685,39.8118807]},"isApproved":true,"items":[],"keys":["Burgers","American (Traditional)","Cheesesteaks"],"lastUpdated":1547527612221,"name":"Big City Grill & Lemonade","phone":"(317) 283-7000","price":"$","reviewCount":84,"reviewScore":4.5,"meta":{"revision":0,"created":1547531149534,"version":0},"$loki":67},{"_id":"5c3d65bd3525a329e0c0f237","address":"3360 W Morris St","location":{"type":"Point","coordinates":[-85.1721974,39.8127134]},"isApproved":true,"items":[],"keys":["Mexican","Peruvian"],"lastUpdated":1547527612591,"name":"El Corcel Mexican Restaurant","phone":"(317) 731-7084","price":"$$","reviewCount":24,"reviewScore":4,"meta":{"revision":0,"created":1547531149534,"version":0},"$loki":68},{"_id":"5c3d65bd3525a329e0c15df3","address":"135 W Main St","location":{"type":"Point","coordinates":[-85.1709826,39.8128235]},"isApproved":true,"items":[],"keys":["Steakhouses","Seafood","Soul Food"],"lastUpdated":1547527612755,"name":"Kopper Kettle Inn Restaurant","phone":"(765) 763-6767","price":"$$","reviewCount":38,"reviewScore":4,"meta":{"revision":0,"created":1547531149534,"version":0},"$loki":69},{"_id":"5c3d65bd3525a329e0c19642","address":"5537 E Washington St","location":{"type":"Point","coordinates":[-85.1957596,39.8127269]},"isApproved":true,"items":[],"keys":["Mexican"],"lastUpdated":1547527612841,"name":"Ixca","phone":"(317) 986-4154","price":"$$","reviewCount":95,"reviewScore":4.5,"meta":{"revision":0,"created":1547531149534,"version":0},"$loki":70},{"_id":"5c3d65bd3525a329e0c19f8e","address":"832 E Westfield Blvd","location":{"type":"Point","coordinates":[-85.352313,39.806586]},"isApproved":true,"items":[],"keys":["Comfort Food","Beer Bar","Sandwiches"],"lastUpdated":1547527612851,"name":"Flatwater Restaurant","phone":"(317) 257-5466","price":"$$","reviewCount":253,"reviewScore":4,"meta":{"revision":0,"created":1547531149534,"version":0},"$loki":71},{"_id":"5c3d65bd3525a329e0c05770","address":"475 E Main St","location":{"type":"Point","coordinates":[-85.4129475,39.8518844]},"isApproved":true,"items":[],"keys":["Breakfast & Brunch","Cafes"],"lastUpdated":1547527612349,"name":"Lumpys Cafe","phone":"(765) 530-8167","price":"","reviewCount":4,"reviewScore":4.5,"meta":{"revision":0,"created":1547531149534,"version":0},"$loki":72},{"_id":"5c3d65bd3525a329e0c07887","address":"20 N Washington St","location":{"type":"Point","coordinates":[-85.4202266,39.8484662]},"isApproved":true,"items":[],"keys":["Bakeries","Cafes"],"lastUpdated":1547527612408,"name":"The Burch Tree Cafe and Bakery","phone":"(765) 571-5255","price":"","reviewCount":2,"reviewScore":5,"meta":{"revision":0,"created":1547531149534,"version":0},"$loki":73},{"_id":"5c3d65bd3525a329e0c12ac3","address":"19 S Bittner Rd","location":{"type":"Point","coordinates":[-85.4193338,39.8465764]},"isApproved":true,"items":[],"keys":["American (Traditional)","Pubs","Karaoke"],"lastUpdated":1547527612680,"name":"‘Round The Corner Pub","phone":"(317) 861-1900","price":"$$","reviewCount":22,"reviewScore":4,"meta":{"revision":0,"created":1547531149534,"version":0},"$loki":74},{"_id":"5c3d65bd3525a329e0c14d4c","address":"3317 E 86th St","location":{"type":"Point","coordinates":[-85.5168452,39.7968968]},"isApproved":true,"items":[],"keys":["Thai"],"lastUpdated":1547527612729,"name":"Thai Station Restaurant","phone":"(317) 929-1983","price":"","reviewCount":4,"reviewScore":5,"meta":{"revision":0,"created":1547531149534,"version":0},"$loki":75},{"_id":"5c3d65bd3525a329e0c0f571","address":"9229 W County Rd 650 S","location":{"type":"Point","coordinates":[-85.558094,39.8423243]},"isApproved":true,"items":[],"keys":["Burgers"],"lastUpdated":1547527612593,"name":"Burger King","phone":"(765) 785-2700","price":"$","reviewCount":4,"reviewScore":1.5,"meta":{"revision":0,"created":1547531149534,"version":0},"$loki":76},{"_id":"5c3d65bd3525a329e0c167cd","address":"101 W Main St","location":{"type":"Point","coordinates":[-85.5588177,39.8427933]},"isApproved":true,"items":[],"keys":["Gastropubs","Bars"],"lastUpdated":1547527612772,"name":"Griggsby’s Station","phone":"(317) 477-7217","price":"$$","reviewCount":64,"reviewScore":4,"meta":{"revision":0,"created":1547531149534,"version":0},"$loki":77},{"_id":"5c3d65bd3525a329e0c18254","address":"830 Broad Ripple Ave","location":{"type":"Point","coordinates":[-85.557612,39.843607]},"isApproved":true,"items":[],"keys":["Indian","Desserts","Soup"],"lastUpdated":1547527612809,"name":"India Garden Restaurant","phone":"(317) 253-6060","price":"$$","reviewCount":98,"reviewScore":4,"meta":{"revision":0,"created":1547531149534,"version":0},"$loki":78},{"_id":"5c3d65bd3525a329e0c04af8","address":"1649 W Main St","location":{"type":"Point","coordinates":[-85.5574600702631,39.8435267511336]},"isApproved":true,"items":[],"keys":["Cafes","Car Wash","Oil Change Stations"],"lastUpdated":1547527612331,"name":"Dave’s Express Care","phone":"(317) 477-9274","price":"","reviewCount":1,"reviewScore":3,"meta":{"revision":0,"created":1547531149534,"version":0},"$loki":79},{"_id":"5c3d65bd3525a329e0c16223","address":"10625 Pendleton Pike","location":{"type":"Point","coordinates":[-85.5249125,39.7950597]},"isApproved":true,"items":[],"keys":["Vietnamese","Noodles"],"lastUpdated":1547527612763,"name":"Sandra Rice & Noodle","phone":"(317) 823-8323","price":"$","reviewCount":139,"reviewScore":4,"meta":{"revision":0,"created":1547531149534,"version":0},"$loki":80},{"_id":"5c3d65bd3525a329e0c10bb6","address":"100 W N St","location":{"type":"Point","coordinates":[-85.5245994694484,39.7952762734001]},"isApproved":true,"items":[],"keys":["American (New)"],"lastUpdated":1547527612632,"name":"Carnegie’s","phone":"(317) 462-8480","price":"$$$","reviewCount":46,"reviewScore":4.5,"meta":{"revision":0,"created":1547531149534,"version":0},"$loki":81},{"_id":"5c3d65bd3525a329e0bff4b7","address":"7625 Pendleton Pike","location":{"type":"Point","coordinates":[-85.5218145,39.796185]},"isApproved":true,"items":[],"keys":["Bakeries","German","Grocery"],"lastUpdated":1547527612216,"name":"Heidelberg Haus","phone":"(317) 547-1230","price":"$","reviewCount":152,"reviewScore":4.5,"meta":{"revision":0,"created":1547531149534,"version":0},"$loki":82},{"_id":"5c3d65bd3525a329e0c0767e","address":"812 S State St","location":{"type":"Point","coordinates":[-85.5254507,39.796118]},"isApproved":true,"items":[],"keys":["Barbeque"],"lastUpdated":1547527612402,"name":"Florida Cracker BBQ","phone":"(317) 462-7427","price":"$$","reviewCount":70,"reviewScore":4,"meta":{"revision":0,"created":1547531149534,"version":0},"$loki":83},{"_id":"5c3d65bd3525a329e0c1a727","address":"4573 N. College Ave","location":{"type":"Point","coordinates":[-85.5268838,39.7951355]},"isApproved":true,"items":[],"keys":["American (New)","Burgers"],"lastUpdated":1547527612866,"name":"Next Door American Eatery","phone":"(317) 643-3480","price":"$$","reviewCount":282,"reviewScore":4,"meta":{"revision":0,"created":1547531149534,"version":0},"$loki":84},{"_id":"5c3d65bd3525a329e0c19b21","address":"14 N State St","location":{"type":"Point","coordinates":[-85.527223,39.795537]},"isApproved":true,"items":[],"keys":["Breakfast & Brunch","Coffee & Tea","Juice Bars & Smoothies"],"lastUpdated":1547527612849,"name":"The Greenfield Grind","phone":"(317) 649-4500","price":"","reviewCount":1,"reviewScore":4,"meta":{"revision":0,"created":1547531149534,"version":0},"$loki":85},{"_id":"5c3d65bd3525a329e0c19f0c","address":"4361 N Keystone Ave","location":{"type":"Point","coordinates":[-85.5278695,39.7956352]},"isApproved":true,"items":[],"keys":["Chicken Wings","Food Trucks"],"lastUpdated":1547527612851,"name":"R&R Extreme Wings","phone":"(317) 377-4490","price":"$","reviewCount":46,"reviewScore":4,"meta":{"revision":0,"created":1547531149534,"version":0},"$loki":86}],"idIndex":[1,2,3,4,5,6,7,8,9,10,11,12,13,14,15,16,17,18,19,20,21,22,23,24,25,26,27,28,29,30,31,32,33,34,35,36,37,38,39,40,41,42,43,44,45,46,47,48,49,50,51,52,53,54,55,56,57,58,59,60,61,62,63,64,65,66,67,68,69,70,71,72,73,74,75,76,77,78,79,80,81,82,83,84,85,86],"binaryIndices":{},"constraints":null,"uniqueNames":[],"transforms":{},"objType":"restaurants","dirty":true,"cachedIndex":null,"cachedBinaryIndex":null,"cachedData":null,"adaptiveBinaryIndices":true,"transactional":false,"cloneObjects":false,"cloneMethod":"parse-stringify","asyncListeners":false,"disableMeta":false,"disableChangesApi":true,"disableDeltaChangesApi":true,"autoupdate":false,"serializableIndices":true,"ttl":null,"maxId":86,"DynamicViews":[],"events":{"insert":[],"update":[],"pre-insert":[],"pre-update":[],"close":[],"flushbuffer":[],"error":[],"delete":[null],"warning":[null]},"changes":[]}],"databaseVersion":1.5,"engineVersion":1.5,"autosave":false,"autosaveInterval":5000,"autosaveHandle":null,"throttledSaves":true,"options":{"serializationMethod":"normal","destructureDelimiter":"$<\n"},"persistenceMethod":"fs","persistenceAdapter":null,"verbose":false,"events":{"init":[null],"loaded":[],"flushChanges":[],"close":[],"changes":[],"warning":[]},"ENV":"NODEJS"}