{"filename":"-85.25-40.25","collections":[{"name":"restaurants","data":[{"_id":"5c3d65bd3525a329e0c0ad55","address":"2618 N Broadway Ave","location":{"type":"Point","coordinates":[-85.5393648037713,40.063116745712]},"isApproved":true,"items":[],"keys":["Mexican","Tex-Mex","Fast Food"],"lastUpdated":1547527612490,"name":"Taco Bell","phone":"(765) 683-0121","price":"","reviewCount":2,"reviewScore":3,"meta":{"revision":0,"created":1547531149559,"version":0},"$loki":1},{"_id":"5c3d65bd3525a329e0c161c2","address":"3737 Madison Ave","location":{"type":"Point","coordinates":[-85.5580301,40.1211545]},"isApproved":true,"items":[],"keys":["Pizza","Italian","Caterers"],"lastUpdated":1547527612763,"name":"Pizza King","phone":"(765) 649-9204","price":"$$","reviewCount":5,"reviewScore":2.5,"meta":{"revision":0,"created":1547531149559,"version":0},"$loki":2},{"_id":"5c3d65bd3525a329e0c1571d","address":"9008 S Walnut St","location":{"type":"Point","coordinates":[-85.5567872,40.112956]},"isApproved":true,"items":[],"keys":["Barbeque"],"lastUpdated":1547527612746,"name":"Bird’s Smokehouse BBQ","phone":"(765) 378-1900","price":"$$","reviewCount":66,"reviewScore":3.5,"meta":{"revision":0,"created":1547531149559,"version":0},"$loki":3},{"_id":"5c3d65bd3525a329e0c09f4a","address":"2040 S Scatterfield Rd","location":{"type":"Point","coordinates":[-85.5735672302944,40.1133687570681]},"isApproved":true,"items":[],"keys":["Pizza"],"lastUpdated":1547527612472,"name":"Papa John’s Pizza","phone":"(765) 643-7272","price":"","reviewCount":18,"reviewScore":1,"meta":{"revision":0,"created":1547531149559,"version":0},"$loki":4},{"_id":"5c3d65bd3525a329e0c1810b","address":"2014 Scatterfield Rd","location":{"type":"Point","coordinates":[-85.5748378,40.1135339]},"isApproved":true,"items":[],"keys":["Fast Food","Burgers","Coffee & Tea"],"lastUpdated":1547527612808,"name":"McDonald’s","phone":"(765) 649-4707","price":"","reviewCount":5,"reviewScore":3,"meta":{"revision":0,"created":1547531149559,"version":0},"$loki":5},{"_id":"5c3d65bd3525a329e0c0b2fa","address":"15150 W Commerce Dr","location":{"type":"Point","coordinates":[-85.5710594,40.1144282]},"isApproved":true,"items":[],"keys":["Pizza","Italian","Chicken Wings"],"lastUpdated":1547527612498,"name":"Pizza Hut","phone":"(765) 378-0279","price":"","reviewCount":2,"reviewScore":1,"meta":{"revision":0,"created":1547531149559,"version":0},"$loki":6},{"_id":"5c3d65bd3525a329e0c010d3","address":"5608 S Scatterfield Rd","location":{"type":"Point","coordinates":[-85.5683,40.1138]},"isApproved":true,"items":[],"keys":["Burgers","Fast Food"],"lastUpdated":1547527612239,"name":"Wendy’s","phone":"(765) 649-5901","price":"$","reviewCount":5,"reviewScore":2,"meta":{"revision":0,"created":1547531149559,"version":0},"$loki":7},{"_id":"5c3d65bd3525a329e0c05c77","address":"3710 Main St","location":{"type":"Point","coordinates":[-85.5649087,40.1144728]},"isApproved":true,"items":[],"keys":["Sandwiches","Fast Food"],"lastUpdated":1547527612357,"name":"Subway","phone":"(765) 642-4444","price":"","reviewCount":2,"reviewScore":1.5,"meta":{"revision":0,"created":1547531149559,"version":0},"$loki":8},{"_id":"5c3d65bd3525a329e0c101bd","address":"4730 S Scatterfield Rd","location":{"type":"Point","coordinates":[-85.5660746,40.1142378]},"isApproved":true,"items":[],"keys":["Sandwiches","Salad","Soup"],"lastUpdated":1547527612610,"name":"Panera Bread","phone":"(765) 622-9115","price":"$","reviewCount":12,"reviewScore":3.5,"meta":{"revision":0,"created":1547531149559,"version":0},"$loki":9},{"_id":"5c3d65bd3525a329e0c18408","address":"2910 Broadway St","location":{"type":"Point","coordinates":[-85.563582,40.1131042]},"isApproved":true,"items":[],"keys":["Restaurants"],"lastUpdated":1547527612814,"name":"Burger King","phone":"(765) 640-8468","price":"$","reviewCount":2,"reviewScore":1,"meta":{"revision":0,"created":1547531149559,"version":0},"$loki":10},{"_id":"5c3d65bd3525a329e0c12faa","address":"410 E Main St","location":{"type":"Point","coordinates":[-85.5967836,40.1133322]},"isApproved":true,"items":[],"keys":["American (Traditional)"],"lastUpdated":1547527612688,"name":"Flamingo Joe’s Diner","phone":"(765) 378-0060","price":"$","reviewCount":3,"reviewScore":1.5,"meta":{"revision":0,"created":1547531149559,"version":0},"$loki":11},{"_id":"5c3d65bd3525a329e0c0ed2b","address":"6620 S Scatterfield Rd","location":{"type":"Point","coordinates":[-85.588832,40.113853]},"isApproved":true,"items":[],"keys":["Fast Food","Chicken Wings","Chicken Shop"],"lastUpdated":1547527612582,"name":"KFC","phone":"(765) 643-8353","price":"$","reviewCount":4,"reviewScore":4.5,"meta":{"revision":0,"created":1547531149559,"version":0},"$loki":12},{"_id":"5c3d65bd3525a329e0c03217","address":"2424 Nichol Ave","location":{"type":"Point","coordinates":[-85.5897883,40.1138634]},"isApproved":true,"items":[],"keys":["Pizza"],"lastUpdated":1547527612296,"name":"Pizza King","phone":"(765) 649-7738","price":"$$","reviewCount":5,"reviewScore":4.5,"meta":{"revision":0,"created":1547531149559,"version":0},"$loki":13},{"_id":"5c3d65bd3525a329e0c0bf30","address":"1606 S Scatterfield Rd","location":{"type":"Point","coordinates":[-85.5918175,40.1132016]},"isApproved":true,"items":[],"keys":["Pizza","Italian"],"lastUpdated":1547527612516,"name":"Mancino’s Pizza & Grinders of Anderson","phone":"(765) 642-2300","price":"$","reviewCount":12,"reviewScore":3,"meta":{"revision":0,"created":1547531149559,"version":0},"$loki":14},{"_id":"5c3d65bd3525a329e0c0e951","address":"6386 S Scatterfield Rd","location":{"type":"Point","coordinates":[-85.5346881,40.0543576]},"isApproved":true,"items":[],"keys":["Fast Food","Ice Cream & Frozen Yogurt","Burgers"],"lastUpdated":1547527612580,"name":"Culver’s","phone":"(765) 640-5158","price":"$","reviewCount":14,"reviewScore":3.5,"meta":{"revision":0,"created":1547531149559,"version":0},"$loki":15},{"_id":"5c3d65bd3525a329e0c0bf33","address":"2038 S Scatterfield Rd","location":{"type":"Point","coordinates":[-85.5175695,40.0554768]},"isApproved":true,"items":[],"keys":["Breakfast & Brunch"],"lastUpdated":1547527612516,"name":"Anderson Grill","phone":"(765) 393-0658","price":"","reviewCount":9,"reviewScore":4,"meta":{"revision":0,"created":1547531149559,"version":0},"$loki":16}],"idIndex":[1,2,3,4,5,6,7,8,9,10,11,12,13,14,15,16],"binaryIndices":{},"constraints":null,"uniqueNames":[],"transforms":{},"objType":"restaurants","dirty":true,"cachedIndex":null,"cachedBinaryIndex":null,"cachedData":null,"adaptiveBinaryIndices":true,"transactional":false,"cloneObjects":false,"cloneMethod":"parse-stringify","asyncListeners":false,"disableMeta":false,"disableChangesApi":true,"disableDeltaChangesApi":true,"autoupdate":false,"serializableIndices":true,"ttl":null,"maxId":16,"DynamicViews":[],"events":{"insert":[],"update":[],"pre-insert":[],"pre-update":[],"close":[],"flushbuffer":[],"error":[],"delete":[null],"warning":[null]},"changes":[]}],"databaseVersion":1.5,"engineVersion":1.5,"autosave":false,"autosaveInterval":5000,"autosaveHandle":null,"throttledSaves":true,"options":{"serializationMethod":"normal","destructureDelimiter":"$<\n"},"persistenceMethod":"fs","persistenceAdapter":null,"verbose":false,"events":{"init":[null],"loaded":[],"flushChanges":[],"close":[],"changes":[],"warning":[]},"ENV":"NODEJS"}