{"filename":"-86-30.25","collections":[{"name":"restaurants","data":[{"_id":"5c3d65bd3525a329e0c0f85d","address":"8955 US Hwy 98","location":{"type":"Point","coordinates":[-86.3103382,30.3780198]},"isApproved":true,"items":[],"keys":["Bars","Seafood","Desserts"],"lastUpdated":1547527612600,"name":"Ocean Club Restaurant","phone":"(850) 267-3666","price":"$$$","reviewCount":56,"reviewScore":3.5,"meta":{"revision":0,"created":1547531148604,"version":0},"$loki":1},{"_id":"5c3d65bd3525a329e0c0cbba","address":"10859 US Hwy 98 W","location":{"type":"Point","coordinates":[-86.310245,30.378023]},"isApproved":true,"items":[],"keys":["Fast Food","Sandwiches"],"lastUpdated":1547527612533,"name":"Subway","phone":"(850) 650-7494","price":"","reviewCount":4,"reviewScore":3.5,"meta":{"revision":0,"created":1547531148604,"version":0},"$loki":2},{"_id":"5c3d65bd3525a329e0c08cdc","address":"755 Grand Blvd","location":{"type":"Point","coordinates":[-86.310356,30.37937]},"isApproved":true,"items":[],"keys":["Breakfast & Brunch","Cafes","American (Traditional)"],"lastUpdated":1547527612436,"name":"Another Broken Egg Cafe","phone":"(850) 424-3416","price":"$$","reviewCount":105,"reviewScore":4,"meta":{"revision":0,"created":1547531148604,"version":0},"$loki":3},{"_id":"5c3d65bd3525a329e0c19887","address":"36474 Emerald Coast Pkwy","location":{"type":"Point","coordinates":[-86.3102832752688,30.3792995622568]},"isApproved":true,"items":[],"keys":["American (New)"],"lastUpdated":1547527612842,"name":"Another Broken Egg of America","phone":"(850) 424-5157","price":"$$","reviewCount":11,"reviewScore":4,"meta":{"revision":0,"created":1547531148604,"version":0},"$loki":4},{"_id":"5c3d65bd3525a329e0c023f1","address":"9 S 3rd St","location":{"type":"Point","coordinates":[-86.3117492787125,30.3793789016675]},"isApproved":true,"items":[],"keys":["Filipino"],"lastUpdated":1547527612277,"name":"Susan’s Catering & Eatery","phone":"(850) 453-3357","price":"$","reviewCount":28,"reviewScore":4,"meta":{"revision":0,"created":1547531148604,"version":0},"$loki":5},{"_id":"5c3d65bd3525a329e0c110f0","address":"3190 Gulf Breeze Pkwy","location":{"type":"Point","coordinates":[-86.3121725,30.3794964]},"isApproved":true,"items":[],"keys":["Pizza"],"lastUpdated":1547527612641,"name":"Papa John’s Pizza","phone":"(850) 916-7200","price":"","reviewCount":12,"reviewScore":2.5,"meta":{"revision":0,"created":1547531148604,"version":0},"$loki":6},{"_id":"5c3d65bd3525a329e0c0bd4b","address":"4304 Legendary Dr","location":{"type":"Point","coordinates":[-86.312314,30.378914]},"isApproved":true,"items":[],"keys":["Mexican","Tex-Mex"],"lastUpdated":1547527612515,"name":"El Jalisco","phone":"(850) 460-8355","price":"$$","reviewCount":110,"reviewScore":3,"meta":{"revision":0,"created":1547531148604,"version":0},"$loki":7},{"_id":"5c3d65bd3525a329e0c02d0a","address":"640 Grand Blvd","location":{"type":"Point","coordinates":[-86.3123273849487,30.378264541761]},"isApproved":true,"items":[],"keys":["Chinese","Asian Fusion","Gluten-Free"],"lastUpdated":1547527612293,"name":"P.F. Chang’s","phone":"(850) 269-1806","price":"$$","reviewCount":116,"reviewScore":3,"meta":{"revision":0,"created":1547531148604,"version":0},"$loki":8},{"_id":"5c3d65bd3525a329e0c148b2","address":"585 Grand Blvd","location":{"type":"Point","coordinates":[-86.3132306655264,30.3789491208651]},"isApproved":true,"items":[],"keys":["Mexican","Wine Bars"],"lastUpdated":1547527612727,"name":"Cantina Laredo","phone":"(850) 654-5649","price":"$$","reviewCount":234,"reviewScore":4,"meta":{"revision":0,"created":1547531148604,"version":0},"$loki":9},{"_id":"5c3d65bd3525a329e0c10c48","address":"3755-C Gulf Breeze Pkwy","location":{"type":"Point","coordinates":[-86.3129934,30.3784991]},"isApproved":true,"items":[],"keys":["Sandwiches","Fast Food","Delis"],"lastUpdated":1547527612633,"name":"Firehouse Subs Tiger Point #36","phone":"(850) 916-1134","price":"$","reviewCount":8,"reviewScore":2.5,"meta":{"revision":0,"created":1547531148604,"version":0},"$loki":10},{"_id":"5c3d65bd3525a329e0c0139a","address":"500 Grand Blvd","location":{"type":"Point","coordinates":[-86.3146182,30.3788596]},"isApproved":true,"items":[],"keys":["American (New)","Seafood","Wine Bars"],"lastUpdated":1547527612248,"name":"Vin’tij Wine Boutique & Bistro","phone":"(850) 650-9820","price":"$$$","reviewCount":151,"reviewScore":4.5,"meta":{"revision":0,"created":1547531148604,"version":0},"$loki":11},{"_id":"5c3d65bd3525a329e0c13a98","address":"435 Grand Blvd","location":{"type":"Point","coordinates":[-86.3156825,30.3797814]},"isApproved":true,"items":[],"keys":["Italian","Seafood","American (New)"],"lastUpdated":1547527612698,"name":"Emeril’s Coastal Italian","phone":"(850) 608-7040","price":"$$$","reviewCount":201,"reviewScore":3.5,"meta":{"revision":0,"created":1547531148604,"version":0},"$loki":12},{"_id":"5c3d65bd3525a329e0c10ebc","address":"36088 Emerald Coast Pkwy","location":{"type":"Point","coordinates":[-86.3270597,30.3701251]},"isApproved":true,"items":[],"keys":["Pizza"],"lastUpdated":1547527612634,"name":"Papa John’s Pizza","phone":"(850) 650-3636","price":"$$","reviewCount":11,"reviewScore":3.5,"meta":{"revision":0,"created":1547531148604,"version":0},"$loki":13},{"_id":"5c3d65bd3525a329e0c15081","address":"4000 S Sandestin Blvd","location":{"type":"Point","coordinates":[-86.32068,30.379568]},"isApproved":true,"items":[],"keys":["Sushi Bars"],"lastUpdated":1547527612736,"name":"Hadashi","phone":"(850) 267-9500","price":"","reviewCount":6,"reviewScore":3,"meta":{"revision":0,"created":1547531148604,"version":0},"$loki":14},{"_id":"5c3d65bd3525a329e0c19cbc","address":"655 Grand Blvd, Ste D 101","location":{"type":"Point","coordinates":[-86.3268043,30.3781488]},"isApproved":true,"items":[],"keys":["Wine Bars","American (New)"],"lastUpdated":1547527612850,"name":"The Wine Bar - Grand Blvd","phone":"(850) 622-0804","price":"$$","reviewCount":33,"reviewScore":4,"meta":{"revision":0,"created":1547531148604,"version":0},"$loki":15},{"_id":"5c3d65bd3525a329e0c13e11","address":"36112 Emerald Coast Pkwy","location":{"type":"Point","coordinates":[-86.332315,30.3775268]},"isApproved":true,"items":[],"keys":["Mexican"],"lastUpdated":1547527612706,"name":"Pepito’s Mexican Restaurant","phone":"(850) 269-7788","price":"$$","reviewCount":120,"reviewScore":3,"meta":{"revision":0,"created":1547531148604,"version":0},"$loki":16},{"_id":"5c3d65bd3525a329e0c19603","address":"9375 US Highway 98 W","location":{"type":"Point","coordinates":[-86.332315,30.3775268]},"isApproved":true,"items":[],"keys":["Bakeries","Delis","Pizza"],"lastUpdated":1547527612841,"name":"Chan’s Market Cafe Deli & Bakery","phone":"(850) 837-1334","price":"$$$","reviewCount":2,"reviewScore":5,"meta":{"revision":0,"created":1547531148604,"version":0},"$loki":17},{"_id":"5c3d65bd3525a329e0c026e8","address":"34940 Emerald Coast Pkwy","location":{"type":"Point","coordinates":[-86.3325216,30.3776667]},"isApproved":true,"items":[],"keys":["Sports Bars","Seafood","Irish"],"lastUpdated":1547527612284,"name":"O’Quigley’s Seafood Steamer & Oyster Sports Bar","phone":"(850) 635-0652","price":"$$","reviewCount":248,"reviewScore":3.5,"meta":{"revision":0,"created":1547531148604,"version":0},"$loki":18},{"_id":"5c3d65bd3525a329e0c1717b","address":"15000 Emerald Coast Pkwy","location":{"type":"Point","coordinates":[-86.3325216,30.3776667]},"isApproved":true,"items":[],"keys":["Steakhouses"],"lastUpdated":1547527612782,"name":"Ruth’s Chris Steak House","phone":"(850) 837-7884","price":"$$$","reviewCount":96,"reviewScore":4,"meta":{"revision":0,"created":1547531148604,"version":0},"$loki":19},{"_id":"5c3d65bd3525a329e0c03b13","address":"9300 US Hwy 98 W","location":{"type":"Point","coordinates":[-86.330275,30.378286]},"isApproved":true,"items":[],"keys":["Venues & Event Spaces","Seafood","Steakhouses"],"lastUpdated":1547527612312,"name":"Solaris - SunQuest Cruises","phone":"(850) 650-2519","price":"","reviewCount":26,"reviewScore":3,"meta":{"revision":0,"created":1547531148604,"version":0},"$loki":20},{"_id":"5c3d65bd3525a329e0c1571a","address":"4045 Beachside 1","location":{"type":"Point","coordinates":[-86.331415,30.370476]},"isApproved":true,"items":[],"keys":["Steakhouses"],"lastUpdated":1547527612746,"name":"Ruth Chris Steakhouse","phone":"","price":"$$$","reviewCount":9,"reviewScore":4,"meta":{"revision":0,"created":1547531148604,"version":0},"$loki":21},{"_id":"5c3d65bd3525a329e0c06718","address":"2931 Scenic Hwy 98","location":{"type":"Point","coordinates":[-86.3284306973219,30.3711589425802]},"isApproved":true,"items":[],"keys":["Cafes"],"lastUpdated":1547527612378,"name":"Camille’s Cafe","phone":"(850) 337-8860","price":"","reviewCount":15,"reviewScore":4,"meta":{"revision":0,"created":1547531148604,"version":0},"$loki":22},{"_id":"5c3d65bd3525a329e0c07c8c","address":"4000 Sandestin Blvd S","location":{"type":"Point","coordinates":[-86.327689,30.369988]},"isApproved":true,"items":[],"keys":["Buffets"],"lastUpdated":1547527612410,"name":"Sandcastles","phone":"(850) 267-9500","price":"$$","reviewCount":15,"reviewScore":3,"meta":{"revision":0,"created":1547531148604,"version":0},"$loki":23},{"_id":"5c3d65bd3525a329e0c0eca2","address":"4009 S Sandestin Blvd","location":{"type":"Point","coordinates":[-86.3291295976227,30.3694616549552]},"isApproved":true,"items":[],"keys":["American (Traditional)"],"lastUpdated":1547527612582,"name":"The Beach House","phone":"(850) 608-6300","price":"$$","reviewCount":103,"reviewScore":3,"meta":{"revision":0,"created":1547531148604,"version":0},"$loki":24},{"_id":"5c3d65bd3525a329e0c105e8","address":"12830 US Hwy 98 W","location":{"type":"Point","coordinates":[-86.3279461785787,30.3696537879028]},"isApproved":true,"items":[],"keys":["Fast Food","Burgers","Coffee & Tea"],"lastUpdated":1547527612618,"name":"McDonald’s","phone":"(850) 269-2081","price":"$","reviewCount":18,"reviewScore":2,"meta":{"revision":0,"created":1547531148604,"version":0},"$loki":25},{"_id":"5c3d65bd3525a329e0c10828","address":"137 Fishermans Cv","location":{"type":"Point","coordinates":[-86.3396117577809,30.3771777215384]},"isApproved":true,"items":[],"keys":["Seafood","Bars","American (Traditional)"],"lastUpdated":1547527612619,"name":"Hammerheads Bar & Grille","phone":"(850) 351-1997","price":"$$","reviewCount":167,"reviewScore":2.5,"meta":{"revision":0,"created":1547531148604,"version":0},"$loki":26},{"_id":"5c3d65bd3525a329e0c1acac","address":"158 Sandestin Blvd N","location":{"type":"Point","coordinates":[-86.3374524385848,30.3852348362173]},"isApproved":true,"items":[],"keys":["Breakfast & Brunch","Cafes","Tiki Bars"],"lastUpdated":1547527612874,"name":"Sunset Bay Cafe","phone":"(850) 267-7108","price":"$$","reviewCount":175,"reviewScore":4.5,"meta":{"revision":0,"created":1547531148604,"version":0},"$loki":27},{"_id":"5c3d65bd3525a329e0c072c5","address":"14091-C Emerald Coast Pkwy","location":{"type":"Point","coordinates":[-86.324919,30.390319]},"isApproved":true,"items":[],"keys":["Fast Food","Cafes"],"lastUpdated":1547527612399,"name":"Wendys Kitchen","phone":"(850) 837-8837","price":"$","reviewCount":2,"reviewScore":5,"meta":{"revision":0,"created":1547531148604,"version":0},"$loki":28},{"_id":"5c3d65bd3525a329e0c0e9de","address":"9100 Baytowne Wharf Blvd","location":{"type":"Point","coordinates":[-86.324919,30.390319]},"isApproved":true,"items":[],"keys":["Breakfast & Brunch","Cafes","American (Traditional)"],"lastUpdated":1547527612581,"name":"Another Broken Egg Cafe","phone":"(850) 622-2050","price":"$$","reviewCount":215,"reviewScore":4,"meta":{"revision":0,"created":1547531148604,"version":0},"$loki":29},{"_id":"5c3d65bd3525a329e0bff4cb","address":"136 Fisherman&#39;s Cv","location":{"type":"Point","coordinates":[-86.325118,30.390151]},"isApproved":true,"items":[],"keys":["Dance Clubs","American (New)"],"lastUpdated":1547527612216,"name":"John Wehner’s Village Door","phone":"(850) 502-4590","price":"$$","reviewCount":76,"reviewScore":3,"meta":{"revision":0,"created":1547531148604,"version":0},"$loki":30},{"_id":"5c3d65bd3525a329e0c0bf5a","address":"1050 Highway 98","location":{"type":"Point","coordinates":[-86.3260235,30.389842]},"isApproved":true,"items":[],"keys":["Food Stands"],"lastUpdated":1547527612516,"name":"The Sand Bar at Silver Shells","phone":"","price":"","reviewCount":1,"reviewScore":5,"meta":{"revision":0,"created":1547531148604,"version":0},"$loki":31},{"_id":"5c3d65bd3525a329e0c13db9","address":"9848 US Hwy 98 W","location":{"type":"Point","coordinates":[-86.326246,30.389751]},"isApproved":true,"items":[],"keys":["Barbeque","Salad","Sandwiches"],"lastUpdated":1547527612706,"name":"Lillie’s Q","phone":"(850) 654-3911","price":"$$","reviewCount":45,"reviewScore":4,"meta":{"revision":0,"created":1547531148604,"version":0},"$loki":32},{"_id":"5c3d65bd3525a329e0c14c0e","address":"130 Fisherman&#39;s Cv","location":{"type":"Point","coordinates":[-86.325011,30.38998]},"isApproved":true,"items":[],"keys":["Bars","Seafood","American (Traditional)"],"lastUpdated":1547527612729,"name":"Rum Runners","phone":"(850) 351-1817","price":"$$","reviewCount":94,"reviewScore":2.5,"meta":{"revision":0,"created":1547531148604,"version":0},"$loki":33},{"_id":"5c3d65bd3525a329e0c161cb","address":"109 Cannery Ln","location":{"type":"Point","coordinates":[-86.325555,30.38934]},"isApproved":true,"items":[],"keys":["Sandwiches"],"lastUpdated":1547527612763,"name":"Baytowne Provisions","phone":"(850) 460-7866","price":"$$","reviewCount":52,"reviewScore":4.5,"meta":{"revision":0,"created":1547531148604,"version":0},"$loki":34},{"_id":"5c3d65bd3525a329e0c0e5d9","address":"110 Cannery Ln","location":{"type":"Point","coordinates":[-86.3250645,30.3892636]},"isApproved":true,"items":[],"keys":["Restaurants"],"lastUpdated":1547527612573,"name":"New Orleans Creole Cookery Restaurant","phone":"(850) 351-1885","price":"$$","reviewCount":4,"reviewScore":3.5,"meta":{"revision":0,"created":1547531148604,"version":0},"$loki":35},{"_id":"5c3d65bd3525a329e0c13b56","address":"110 Cannery Ln","location":{"type":"Point","coordinates":[-86.3250645,30.3892636]},"isApproved":true,"items":[],"keys":["Italian","Pizza","Sports Bars"],"lastUpdated":1547527612704,"name":"Robertos Pizzeria Sports Bar & Grill","phone":"(850) 351-1998","price":"$$","reviewCount":134,"reviewScore":3,"meta":{"revision":0,"created":1547531148604,"version":0},"$loki":36},{"_id":"5c3d65bd3525a329e0c1350c","address":"1253 Airport Rd","location":{"type":"Point","coordinates":[-86.3243854,30.3886886]},"isApproved":true,"items":[],"keys":["Fast Food","Sandwiches"],"lastUpdated":1547527612695,"name":"Subway","phone":"(850) 654-1177","price":"$","reviewCount":5,"reviewScore":4,"meta":{"revision":0,"created":1547531148604,"version":0},"$loki":37},{"_id":"5c3d65bd3525a329e0c037a1","address":"979 Hwy 98 E","location":{"type":"Point","coordinates":[-86.3246684,30.3888473]},"isApproved":true,"items":[],"keys":["Pizza"],"lastUpdated":1547527612304,"name":"Little Caesars","phone":"(850) 837-7100","price":"$$$","reviewCount":7,"reviewScore":3.5,"meta":{"revision":0,"created":1547531148604,"version":0},"$loki":38},{"_id":"5c3d65bd3525a329e0c11221","address":"780 Grand Blvd","location":{"type":"Point","coordinates":[-86.324288349221,30.3899936751451]},"isApproved":true,"items":[],"keys":["Sandwiches","Fast Food","Delis"],"lastUpdated":1547527612642,"name":"Jimmy John’s","phone":"(850) 460-8660","price":"$","reviewCount":18,"reviewScore":3,"meta":{"revision":0,"created":1547531148604,"version":0},"$loki":39}],"idIndex":[1,2,3,4,5,6,7,8,9,10,11,12,13,14,15,16,17,18,19,20,21,22,23,24,25,26,27,28,29,30,31,32,33,34,35,36,37,38,39],"binaryIndices":{},"constraints":null,"uniqueNames":[],"transforms":{},"objType":"restaurants","dirty":true,"cachedIndex":null,"cachedBinaryIndex":null,"cachedData":null,"adaptiveBinaryIndices":true,"transactional":false,"cloneObjects":false,"cloneMethod":"parse-stringify","asyncListeners":false,"disableMeta":false,"disableChangesApi":true,"disableDeltaChangesApi":true,"autoupdate":false,"serializableIndices":true,"ttl":null,"maxId":39,"DynamicViews":[],"events":{"insert":[],"update":[],"pre-insert":[],"pre-update":[],"close":[],"flushbuffer":[],"error":[],"delete":[null],"warning":[null]},"changes":[]}],"databaseVersion":1.5,"engineVersion":1.5,"autosave":false,"autosaveInterval":5000,"autosaveHandle":null,"throttledSaves":true,"options":{"serializationMethod":"normal","destructureDelimiter":"$<\n"},"persistenceMethod":"fs","persistenceAdapter":null,"verbose":false,"events":{"init":[null],"loaded":[],"flushChanges":[],"close":[],"changes":[],"warning":[]},"ENV":"NODEJS"}