{"filename":"-86-32.75","collections":[{"name":"restaurants","data":[{"_id":"5c3d65bd3525a329e0c1322e","address":"Alex City Shopping Ctr","location":{"type":"Point","coordinates":[-85.802208,33.020833]},"isApproved":true,"items":[],"keys":["Barbeque","Southern"],"lastUpdated":1547527612689,"name":"Sho’Nuff BBQ","phone":"(256) 234-7675","price":"$","reviewCount":17,"reviewScore":4,"meta":{"revision":0,"created":1547531151686,"version":0},"$loki":1},{"_id":"5c3d65bd3525a329e0c09d6b","address":"42490 US Hwy 280","location":{"type":"Point","coordinates":[-85.9316725440284,33.0605400278932]},"isApproved":true,"items":[],"keys":["Italian"],"lastUpdated":1547527612471,"name":"Giovanni’s Italian Restaurant","phone":"(256) 208-0351","price":"$$","reviewCount":28,"reviewScore":4,"meta":{"revision":0,"created":1547531151686,"version":0},"$loki":2},{"_id":"5c3d65bd3525a329e0c1810c","address":"4880 Hwy 280","location":{"type":"Point","coordinates":[-86.0546717047691,33.059434548185]},"isApproved":true,"items":[],"keys":["Barbeque"],"lastUpdated":1547527612808,"name":"Good Ole Boys BBQ","phone":"(256) 329-0011","price":"$","reviewCount":7,"reviewScore":4.5,"meta":{"revision":0,"created":1547531151686,"version":0},"$loki":3},{"_id":"5c3d65bd3525a329e0c0b37a","address":"300 Main St","location":{"type":"Point","coordinates":[-86.220601,32.8870752]},"isApproved":true,"items":[],"keys":["Cafes"],"lastUpdated":1547527612498,"name":"MeMe’s Cafe","phone":"","price":"","reviewCount":1,"reviewScore":5,"meta":{"revision":0,"created":1547531151686,"version":0},"$loki":4},{"_id":"5c3d65bd3525a329e0c04c2b","address":"2 Broad St","location":{"type":"Point","coordinates":[-85.939831,32.9485094]},"isApproved":true,"items":[],"keys":["Pizza"],"lastUpdated":1547527612337,"name":"Lake Martin Pizza","phone":"(256) 392-5454","price":"$$","reviewCount":7,"reviewScore":3,"meta":{"revision":0,"created":1547531151686,"version":0},"$loki":5},{"_id":"5c3d65bd3525a329e0c0c5d4","address":"18 Providence Ridge Rd","location":{"type":"Point","coordinates":[-85.94433,32.956127]},"isApproved":true,"items":[],"keys":["Burgers","Buffets"],"lastUpdated":1547527612524,"name":"Scooter’s Grill","phone":"(256) 392-4861","price":"","reviewCount":1,"reviewScore":4,"meta":{"revision":0,"created":1547531151686,"version":0},"$loki":6},{"_id":"5c3d65bd3525a329e0c1927d","address":"9535 US Hwy 231","location":{"type":"Point","coordinates":[-85.9482982,32.9298462]},"isApproved":true,"items":[],"keys":["Southern"],"lastUpdated":1547527612833,"name":"Triple R Cafe","phone":"(256) 377-1333","price":"","reviewCount":1,"reviewScore":5,"meta":{"revision":0,"created":1547531151686,"version":0},"$loki":7},{"_id":"5c3d65bd3525a329e0c0d2b9","address":"1249 Cherokee Rd","location":{"type":"Point","coordinates":[-85.9478392,32.9308203]},"isApproved":true,"items":[],"keys":["Fast Food"],"lastUpdated":1547527612545,"name":"Hardee’s","phone":"(256) 234-4191","price":"","reviewCount":3,"reviewScore":3.5,"meta":{"revision":0,"created":1547531151686,"version":0},"$loki":8},{"_id":"5c3d65bd3525a329e0c11088","address":"1560 Hwy 22","location":{"type":"Point","coordinates":[-85.9474182128906,32.9343523734728]},"isApproved":true,"items":[],"keys":["American (Traditional)"],"lastUpdated":1547527612640,"name":"Who’s Diner","phone":"(256) 212-1501","price":"$","reviewCount":11,"reviewScore":4.5,"meta":{"revision":0,"created":1547531151686,"version":0},"$loki":9},{"_id":"5c3d65bd3525a329e0c0f16c","address":"1256 Cherokee Rd","location":{"type":"Point","coordinates":[-85.9486399,32.9301508]},"isApproved":true,"items":[],"keys":["Chinese"],"lastUpdated":1547527612591,"name":"Green Garden Chinese Restaurant","phone":"(256) 329-2321","price":"$$","reviewCount":4,"reviewScore":2.5,"meta":{"revision":0,"created":1547531151686,"version":0},"$loki":10},{"_id":"5c3d65bd3525a329e0c056be","address":"128 Calhoun St","location":{"type":"Point","coordinates":[-85.9595561,32.9237923]},"isApproved":true,"items":[],"keys":["Beer, Wine & Spirits","Tobacco Shops","Cafes"],"lastUpdated":1547527612348,"name":"Emporium Wine","phone":"(256) 212-9463","price":"$","reviewCount":5,"reviewScore":3.5,"meta":{"revision":0,"created":1547531151686,"version":0},"$loki":11},{"_id":"5c3d65bd3525a329e0c08963","address":"136 Wheeler St","location":{"type":"Point","coordinates":[-85.9528733,32.9451299]},"isApproved":true,"items":[],"keys":["Mexican"],"lastUpdated":1547527612429,"name":"Carlos Mexican Grill","phone":"(256) 329-9901","price":"$$","reviewCount":6,"reviewScore":3.5,"meta":{"revision":0,"created":1547531151686,"version":0},"$loki":12},{"_id":"5c3d65bd3525a329e0c17b85","address":"113 N Broadway Ave","location":{"type":"Point","coordinates":[-85.9524687,32.944374]},"isApproved":true,"items":[],"keys":["Pizza","Beer Bar"],"lastUpdated":1547527612800,"name":"Pizza & Pint","phone":"(256) 487-6200","price":"$$","reviewCount":26,"reviewScore":4.5,"meta":{"revision":0,"created":1547531151686,"version":0},"$loki":13},{"_id":"5c3d65bd3525a329e0c19c88","address":"145 Alabama St","location":{"type":"Point","coordinates":[-85.953244777814,32.9439139435788]},"isApproved":true,"items":[],"keys":["American (Traditional)"],"lastUpdated":1547527612850,"name":"Jr’s Sports Bar & Grill","phone":"(256) 329-2328","price":"$","reviewCount":9,"reviewScore":3,"meta":{"revision":0,"created":1547531151686,"version":0},"$loki":14},{"_id":"5c3d65bd3525a329e0c17d32","address":"110 Layport Lp","location":{"type":"Point","coordinates":[-85.9535833,32.9455439]},"isApproved":true,"items":[],"keys":["American (Traditional)"],"lastUpdated":1547527612801,"name":"Lay Port Marina","phone":"(205) 669-7746","price":"","reviewCount":2,"reviewScore":4.5,"meta":{"revision":0,"created":1547531151686,"version":0},"$loki":15},{"_id":"5c3d65bd3525a329e0c17bcc","address":"218 North Broadway Ave","location":{"type":"Point","coordinates":[-85.9535166169634,32.9460191621967]},"isApproved":true,"items":[],"keys":["Sandwiches"],"lastUpdated":1547527612800,"name":"Odie’s Deli","phone":"(256) 249-0500","price":"$","reviewCount":19,"reviewScore":4.5,"meta":{"revision":0,"created":1547531151686,"version":0},"$loki":16},{"_id":"5c3d65bd3525a329e0c027de","address":"1171 Tallapoosa St","location":{"type":"Point","coordinates":[-85.954842,32.945266]},"isApproved":true,"items":[],"keys":["Restaurants"],"lastUpdated":1547527612285,"name":"Buck’s Dairy Quick","phone":"(256) 329-9103","price":"$$","reviewCount":1,"reviewScore":1,"meta":{"revision":0,"created":1547531151686,"version":0},"$loki":17},{"_id":"5c3d65bd3525a329e0c10e8f","address":"1264 Cherokee Rd","location":{"type":"Point","coordinates":[-85.9649187,32.926932]},"isApproved":true,"items":[],"keys":["Chicken Wings"],"lastUpdated":1547527612634,"name":"Jim Bob’s Chicken Fingers","phone":"(256) 215-3998","price":"$$","reviewCount":8,"reviewScore":4,"meta":{"revision":0,"created":1547531151686,"version":0},"$loki":18},{"_id":"5c3d65bd3525a329e0c17cc3","address":"3779 Highway 280","location":{"type":"Point","coordinates":[-85.961355,32.92495]},"isApproved":true,"items":[],"keys":["Mexican","Tex-Mex","Fast Food"],"lastUpdated":1547527612800,"name":"Taco Bell","phone":"(256) 234-9929","price":"","reviewCount":3,"reviewScore":2,"meta":{"revision":0,"created":1547531151686,"version":0},"$loki":19},{"_id":"5c3d65bd3525a329e0c19152","address":"513 22nd St S","location":{"type":"Point","coordinates":[-85.9722123583675,32.9332971575922]},"isApproved":true,"items":[],"keys":["Music Venues","American (Traditional)"],"lastUpdated":1547527612833,"name":"Iron City Bham","phone":"(205) 202-5483","price":"$$","reviewCount":189,"reviewScore":4,"meta":{"revision":0,"created":1547531151686,"version":0},"$loki":20},{"_id":"5c3d65bd3525a329e0bffd60","address":"325 9th Ave SW","location":{"type":"Point","coordinates":[-85.9713528396461,32.9339957827922]},"isApproved":true,"items":[],"keys":["Chinese"],"lastUpdated":1547527612222,"name":"China King","phone":"(334) 864-0005","price":"","reviewCount":1,"reviewScore":5,"meta":{"revision":0,"created":1547531151686,"version":0},"$loki":21},{"_id":"5c3d65bd3525a329e0c0fb82","address":"16 Broad St","location":{"type":"Point","coordinates":[-85.973041,32.93263]},"isApproved":true,"items":[],"keys":["Seafood","Steakhouses"],"lastUpdated":1547527612601,"name":"Jake’s","phone":"(256) 234-4300","price":"","reviewCount":2,"reviewScore":4,"meta":{"revision":0,"created":1547531151686,"version":0},"$loki":22},{"_id":"5c3d65bd3525a329e0bff741","address":"678 Clanton Market Pl","location":{"type":"Point","coordinates":[-85.97723,32.9394146]},"isApproved":true,"items":[],"keys":["Chinese"],"lastUpdated":1547527612218,"name":"Hong Kong Taste","phone":"(205) 755-3275","price":"$","reviewCount":5,"reviewScore":4.5,"meta":{"revision":0,"created":1547531151686,"version":0},"$loki":23},{"_id":"5c3d65bd3525a329e0c04c64","address":"2533 Hwy 280","location":{"type":"Point","coordinates":[-85.9778962,32.9400064]},"isApproved":true,"items":[],"keys":["Fast Food","Burgers"],"lastUpdated":1547527612337,"name":"Wendy’s","phone":"(256) 234-0988","price":"","reviewCount":3,"reviewScore":2.5,"meta":{"revision":0,"created":1547531151686,"version":0},"$loki":24},{"_id":"5c3d65bd3525a329e0c155a9","address":"42741 US Hwy 280","location":{"type":"Point","coordinates":[-85.9726186,32.9356183]},"isApproved":true,"items":[],"keys":["Fast Food"],"lastUpdated":1547527612745,"name":"Hardees","phone":"(256) 245-7657","price":"","reviewCount":3,"reviewScore":2.5,"meta":{"revision":0,"created":1547531151686,"version":0},"$loki":25},{"_id":"5c3d65bd3525a329e0c03240","address":"4034 Hwy 280","location":{"type":"Point","coordinates":[-85.9614085,32.9234934]},"isApproved":true,"items":[],"keys":["Buffets"],"lastUpdated":1547527612296,"name":"City Buffet","phone":"(256) 234-9833","price":"","reviewCount":4,"reviewScore":2.5,"meta":{"revision":0,"created":1547531151686,"version":0},"$loki":26},{"_id":"5c3d65bd3525a329e0c116d3","address":"300 E 3rd St","location":{"type":"Point","coordinates":[-85.951894,32.913977]},"isApproved":true,"items":[],"keys":["American (New)","Bars","Southern"],"lastUpdated":1547527612650,"name":"Buttermilk Hill Restaurant And Bar","phone":"(256) 207-1001","price":"$$","reviewCount":30,"reviewScore":4.5,"meta":{"revision":0,"created":1547531151686,"version":0},"$loki":27},{"_id":"5c3d65bd3525a329e0c11668","address":"4727 Hwy 280","location":{"type":"Point","coordinates":[-85.952784,32.9167623]},"isApproved":true,"items":[],"keys":["Breakfast & Brunch","Diners","American (Traditional)"],"lastUpdated":1547527612649,"name":"Huddle House","phone":"(256) 215-7267","price":"$","reviewCount":6,"reviewScore":3,"meta":{"revision":0,"created":1547531151686,"version":0},"$loki":28},{"_id":"5c3d65bd3525a329e0c14596","address":"855 Market Pl","location":{"type":"Point","coordinates":[-85.9587739,32.9198332]},"isApproved":true,"items":[],"keys":["Pizza","Chicken Wings","Sandwiches"],"lastUpdated":1547527612715,"name":"Domino’s Pizza","phone":"(256) 329-2236","price":"","reviewCount":1,"reviewScore":4,"meta":{"revision":0,"created":1547531151686,"version":0},"$loki":29},{"_id":"5c3d65bd3525a329e0c04fbb","address":"12550 County Road 42","location":{"type":"Point","coordinates":[-85.9608963131905,32.9228290499808]},"isApproved":true,"items":[],"keys":["Burgers","Fast Food"],"lastUpdated":1547527612339,"name":"Jack’s","phone":"(205) 614-5223","price":"$","reviewCount":6,"reviewScore":4,"meta":{"revision":0,"created":1547531151686,"version":0},"$loki":30},{"_id":"5c3d65bd3525a329e0c1b088","address":"4060 Hwy 280","location":{"type":"Point","coordinates":[-85.961045,32.923259]},"isApproved":true,"items":[],"keys":["Seafood","Fast Food","American (Traditional)"],"lastUpdated":1547527612877,"name":"Captain D’s","phone":"(256) 234-6275","price":"","reviewCount":3,"reviewScore":1.5,"meta":{"revision":0,"created":1547531151686,"version":0},"$loki":31},{"_id":"5c3d65bd3525a329e0c1158b","address":"3714 Hwy 280","location":{"type":"Point","coordinates":[-85.960821211338,32.923736795783]},"isApproved":true,"items":[],"keys":["Mexican"],"lastUpdated":1547527612649,"name":"La Posada Mexican Grill","phone":"(256) 329-3005","price":"$$","reviewCount":25,"reviewScore":4,"meta":{"revision":0,"created":1547531151686,"version":0},"$loki":32},{"_id":"5c3d65bd3525a329e0c1b40f","address":"2593 Hwy 280","location":{"type":"Point","coordinates":[-85.954336,32.9184156]},"isApproved":true,"items":[],"keys":["Fast Food","Sandwiches"],"lastUpdated":1547527612885,"name":"Arby’s","phone":"(256) 215-5510","price":"$$","reviewCount":5,"reviewScore":1.5,"meta":{"revision":0,"created":1547531151686,"version":0},"$loki":33},{"_id":"5c3d65bd3525a329e0c10d19","address":"17 Russell Farms Rd","location":{"type":"Point","coordinates":[-85.9450126390869,32.7658485800702]},"isApproved":true,"items":[],"keys":["Grocery","Bakeries","Cafes"],"lastUpdated":1547527612633,"name":"Catherine’s Market","phone":"(256) 215-7070","price":"$","reviewCount":16,"reviewScore":4,"meta":{"revision":0,"created":1547531151686,"version":0},"$loki":34},{"_id":"5c3d65bd3525a329e0c153d0","address":"6684 Hwy 49 S","location":{"type":"Point","coordinates":[-85.947547,32.76694]},"isApproved":true,"items":[],"keys":["Seafood","Burgers","Sandwiches"],"lastUpdated":1547527612738,"name":"Oskar’s Cafe","phone":"(256) 825-4827","price":"$$","reviewCount":33,"reviewScore":4.5,"meta":{"revision":0,"created":1547531151686,"version":0},"$loki":35},{"_id":"5c3d65bd3525a329e0c0543c","address":"295 Kowaliga Marina Rd","location":{"type":"Point","coordinates":[-85.95721,32.75393]},"isApproved":true,"items":[],"keys":["American (New)"],"lastUpdated":1547527612347,"name":"Sinclair’s Kowaliga","phone":"(334) 857-2889","price":"","reviewCount":1,"reviewScore":1,"meta":{"revision":0,"created":1547531151686,"version":0},"$loki":36},{"_id":"5c3d65bd3525a329e0c1808b","address":"8276 Co Rd 34","location":{"type":"Point","coordinates":[-85.9672656588741,32.7398014043839]},"isApproved":true,"items":[],"keys":["American (Traditional)"],"lastUpdated":1547527612803,"name":"Table 34","phone":"(256) 307-1466","price":"","reviewCount":5,"reviewScore":3.5,"meta":{"revision":0,"created":1547531151686,"version":0},"$loki":37},{"_id":"5c3d65bd3525a329e0c0b963","address":"8650 Alabama Hwy 50","location":{"type":"Point","coordinates":[-85.9374391,32.7119677]},"isApproved":true,"items":[],"keys":["Chicken Wings"],"lastUpdated":1547527612507,"name":"Louie’s Chicken Fingers","phone":"(256) 373-3088","price":"","reviewCount":1,"reviewScore":4,"meta":{"revision":0,"created":1547531151686,"version":0},"$loki":38},{"_id":"5c3d65bd3525a329e0c069ff","address":"I 80 Exit 164","location":{"type":"Point","coordinates":[-85.7861033,32.7104408]},"isApproved":true,"items":[],"keys":["American (Traditional)"],"lastUpdated":1547527612379,"name":"Western Convenience Diner","phone":"","price":"","reviewCount":1,"reviewScore":3,"meta":{"revision":0,"created":1547531151686,"version":0},"$loki":39},{"_id":"5c3d65bd3525a329e0c13309","address":"380 Summerhill Rd","location":{"type":"Point","coordinates":[-85.7880871,32.7360301]},"isApproved":true,"items":[],"keys":["Sandwiches"],"lastUpdated":1547527612689,"name":"Dell’s Den","phone":"(334) 756-3336","price":"$","reviewCount":6,"reviewScore":5,"meta":{"revision":0,"created":1547531151686,"version":0},"$loki":40},{"_id":"5c3d65bd3525a329e0c09d2d","address":"306 N Broadnax St","location":{"type":"Point","coordinates":[-85.8432176,32.7243439]},"isApproved":true,"items":[],"keys":["American (Traditional)"],"lastUpdated":1547527612465,"name":"Bob’s Fine Foods","phone":"(256) 825-7357","price":"$","reviewCount":4,"reviewScore":4.5,"meta":{"revision":0,"created":1547531151686,"version":0},"$loki":41},{"_id":"5c3d65bd3525a329e0c173e4","address":"2001 32nd St","location":{"type":"Point","coordinates":[-85.8193414,32.7655535]},"isApproved":true,"items":[],"keys":["Salad","Soup","Sandwiches"],"lastUpdated":1547527612784,"name":"Terri’s Mill Village Cafe","phone":"(334) 768-6455","price":"","reviewCount":3,"reviewScore":4.5,"meta":{"revision":0,"created":1547531151686,"version":0},"$loki":42},{"_id":"5c3d65bd3525a329e0c08bb1","address":"3701 20th Ave","location":{"type":"Point","coordinates":[-85.7884502975928,32.769472475102]},"isApproved":true,"items":[],"keys":["Korean"],"lastUpdated":1547527612436,"name":"Jk House Inc Korean Restaurant","phone":"(334) 768-2042","price":"","reviewCount":1,"reviewScore":5,"meta":{"revision":0,"created":1547531151686,"version":0},"$loki":43},{"_id":"5c3d65bd3525a329e0c19bac","address":"7380 Fairfax Bypass","location":{"type":"Point","coordinates":[-85.8044377,32.7464278]},"isApproved":true,"items":[],"keys":["Southern"],"lastUpdated":1547527612850,"name":"Sunny’s Home Cooking","phone":"(334) 756-2500","price":"$","reviewCount":11,"reviewScore":4,"meta":{"revision":0,"created":1547531151686,"version":0},"$loki":44},{"_id":"5c3d65bd3525a329e0c1511e","address":"191 E South St","location":{"type":"Point","coordinates":[-85.7860053,32.7471432]},"isApproved":true,"items":[],"keys":["Southern","Caterers"],"lastUpdated":1547527612737,"name":"Homeplate Cafe","phone":"(256) 825-0583","price":"$","reviewCount":15,"reviewScore":4.5,"meta":{"revision":0,"created":1547531151686,"version":0},"$loki":45},{"_id":"5c3d65bd3525a329e0c06845","address":"3791 20th Ave","location":{"type":"Point","coordinates":[-85.7720896,32.8206201]},"isApproved":true,"items":[],"keys":["Chinese"],"lastUpdated":1547527612378,"name":"Zen House Chinese Restaurant","phone":"(334) 768-2100","price":"$","reviewCount":8,"reviewScore":3,"meta":{"revision":0,"created":1547531151686,"version":0},"$loki":46},{"_id":"5c3d65bd3525a329e0c09b38","address":"4497 Highway 280","location":{"type":"Point","coordinates":[-85.898164,32.905118]},"isApproved":true,"items":[],"keys":["Fast Food","Chicken Wings","Salad"],"lastUpdated":1547527612464,"name":"Zaxby’s Chicken Fingers & Buffalo Wings","phone":"(256) 234-2181","price":"$","reviewCount":10,"reviewScore":2.5,"meta":{"revision":0,"created":1547531151686,"version":0},"$loki":47},{"_id":"5c3d65bd3525a329e0c152bc","address":"17956 Hwy 280","location":{"type":"Point","coordinates":[-85.7641643,32.836481]},"isApproved":true,"items":[],"keys":["Fast Food","Burgers","Coffee & Tea"],"lastUpdated":1547527612737,"name":"McDonald’s","phone":"(256) 825-8744","price":"","reviewCount":5,"reviewScore":1,"meta":{"revision":0,"created":1547531151686,"version":0},"$loki":48},{"_id":"5c3d65bd3525a329e0c1895d","address":"17957 Hwy 280","location":{"type":"Point","coordinates":[-85.763361,32.837475]},"isApproved":true,"items":[],"keys":["Chinese"],"lastUpdated":1547527612823,"name":"Golden Gate","phone":"(256) 825-9886","price":"","reviewCount":2,"reviewScore":4.5,"meta":{"revision":0,"created":1547531151686,"version":0},"$loki":49},{"_id":"5c3d65bd3525a329e0c03959","address":"295 Kowaliga Marina Rd","location":{"type":"Point","coordinates":[-85.762238,32.835697]},"isApproved":true,"items":[],"keys":["American (Traditional)"],"lastUpdated":1547527612310,"name":"Kowaliga Restaurant","phone":"(256) 215-7035","price":"$$","reviewCount":51,"reviewScore":3.5,"meta":{"revision":0,"created":1547531151686,"version":0},"$loki":50},{"_id":"5c3d65bd3525a329e0c10159","address":"5042 Hwy 49 S","location":{"type":"Point","coordinates":[-85.7634727196434,32.8330465178018]},"isApproved":true,"items":[],"keys":["Pizza"],"lastUpdated":1547527612610,"name":"Lake Martin Pizza","phone":"(256) 373-3337","price":"$$","reviewCount":25,"reviewScore":4,"meta":{"revision":0,"created":1547531151686,"version":0},"$loki":51},{"_id":"5c3d65bd3525a329e0c0ef3e","address":"373 Fob James Dr","location":{"type":"Point","coordinates":[-85.7620614767075,32.8284845091397]},"isApproved":true,"items":[],"keys":["Italian"],"lastUpdated":1547527612584,"name":"Milano’s","phone":"(334) 756-0605","price":"$$","reviewCount":33,"reviewScore":3.5,"meta":{"revision":0,"created":1547531151686,"version":0},"$loki":52},{"_id":"5c3d65bd3525a329e0c0993c","address":"1065 Tallassee St","location":{"type":"Point","coordinates":[-85.653926,32.824521]},"isApproved":true,"items":[],"keys":["American (New)"],"lastUpdated":1547527612463,"name":"Fusion Grill","phone":"(256) 307-1858","price":"","reviewCount":3,"reviewScore":4,"meta":{"revision":0,"created":1547531151686,"version":0},"$loki":53}],"idIndex":[1,2,3,4,5,6,7,8,9,10,11,12,13,14,15,16,17,18,19,20,21,22,23,24,25,26,27,28,29,30,31,32,33,34,35,36,37,38,39,40,41,42,43,44,45,46,47,48,49,50,51,52,53],"binaryIndices":{},"constraints":null,"uniqueNames":[],"transforms":{},"objType":"restaurants","dirty":true,"cachedIndex":null,"cachedBinaryIndex":null,"cachedData":null,"adaptiveBinaryIndices":true,"transactional":false,"cloneObjects":false,"cloneMethod":"parse-stringify","asyncListeners":false,"disableMeta":false,"disableChangesApi":true,"disableDeltaChangesApi":true,"autoupdate":false,"serializableIndices":true,"ttl":null,"maxId":53,"DynamicViews":[],"events":{"insert":[],"update":[],"pre-insert":[],"pre-update":[],"close":[],"flushbuffer":[],"error":[],"delete":[null],"warning":[null]},"changes":[]}],"databaseVersion":1.5,"engineVersion":1.5,"autosave":false,"autosaveInterval":5000,"autosaveHandle":null,"throttledSaves":true,"options":{"serializationMethod":"normal","destructureDelimiter":"$<\n"},"persistenceMethod":"fs","persistenceAdapter":null,"verbose":false,"events":{"init":[null],"loaded":[],"flushChanges":[],"close":[],"changes":[],"warning":[]},"ENV":"NODEJS"}