{"filename":"-86.5-31.5","collections":[{"name":"restaurants","data":[{"_id":"5c3d65bd3525a329e0c002a6","address":"9451 S Main St","location":{"type":"Point","coordinates":[-86.2569077,31.5813616]},"isApproved":true,"items":[],"keys":["Southern"],"lastUpdated":1547527612225,"name":"Michael’s Southern Foods","phone":"(334) 527-3939","price":"$","reviewCount":8,"reviewScore":4,"meta":{"revision":0,"created":1547531149992,"version":0},"$loki":1},{"_id":"5c3d65bd3525a329e0c184f2","address":"1244 S Forest Ave","location":{"type":"Point","coordinates":[-86.2665868,31.6990962]},"isApproved":true,"items":[],"keys":["Mexican"],"lastUpdated":1547527612814,"name":"Monarcas Mexican Restaurant","phone":"(334) 335-3596","price":"$","reviewCount":7,"reviewScore":4,"meta":{"revision":0,"created":1547531149992,"version":0},"$loki":2},{"_id":"5c3d65bd3525a329e0c00493","address":"1378 S Forest Ave","location":{"type":"Point","coordinates":[-86.2662046,31.697426]},"isApproved":true,"items":[],"keys":["Chinese"],"lastUpdated":1547527612226,"name":"New China Restaurants","phone":"(334) 335-2788","price":"$","reviewCount":2,"reviewScore":3.5,"meta":{"revision":0,"created":1547531149992,"version":0},"$loki":3},{"_id":"5c3d65bd3525a329e0c096f3","address":"665 S Forest Ave","location":{"type":"Point","coordinates":[-86.2635009352933,31.7065028196706]},"isApproved":true,"items":[],"keys":["Chicken Shop"],"lastUpdated":1547527612454,"name":"Chicken Shack","phone":"(334) 335-6566","price":"$","reviewCount":32,"reviewScore":4,"meta":{"revision":0,"created":1547531149992,"version":0},"$loki":4},{"_id":"5c3d65bd3525a329e0c02301","address":"130 Industrial Park Cir","location":{"type":"Point","coordinates":[-86.2645638,31.705308]},"isApproved":true,"items":[],"keys":["Fast Food","Burgers","Coffee & Tea"],"lastUpdated":1547527612276,"name":"McDonald’s","phone":"(251) 578-3797","price":"$","reviewCount":11,"reviewScore":2.5,"meta":{"revision":0,"created":1547531149992,"version":0},"$loki":5},{"_id":"5c3d65bd3525a329e0c0dd53","address":"3351 S Alabama Ave","location":{"type":"Point","coordinates":[-86.2647621,31.7048245]},"isApproved":true,"items":[],"keys":["Chinese","Buffets"],"lastUpdated":1547527612563,"name":"Hibachi Buffet","phone":"(251) 575-9888","price":"","reviewCount":2,"reviewScore":2.5,"meta":{"revision":0,"created":1547531149992,"version":0},"$loki":6},{"_id":"5c3d65bd3525a329e0c06491","address":"89 S Forest Ave","location":{"type":"Point","coordinates":[-86.2636538188418,31.7151191970425]},"isApproved":true,"items":[],"keys":["Ice Cream & Frozen Yogurt","Sandwiches","American (Traditional)"],"lastUpdated":1547527612371,"name":"Mainstreet Sweets","phone":"(334) 535-2663","price":"","reviewCount":3,"reviewScore":4.5,"meta":{"revision":0,"created":1547531149992,"version":0},"$loki":7},{"_id":"5c3d65bd3525a329e0c089b0","address":"149 S Forest Ave","location":{"type":"Point","coordinates":[-86.263596,31.7142282798056]},"isApproved":true,"items":[],"keys":["American (Traditional)","Steakhouses"],"lastUpdated":1547527612429,"name":"Preston’s Steak & Grill","phone":"(334) 335-2400","price":"$","reviewCount":17,"reviewScore":4.5,"meta":{"revision":0,"created":1547531149992,"version":0},"$loki":8},{"_id":"5c3d65bd3525a329e0c04d6d","address":"868 Forest Ave","location":{"type":"Point","coordinates":[-86.2638492,31.7165455]},"isApproved":true,"items":[],"keys":["Barbeque","Seafood","American (Traditional)"],"lastUpdated":1547527612338,"name":"The Dinner Table","phone":"(334) 335-3316","price":"$","reviewCount":8,"reviewScore":4,"meta":{"revision":0,"created":1547531149992,"version":0},"$loki":9},{"_id":"5c3d65bd3525a329e0c03432","address":"1703 Montgomery Hwy","location":{"type":"Point","coordinates":[-86.2836721,31.7310345]},"isApproved":true,"items":[],"keys":["Barbeque"],"lastUpdated":1547527612302,"name":"Bush’s Bar-B-Que","phone":"(334) 535-0250","price":"$","reviewCount":5,"reviewScore":4,"meta":{"revision":0,"created":1547531149992,"version":0},"$loki":10},{"_id":"5c3d65bd3525a329e0c1ad14","address":"313 S Palmer Ave","location":{"type":"Point","coordinates":[-86.7397956,31.6355579]},"isApproved":true,"items":[],"keys":["Restaurants"],"lastUpdated":1547527612875,"name":"Friendly G’s","phone":"(334) 376-2036","price":"","reviewCount":1,"reviewScore":2,"meta":{"revision":0,"created":1547531149992,"version":0},"$loki":11},{"_id":"5c3d65bd3525a329e0c1ac64","address":"2076 W State Hwy 106","location":{"type":"Point","coordinates":[-86.7760756954365,31.6520642719901]},"isApproved":true,"items":[],"keys":["Barbeque"],"lastUpdated":1547527612869,"name":"Kendall’s BBQ","phone":"(334) 376-0055","price":"$","reviewCount":30,"reviewScore":3.5,"meta":{"revision":0,"created":1547531149992,"version":0},"$loki":12},{"_id":"5c3d65bd3525a329e0c12bef","address":"5828 W Main St","location":{"type":"Point","coordinates":[-86.4323380545993,31.3216973980562]},"isApproved":true,"items":[],"keys":["Sandwiches","Fast Food"],"lastUpdated":1547527612680,"name":"Subway","phone":"(334) 702-2314","price":"","reviewCount":1,"reviewScore":1,"meta":{"revision":0,"created":1547531149992,"version":0},"$loki":13},{"_id":"5c3d65bd3525a329e0c010d7","address":"803 Hwy 331 S","location":{"type":"Point","coordinates":[-86.3937034,31.3045254]},"isApproved":true,"items":[],"keys":["Fast Food"],"lastUpdated":1547527612239,"name":"Hardee’s Food Systems","phone":"(334) 493-3314","price":"","reviewCount":1,"reviewScore":5,"meta":{"revision":0,"created":1547531149992,"version":0},"$loki":14},{"_id":"5c3d65bd3525a329e0c13d03","address":"4 North Pointe Pkwy","location":{"type":"Point","coordinates":[-86.266334,31.250462]},"isApproved":true,"items":[],"keys":["Seafood","Bars","American (Traditional)"],"lastUpdated":1547527612705,"name":"Pop’s Restaurant & Oyster Bar","phone":"(334) 417-0475","price":"$$","reviewCount":35,"reviewScore":2.5,"meta":{"revision":0,"created":1547531149992,"version":0},"$loki":15},{"_id":"5c3d65bd3525a329e0c030d7","address":"601 Hwy 331 S","location":{"type":"Point","coordinates":[-86.2349805742745,31.3033833097486]},"isApproved":true,"items":[],"keys":["Barbeque"],"lastUpdated":1547527612295,"name":"Hooks Bar BBQ","phone":"(334) 493-4060","price":"","reviewCount":9,"reviewScore":4.5,"meta":{"revision":0,"created":1547531149992,"version":0},"$loki":16},{"_id":"5c3d65bd3525a329e0c19b5b","address":"326 Virginia Ave","location":{"type":"Point","coordinates":[-86.2558453308073,31.2888052082787]},"isApproved":true,"items":[],"keys":["Sandwiches","Fast Food"],"lastUpdated":1547527612849,"name":"Subway","phone":"(334) 503-4603","price":"","reviewCount":1,"reviewScore":4,"meta":{"revision":0,"created":1547531149992,"version":0},"$loki":17},{"_id":"5c3d65bd3525a329e0c1743b","address":"3400 Montgomery Highway","location":{"type":"Point","coordinates":[-86.240613,31.291163]},"isApproved":true,"items":[],"keys":["American (Traditional)","Chicken Wings","Sports Bars"],"lastUpdated":1547527612790,"name":"Buffalo Wild Wings","phone":"(334) 671-0198","price":"$$","reviewCount":35,"reviewScore":3,"meta":{"revision":0,"created":1547531149992,"version":0},"$loki":18},{"_id":"5c3d65bd3525a329e0c11d96","address":"407 N Maloy St","location":{"type":"Point","coordinates":[-86.241152,31.287342]},"isApproved":true,"items":[],"keys":["Burgers","Chicken Wings"],"lastUpdated":1547527612661,"name":"Benton’s","phone":"(334) 493-6364","price":"$$","reviewCount":12,"reviewScore":4.5,"meta":{"revision":0,"created":1547531149992,"version":0},"$loki":19},{"_id":"5c3d65bd3525a329e0c1876b","address":"451 N Daleville Ave","location":{"type":"Point","coordinates":[-86.2499644,31.2800941]},"isApproved":true,"items":[],"keys":["Sandwiches","Fast Food"],"lastUpdated":1547527612821,"name":"Subway","phone":"(334) 598-1281","price":"$","reviewCount":3,"reviewScore":2.5,"meta":{"revision":0,"created":1547531149992,"version":0},"$loki":20},{"_id":"5c3d65bd3525a329e0c1b441","address":"621 Boll Weevil Cir","location":{"type":"Point","coordinates":[-86.2557884,31.2824303]},"isApproved":true,"items":[],"keys":["American (Traditional)","Pubs","Sports Bars"],"lastUpdated":1547527612885,"name":"Beef ‘O’ Brady’s","phone":"(334) 348-9464","price":"$$","reviewCount":20,"reviewScore":2.5,"meta":{"revision":0,"created":1547531149992,"version":0},"$loki":21},{"_id":"5c3d65bd3525a329e0c17b4a","address":"4771 Montgomery Hwy","location":{"type":"Point","coordinates":[-86.248872,31.274988]},"isApproved":true,"items":[],"keys":["Mexican"],"lastUpdated":1547527612799,"name":"La Parrilla Mexican Restaurant","phone":"(334) 671-7090","price":"$$","reviewCount":95,"reviewScore":4,"meta":{"revision":0,"created":1547531149992,"version":0},"$loki":22},{"_id":"5c3d65bd3525a329e0c0ba59","address":"228 S Oates St","location":{"type":"Point","coordinates":[-86.248619,31.273588]},"isApproved":true,"items":[],"keys":["Cafes","Pasta Shops","Sandwiches"],"lastUpdated":1547527612507,"name":"The Basketcase Cafe","phone":"(334) 671-1117","price":"$$","reviewCount":8,"reviewScore":3.5,"meta":{"revision":0,"created":1547531149992,"version":0},"$loki":23}],"idIndex":[1,2,3,4,5,6,7,8,9,10,11,12,13,14,15,16,17,18,19,20,21,22,23],"binaryIndices":{},"constraints":null,"uniqueNames":[],"transforms":{},"objType":"restaurants","dirty":true,"cachedIndex":null,"cachedBinaryIndex":null,"cachedData":null,"adaptiveBinaryIndices":true,"transactional":false,"cloneObjects":false,"cloneMethod":"parse-stringify","asyncListeners":false,"disableMeta":false,"disableChangesApi":true,"disableDeltaChangesApi":true,"autoupdate":false,"serializableIndices":true,"ttl":null,"maxId":23,"DynamicViews":[],"events":{"insert":[],"update":[],"pre-insert":[],"pre-update":[],"close":[],"flushbuffer":[],"error":[],"delete":[null],"warning":[null]},"changes":[]}],"databaseVersion":1.5,"engineVersion":1.5,"autosave":false,"autosaveInterval":5000,"autosaveHandle":null,"throttledSaves":true,"options":{"serializationMethod":"normal","destructureDelimiter":"$<\n"},"persistenceMethod":"fs","persistenceAdapter":null,"verbose":false,"events":{"init":[null],"loaded":[],"flushChanges":[],"close":[],"changes":[],"warning":[]},"ENV":"NODEJS"}