{"filename":"-86.75-36.75","collections":[{"name":"restaurants","data":[{"_id":"5c3d65bd3525a329e0c1b2a0","address":"5424 Hwy 31 E","location":{"type":"Point","coordinates":[-86.6606897,36.4625464]},"isApproved":true,"items":[],"keys":["Mexican"],"lastUpdated":1547527612878,"name":"La Quesadilla Mexican Grill","phone":"(615) 644-5991","price":"$","reviewCount":7,"reviewScore":4,"meta":{"revision":0,"created":1547531148802,"version":0},"$loki":1},{"_id":"5c3d65bd3525a329e0c096a2","address":"105 B College St","location":{"type":"Point","coordinates":[-86.6595009809986,36.4646318087674]},"isApproved":true,"items":[],"keys":["Cafes"],"lastUpdated":1547527612454,"name":"Cafe 31","phone":"(615) 390-6634","price":"$","reviewCount":6,"reviewScore":4.5,"meta":{"revision":0,"created":1547531148802,"version":0},"$loki":2},{"_id":"5c3d65bd3525a329e0c18431","address":"2942 Scottsville Rd","location":{"type":"Point","coordinates":[-86.6591603,36.4647376]},"isApproved":true,"items":[],"keys":["Burgers","Fast Food"],"lastUpdated":1547527612814,"name":"Wendy’s","phone":"(270) 586-9876","price":"$","reviewCount":8,"reviewScore":2.5,"meta":{"revision":0,"created":1547531148802,"version":0},"$loki":3},{"_id":"5c3d65bd3525a329e0c08179","address":"317 West Dr","location":{"type":"Point","coordinates":[-86.6591329872608,36.4644200368511]},"isApproved":true,"items":[],"keys":["American (Traditional)"],"lastUpdated":1547527612419,"name":"Neighborhood Cafe","phone":"(615) 334-1891","price":"","reviewCount":4,"reviewScore":4.5,"meta":{"revision":0,"created":1547531148802,"version":0},"$loki":4},{"_id":"5c3d65bd3525a329e0c116ce","address":"9239 Highway 52","location":{"type":"Point","coordinates":[-86.658371,36.465418]},"isApproved":true,"items":[],"keys":["American (New)","Bars"],"lastUpdated":1547527612649,"name":"Brewsters Bar And Grill","phone":"(615) 325-8873","price":"$","reviewCount":12,"reviewScore":2.5,"meta":{"revision":0,"created":1547531148802,"version":0},"$loki":5},{"_id":"5c3d65bd3525a329e0c12b89","address":"116 Steele Rd","location":{"type":"Point","coordinates":[-86.6579888136336,36.4632789345264]},"isApproved":true,"items":[],"keys":["Tex-Mex","American (Traditional)"],"lastUpdated":1547527612680,"name":"The Oasis Southwest Grill of Franklin","phone":"(270) 586-5311","price":"$$","reviewCount":34,"reviewScore":3.5,"meta":{"revision":0,"created":1547531148802,"version":0},"$loki":6},{"_id":"5c3d65bd3525a329e0c126a1","address":"2934 Highway 31 W","location":{"type":"Point","coordinates":[-86.6534977984476,36.4679217573801]},"isApproved":true,"items":[],"keys":["Chicken Wings"],"lastUpdated":1547527612671,"name":"Richie’s Hot Wings","phone":"(615) 672-2491","price":"$$","reviewCount":38,"reviewScore":4,"meta":{"revision":0,"created":1547531148802,"version":0},"$loki":7},{"_id":"5c3d65bd3525a329e0c08623","address":"301 Richard Wilks Rd","location":{"type":"Point","coordinates":[-86.6553056,36.4692295]},"isApproved":true,"items":[],"keys":["Mexican"],"lastUpdated":1547527612427,"name":"Los Agaves","phone":"(615) 672-1122","price":"$$","reviewCount":43,"reviewScore":4,"meta":{"revision":0,"created":1547531148802,"version":0},"$loki":8},{"_id":"5c3d65bd3525a329e0c18afb","address":"809 N Broadway","location":{"type":"Point","coordinates":[-86.5929463,36.4941396]},"isApproved":true,"items":[],"keys":["Chicken Shop"],"lastUpdated":1547527612823,"name":"Ms. Emmett’s Country Kitchen","phone":"(615) 805-3150","price":"","reviewCount":6,"reviewScore":3.5,"meta":{"revision":0,"created":1547531148802,"version":0},"$loki":9},{"_id":"5c3d65bd3525a329e0c16fe2","address":"2025 Hwy 31 W","location":{"type":"Point","coordinates":[-86.6964561,36.5494388]},"isApproved":true,"items":[],"keys":["Barbeque"],"lastUpdated":1547527612782,"name":"Perrys Smoking Pig","phone":"(615) 672-4414","price":"$","reviewCount":29,"reviewScore":4,"meta":{"revision":0,"created":1547531148802,"version":0},"$loki":10},{"_id":"5c3d65bd3525a329e0c0571f","address":"301 Sandye Ave","location":{"type":"Point","coordinates":[-86.6944488,36.547774]},"isApproved":true,"items":[],"keys":["Fast Food","Burgers"],"lastUpdated":1547527612348,"name":"Burger King","phone":"(615) 323-1651","price":"","reviewCount":1,"reviewScore":1,"meta":{"revision":0,"created":1547531148802,"version":0},"$loki":11},{"_id":"5c3d65bd3525a329e0c13837","address":"5202 Hwy 31 E","location":{"type":"Point","coordinates":[-86.7004,36.4711]},"isApproved":true,"items":[],"keys":["Sandwiches","Fast Food"],"lastUpdated":1547527612697,"name":"Subway","phone":"(615) 644-7827","price":"","reviewCount":2,"reviewScore":2,"meta":{"revision":0,"created":1547531148802,"version":0},"$loki":12},{"_id":"5c3d65bd3525a329e0c0ee08","address":"617 S Broadway","location":{"type":"Point","coordinates":[-86.683034,36.464892]},"isApproved":true,"items":[],"keys":["Fast Food"],"lastUpdated":1547527612583,"name":"Hardee’s","phone":"(615) 325-6585","price":"","reviewCount":4,"reviewScore":2.5,"meta":{"revision":0,"created":1547531148802,"version":0},"$loki":13},{"_id":"5c3d65bd3525a329e0c05381","address":"705 S Main St","location":{"type":"Point","coordinates":[-86.68299866,36.46900177]},"isApproved":true,"items":[],"keys":["Pizza","Italian","Chicken Wings"],"lastUpdated":1547527612346,"name":"Pizza Hut","phone":"(270) 586-9244","price":"","reviewCount":4,"reviewScore":3,"meta":{"revision":0,"created":1547531148802,"version":0},"$loki":14},{"_id":"5c3d65bd3525a329e0c11b46","address":"3416 Tom Austin Hwy","location":{"type":"Point","coordinates":[-86.6886600852013,36.4681999971076]},"isApproved":true,"items":[],"keys":["Greek"],"lastUpdated":1547527612652,"name":"Greek Style Gyro","phone":"(615) 384-7071","price":"$","reviewCount":19,"reviewScore":4.5,"meta":{"revision":0,"created":1547531148802,"version":0},"$loki":15},{"_id":"5c3d65bd3525a329e0c02f5a","address":"222 Wilkerson Ln","location":{"type":"Point","coordinates":[-86.677731,36.473142]},"isApproved":true,"items":[],"keys":["Sandwiches","Fast Food"],"lastUpdated":1547527612295,"name":"Subway","phone":"(615) 672-0530","price":"","reviewCount":1,"reviewScore":1,"meta":{"revision":0,"created":1547531148802,"version":0},"$loki":16},{"_id":"5c3d65bd3525a329e0c11650","address":"520 Highway 76","location":{"type":"Point","coordinates":[-86.6787599934545,36.4704852510726]},"isApproved":true,"items":[],"keys":["Sports Bars","American (Traditional)"],"lastUpdated":1547527612649,"name":"Tavern 76","phone":"(615) 285-7074","price":"","reviewCount":7,"reviewScore":2,"meta":{"revision":0,"created":1547531148802,"version":0},"$loki":17},{"_id":"5c3d65bd3525a329e0c196e3","address":"201 W Cedar St","location":{"type":"Point","coordinates":[-86.6799127,36.46674]},"isApproved":true,"items":[],"keys":["Donuts","Breakfast & Brunch","Bubble Tea"],"lastUpdated":1547527612841,"name":"Best Donuts","phone":"(270) 253-3312","price":"$","reviewCount":4,"reviewScore":4.5,"meta":{"revision":0,"created":1547531148802,"version":0},"$loki":18},{"_id":"5c3d65bd3525a329e0c1565f","address":"330 Hester Dr.","location":{"type":"Point","coordinates":[-86.678213,36.4684085]},"isApproved":true,"items":[],"keys":["Mexican","Tex-Mex","Fast Food"],"lastUpdated":1547527612746,"name":"Taco Bell","phone":"(615) 672-7779","price":"$","reviewCount":13,"reviewScore":2,"meta":{"revision":0,"created":1547531148802,"version":0},"$loki":19},{"_id":"5c3d65bd3525a329e0c02759","address":"1108 New Hwy 52","location":{"type":"Point","coordinates":[-86.6764694452286,36.4696219845195]},"isApproved":true,"items":[],"keys":["Fast Food","Burgers","Ice Cream & Frozen Yogurt"],"lastUpdated":1547527612284,"name":"Sonic Drive-In","phone":"(615) 644-4054","price":"","reviewCount":4,"reviewScore":3,"meta":{"revision":0,"created":1547531148802,"version":0},"$loki":20},{"_id":"5c3d65bd3525a329e0c05e34","address":"111 Highway 52 Byp W","location":{"type":"Point","coordinates":[-86.6773423,36.4694581]},"isApproved":true,"items":[],"keys":["Chinese","Buffets"],"lastUpdated":1547527612362,"name":"New China Buffet","phone":"(615) 666-5668","price":"$","reviewCount":3,"reviewScore":3,"meta":{"revision":0,"created":1547531148802,"version":0},"$loki":21},{"_id":"5c3d65bd3525a329e0c03570","address":"3538 Tom Austin Hwy","location":{"type":"Point","coordinates":[-86.6786842793226,36.4695855858511]},"isApproved":true,"items":[],"keys":["Chinese"],"lastUpdated":1547527612303,"name":"China One","phone":"(615) 985-2888","price":"$","reviewCount":9,"reviewScore":3.5,"meta":{"revision":0,"created":1547531148802,"version":0},"$loki":22},{"_id":"5c3d65bd3525a329e0c062e2","address":"3833 Nashville Rd","location":{"type":"Point","coordinates":[-86.6779758,36.4695277]},"isApproved":true,"items":[],"keys":["Diners","Breakfast & Brunch","Waffles"],"lastUpdated":1547527612369,"name":"Waffle House","phone":"(270) 586-5443","price":"$","reviewCount":9,"reviewScore":3.5,"meta":{"revision":0,"created":1547531148802,"version":0},"$loki":23},{"_id":"5c3d65bd3525a329e0c0b004","address":"301 N Broadway","location":{"type":"Point","coordinates":[-86.6764459758997,36.4708881083571]},"isApproved":true,"items":[],"keys":["Pizza","Italian","Chicken Wings"],"lastUpdated":1547527612491,"name":"Pizza Hut","phone":"(615) 325-5100","price":"$$","reviewCount":10,"reviewScore":3,"meta":{"revision":0,"created":1547531148802,"version":0},"$loki":24},{"_id":"5c3d65bd3525a329e0bffb00","address":"828 Hwy 76","location":{"type":"Point","coordinates":[-86.673732,36.4692979]},"isApproved":true,"items":[],"keys":["Diners","Breakfast & Brunch","American (Traditional)"],"lastUpdated":1547527612220,"name":"Waffle House","phone":"(615) 672-1313","price":"$","reviewCount":12,"reviewScore":3.5,"meta":{"revision":0,"created":1547531148802,"version":0},"$loki":25},{"_id":"5c3d65bd3525a329e0c06485","address":"4873 Hwy 52 W","location":{"type":"Point","coordinates":[-86.6732008382678,36.4693348389938]},"isApproved":true,"items":[],"keys":["Cafes"],"lastUpdated":1547527612371,"name":"Suzi Q’s Countryside Cafe & Market","phone":"(615) 688-4249","price":"","reviewCount":1,"reviewScore":3,"meta":{"revision":0,"created":1547531148802,"version":0},"$loki":26},{"_id":"5c3d65bd3525a329e0c13565","address":"200 8th Ave E","location":{"type":"Point","coordinates":[-86.6753327,36.4722512]},"isApproved":true,"items":[],"keys":["Barbeque"],"lastUpdated":1547527612696,"name":"Willie Mae’s Barbeque","phone":"(615) 384-8383","price":"$","reviewCount":36,"reviewScore":5,"meta":{"revision":0,"created":1547531148802,"version":0},"$loki":27},{"_id":"5c3d65bd3525a329e0c110eb","address":"1003 Hwy 76","location":{"type":"Point","coordinates":[-86.6615845338311,36.467973]},"isApproved":true,"items":[],"keys":["Breakfast & Brunch","American (Traditional)","Burgers"],"lastUpdated":1547527612641,"name":"IHOP","phone":"(615) 672-0261","price":"$","reviewCount":5,"reviewScore":3,"meta":{"revision":0,"created":1547531148802,"version":0},"$loki":28},{"_id":"5c3d65bd3525a329e0c15c4e","address":"126 N Main St","location":{"type":"Point","coordinates":[-86.6672864,36.4695438]},"isApproved":true,"items":[],"keys":["Coffee & Tea","Bakeries","Sandwiches"],"lastUpdated":1547527612754,"name":"The Black Sheep Cafe","phone":"(270) 813-1155","price":"$","reviewCount":14,"reviewScore":4,"meta":{"revision":0,"created":1547531148802,"version":0},"$loki":29},{"_id":"5c3d65bd3525a329e0c06fa0","address":"520 Hwy 76","location":{"type":"Point","coordinates":[-86.6670109,36.4704225]},"isApproved":true,"items":[],"keys":["Sandwiches","Fast Food"],"lastUpdated":1547527612388,"name":"Subway","phone":"(615) 672-7874","price":"","reviewCount":5,"reviewScore":2,"meta":{"revision":0,"created":1547531148802,"version":0},"$loki":30},{"_id":"5c3d65bd3525a329e0c09bc8","address":"401 Hwy 52","location":{"type":"Point","coordinates":[-86.6670109,36.4704225]},"isApproved":true,"items":[],"keys":["Fast Food","Ice Cream & Frozen Yogurt"],"lastUpdated":1547527612464,"name":"DQ Grill & Chill Restaurant","phone":"(615) 325-5828","price":"$","reviewCount":1,"reviewScore":4,"meta":{"revision":0,"created":1547531148802,"version":0},"$loki":31},{"_id":"5c3d65bd3525a329e0c0b61b","address":"692 Highway 76","location":{"type":"Point","coordinates":[-86.6670109,36.4704225]},"isApproved":true,"items":[],"keys":["Burgers","Fast Food"],"lastUpdated":1547527612499,"name":"Wendy’s","phone":"(615) 672-2360","price":"$","reviewCount":7,"reviewScore":2,"meta":{"revision":0,"created":1547531148802,"version":0},"$loki":32},{"_id":"5c3d65bd3525a329e0c12900","address":"445 Hwy 52 By-Pass","location":{"type":"Point","coordinates":[-86.6670109,36.4704225]},"isApproved":true,"items":[],"keys":["Mexican"],"lastUpdated":1547527612679,"name":"Agave’s Mexican Restaurant","phone":"(615) 666-4000","price":"$","reviewCount":4,"reviewScore":4,"meta":{"revision":0,"created":1547531148802,"version":0},"$loki":33},{"_id":"5c3d65bd3525a329e0c1806b","address":"3720 Dickerson Pike","location":{"type":"Point","coordinates":[-86.6670109,36.4704225]},"isApproved":true,"items":[],"keys":["Sushi Bars","Food Trucks"],"lastUpdated":1547527612803,"name":"Bang Bang Hibachi Grill & Sushi","phone":"(615) 578-7777","price":"$$","reviewCount":23,"reviewScore":4.5,"meta":{"revision":0,"created":1547531148802,"version":0},"$loki":34},{"_id":"5c3d65bd3525a329e0c130f0","address":"3516 Tom Austin Hwy","location":{"type":"Point","coordinates":[-86.6693371161819,36.469695051429]},"isApproved":true,"items":[],"keys":["Barbeque"],"lastUpdated":1547527612688,"name":"Whitts Barbecue","phone":"(615) 382-6887","price":"","reviewCount":7,"reviewScore":2.5,"meta":{"revision":0,"created":1547531148802,"version":0},"$loki":35},{"_id":"5c3d65bd3525a329e0c00901","address":"618 S Main St","location":{"type":"Point","coordinates":[-86.668723,36.469658]},"isApproved":true,"items":[],"keys":["Tea Rooms","Cafes"],"lastUpdated":1547527612229,"name":"Burdett’s Tea Shop & Trading Company","phone":"(615) 384-2320","price":"$$","reviewCount":23,"reviewScore":4.5,"meta":{"revision":0,"created":1547531148802,"version":0},"$loki":36},{"_id":"5c3d65bd3525a329e0c0d661","address":"149 Raymond Hirsch Pkwy","location":{"type":"Point","coordinates":[-86.6652367,36.4650935]},"isApproved":true,"items":[],"keys":["Pizza"],"lastUpdated":1547527612548,"name":"Papa John’s Pizza","phone":"(615) 672-5656","price":"$$","reviewCount":3,"reviewScore":2,"meta":{"revision":0,"created":1547531148802,"version":0},"$loki":37},{"_id":"5c3d65bd3525a329e0c17ebc","address":"1326 Nashville Rd","location":{"type":"Point","coordinates":[-86.6640834,36.4618067]},"isApproved":true,"items":[],"keys":["American (Traditional)","Seafood","Sports Bars"],"lastUpdated":1547527612802,"name":"OT Sports Grill","phone":"(270) 253-3581","price":"$$","reviewCount":12,"reviewScore":3.5,"meta":{"revision":0,"created":1547531148802,"version":0},"$loki":38},{"_id":"5c3d65bd3525a329e0c0715d","address":"532 Raymond Hirsch Blvd","location":{"type":"Point","coordinates":[-86.6619794,36.4601025]},"isApproved":true,"items":[],"keys":["Pizza","Italian"],"lastUpdated":1547527612390,"name":"Pizza Hut","phone":"(615) 672-2229","price":"$","reviewCount":14,"reviewScore":2,"meta":{"revision":0,"created":1547531148802,"version":0},"$loki":39},{"_id":"5c3d65bd3525a329e0c12718","address":"155 Steele Rd","location":{"type":"Point","coordinates":[-86.6770608723164,36.4459301165712]},"isApproved":true,"items":[],"keys":["Breakfast & Brunch","American (Traditional)","Southern"],"lastUpdated":1547527612671,"name":"Cracker Barrel Old Country Store","phone":"(270) 598-8812","price":"$$","reviewCount":28,"reviewScore":3.5,"meta":{"revision":0,"created":1547531148802,"version":0},"$loki":40},{"_id":"5c3d65bd3525a329e0c15cee","address":"5511 Austin Peay Hwy","location":{"type":"Point","coordinates":[-86.6726684570313,36.4532279968262]},"isApproved":true,"items":[],"keys":["Restaurants"],"lastUpdated":1547527612755,"name":"Cathy’s Country Cupboard","phone":"(615) 644-4142","price":"","reviewCount":7,"reviewScore":4.5,"meta":{"revision":0,"created":1547531148802,"version":0},"$loki":41},{"_id":"5c3d65bd3525a329e0c09203","address":"111 Main St","location":{"type":"Point","coordinates":[-86.6861458495259,36.4339387742705]},"isApproved":true,"items":[],"keys":["Cafes"],"lastUpdated":1547527612451,"name":"My Time Cafe","phone":"(615) 323-9068","price":"$","reviewCount":8,"reviewScore":3,"meta":{"revision":0,"created":1547531148802,"version":0},"$loki":42},{"_id":"5c3d65bd3525a329e0c15fe5","address":"1612 Memorial Blvd","location":{"type":"Point","coordinates":[-86.8570994486339,36.4892315176354]},"isApproved":true,"items":[],"keys":["Mexican"],"lastUpdated":1547527612756,"name":"Tacos Y Salsas","phone":"(615) 382-9181","price":"$","reviewCount":6,"reviewScore":4.5,"meta":{"revision":0,"created":1547531148802,"version":0},"$loki":43},{"_id":"5c3d65bd3525a329e0c08e79","address":"333 West Dr","location":{"type":"Point","coordinates":[-86.8856120375378,36.5086247766516]},"isApproved":true,"items":[],"keys":["Italian","Seafood"],"lastUpdated":1547527612438,"name":"Molipazzo","phone":"(615) 334-1268","price":"$$","reviewCount":63,"reviewScore":3.5,"meta":{"revision":0,"created":1547531148802,"version":0},"$loki":44},{"_id":"5c3d65bd3525a329e0c17312","address":"7716 Hwy 41 N","location":{"type":"Point","coordinates":[-86.8848496,36.5079608]},"isApproved":true,"items":[],"keys":["Southern","Burgers","Sandwiches"],"lastUpdated":1547527612783,"name":"Adams Station","phone":"(615) 696-1110","price":"$","reviewCount":12,"reviewScore":5,"meta":{"revision":0,"created":1547531148802,"version":0},"$loki":45},{"_id":"5c3d65bd3525a329e0c081b7","address":"1014 S Main St","location":{"type":"Point","coordinates":[-86.8849671,36.5077143]},"isApproved":true,"items":[],"keys":["Salvadoran"],"lastUpdated":1547527612419,"name":"Pupusaria Y Taqueria Tio Chilo","phone":"(615) 384-2000","price":"$","reviewCount":15,"reviewScore":4.5,"meta":{"revision":0,"created":1547531148802,"version":0},"$loki":46},{"_id":"5c3d65bd3525a329e0c16acf","address":"2747 Hwy 31 W","location":{"type":"Point","coordinates":[-86.8860904,36.5042017]},"isApproved":true,"items":[],"keys":["American (Traditional)","Steakhouses"],"lastUpdated":1547527612773,"name":"Colorado Grill","phone":"(615) 672-5364","price":"$$","reviewCount":103,"reviewScore":4,"meta":{"revision":0,"created":1547531148802,"version":0},"$loki":47},{"_id":"5c3d65bd3525a329e0c0ae95","address":"4000 Nashville Rd","location":{"type":"Point","coordinates":[-86.883991,36.5070176]},"isApproved":true,"items":[],"keys":["Mexican"],"lastUpdated":1547527612491,"name":"Sol Azteca Franklin","phone":"(270) 598-7777","price":"$","reviewCount":21,"reviewScore":3.5,"meta":{"revision":0,"created":1547531148802,"version":0},"$loki":48},{"_id":"5c3d65bd3525a329e0c07f07","address":"2012 D Memorial Blvd","location":{"type":"Point","coordinates":[-86.8847322463989,36.5077044972171]},"isApproved":true,"items":[],"keys":["Japanese","Sushi Bars"],"lastUpdated":1547527612418,"name":"Ichiban","phone":"(615) 382-1515","price":"$$","reviewCount":33,"reviewScore":4,"meta":{"revision":0,"created":1547531148802,"version":0},"$loki":49},{"_id":"5c3d65bd3525a329e0c18453","address":"3001 Highway 31 W","location":{"type":"Point","coordinates":[-86.8816471,36.5094913]},"isApproved":true,"items":[],"keys":["Pizza","Chicken Wings","Sandwiches"],"lastUpdated":1547527612814,"name":"Domino’s Pizza","phone":"(615) 672-7272","price":"","reviewCount":5,"reviewScore":3.5,"meta":{"revision":0,"created":1547531148802,"version":0},"$loki":50},{"_id":"5c3d65bd3525a329e0c024c6","address":"913 S Main St","location":{"type":"Point","coordinates":[-86.880744,36.503525]},"isApproved":true,"items":[],"keys":["Pizza"],"lastUpdated":1547527612277,"name":"Little Caesars","phone":"(270) 253-3535","price":"","reviewCount":1,"reviewScore":2,"meta":{"revision":0,"created":1547531148802,"version":0},"$loki":51},{"_id":"5c3d65bd3525a329e0c033c2","address":"1213 Scottsville Rd","location":{"type":"Point","coordinates":[-86.8817563,36.4993428]},"isApproved":true,"items":[],"keys":["Steakhouses","Salad","Burgers"],"lastUpdated":1547527612302,"name":"Grecian Steak House","phone":"(615) 666-2520","price":"$$","reviewCount":6,"reviewScore":2.5,"meta":{"revision":0,"created":1547531148802,"version":0},"$loki":52},{"_id":"5c3d65bd3525a329e0c031a3","address":"1377 Nashville Hwy","location":{"type":"Point","coordinates":[-86.8814247,36.497619]},"isApproved":true,"items":[],"keys":["Fast Food","Chicken Wings"],"lastUpdated":1547527612296,"name":"Popeyes Louisiana Kitchen","phone":"(270) 253-3622","price":"","reviewCount":2,"reviewScore":4.5,"meta":{"revision":0,"created":1547531148802,"version":0},"$loki":53},{"_id":"5c3d65bd3525a329e0c0b48f","address":"2404 US-31W","location":{"type":"Point","coordinates":[-86.8815981,36.4980445]},"isApproved":true,"items":[],"keys":["Chicken Wings","Pizza","Pubs"],"lastUpdated":1547527612499,"name":"White House Pizza and Pub","phone":"(615) 581-0185","price":"","reviewCount":24,"reviewScore":3.5,"meta":{"revision":0,"created":1547531148802,"version":0},"$loki":54},{"_id":"5c3d65bd3525a329e0c0ac87","address":"3535 Tom Austin Hwy","location":{"type":"Point","coordinates":[-86.8812,36.4962]},"isApproved":true,"items":[],"keys":["Sandwiches","Fast Food"],"lastUpdated":1547527612490,"name":"Subway","phone":"(615) 384-8983","price":"","reviewCount":6,"reviewScore":2,"meta":{"revision":0,"created":1547531148802,"version":0},"$loki":55},{"_id":"5c3d65bd3525a329e0c15b23","address":"520 Hwy 76","location":{"type":"Point","coordinates":[-86.8820486,36.4971912]},"isApproved":true,"items":[],"keys":["Steakhouses","Sushi Bars","Japanese"],"lastUpdated":1547527612753,"name":"Fuji Japanese Steakhouse","phone":"(615) 581-0052","price":"$$","reviewCount":12,"reviewScore":2,"meta":{"revision":0,"created":1547531148802,"version":0},"$loki":56},{"_id":"5c3d65bd3525a329e0c11974","address":"2003 Memorial Blvd","location":{"type":"Point","coordinates":[-86.8798548,36.4946864]},"isApproved":true,"items":[],"keys":["Diners","Breakfast & Brunch"],"lastUpdated":1547527612651,"name":"Shoney’s Restaurant","phone":"(615) 384-6837","price":"$","reviewCount":3,"reviewScore":1.5,"meta":{"revision":0,"created":1547531148802,"version":0},"$loki":57},{"_id":"5c3d65bd3525a329e0c05728","address":"2002 Memorial Blvd","location":{"type":"Point","coordinates":[-86.879321,36.495442]},"isApproved":true,"items":[],"keys":["Restaurants"],"lastUpdated":1547527612348,"name":"Hardee’s-Springfield","phone":"(615) 384-2969","price":"","reviewCount":4,"reviewScore":3,"meta":{"revision":0,"created":1547531148802,"version":0},"$loki":58},{"_id":"5c3d65bd3525a329e0c158ab","address":"2002 Memorial Blvd","location":{"type":"Point","coordinates":[-86.879321,36.495442]},"isApproved":true,"items":[],"keys":["Fast Food","American (Traditional)"],"lastUpdated":1547527612747,"name":"Hardees","phone":"(615) 746-5681","price":"$","reviewCount":1,"reviewScore":1,"meta":{"revision":0,"created":1547531148802,"version":0},"$loki":59},{"_id":"5c3d65bd3525a329e0c16ca7","address":"","location":{"type":"Point","coordinates":[-86.8773518409716,36.4932218740493]},"isApproved":true,"items":[],"keys":["Food Trucks","Barbeque"],"lastUpdated":1547527612774,"name":"Soul Fuel BBQ","phone":"(615) 294-2445","price":"$","reviewCount":15,"reviewScore":4.5,"meta":{"revision":0,"created":1547531148802,"version":0},"$loki":60},{"_id":"5c3d65bd3525a329e0c0b902","address":"106 Highway 52 W","location":{"type":"Point","coordinates":[-86.8773514,36.4943275]},"isApproved":true,"items":[],"keys":["Burgers","Fast Food"],"lastUpdated":1547527612507,"name":"Krystal","phone":"(615) 323-7681","price":"$","reviewCount":7,"reviewScore":2.5,"meta":{"revision":0,"created":1547531148802,"version":0},"$loki":61},{"_id":"5c3d65bd3525a329e0c098b8","address":"2100 Memorial Dr","location":{"type":"Point","coordinates":[-86.877231,36.494462]},"isApproved":true,"items":[],"keys":["Breakfast & Brunch","American (Traditional)","Waffles"],"lastUpdated":1547527612462,"name":"Waffle House","phone":"(615) 384-0567","price":"$","reviewCount":3,"reviewScore":1.5,"meta":{"revision":0,"created":1547531148802,"version":0},"$loki":62},{"_id":"5c3d65bd3525a329e0c124b3","address":"2018 Memorial Blvd","location":{"type":"Point","coordinates":[-86.878068,36.4947216]},"isApproved":true,"items":[],"keys":["Burgers"],"lastUpdated":1547527612670,"name":"Burger King","phone":"(615) 382-0083","price":"$","reviewCount":7,"reviewScore":2,"meta":{"revision":0,"created":1547531148802,"version":0},"$loki":63},{"_id":"5c3d65bd3525a329e0c04c72","address":"3555 Tom Austin Hwy","location":{"type":"Point","coordinates":[-86.877269,36.4957162]},"isApproved":true,"items":[],"keys":["Fast Food","Burgers","Ice Cream & Frozen Yogurt"],"lastUpdated":1547527612337,"name":"Sonic Drive-In","phone":"(615) 382-2160","price":"","reviewCount":1,"reviewScore":1,"meta":{"revision":0,"created":1547531148802,"version":0},"$loki":64},{"_id":"5c3d65bd3525a329e0c196cf","address":"631 Tennessee Highway 76 East","location":{"type":"Point","coordinates":[-86.8771864770788,36.4947191995258]},"isApproved":true,"items":[],"keys":["Seafood","Fast Food","American (Traditional)"],"lastUpdated":1547527612841,"name":"Captain D’s","phone":"(615) 581-0326","price":"","reviewCount":5,"reviewScore":4,"meta":{"revision":0,"created":1547531148802,"version":0},"$loki":65},{"_id":"5c3d65bd3525a329e0c052db","address":"2008A Memorial Blvd","location":{"type":"Point","coordinates":[-86.8756822,36.4937135]},"isApproved":true,"items":[],"keys":["Pizza"],"lastUpdated":1547527612346,"name":"Papa John’s Pizza","phone":"(615) 382-7272","price":"","reviewCount":3,"reviewScore":2,"meta":{"revision":0,"created":1547531148802,"version":0},"$loki":66},{"_id":"5c3d65bd3525a329e0bff479","address":"2666 Memorial Blvd","location":{"type":"Point","coordinates":[-86.86418,36.487426]},"isApproved":true,"items":[],"keys":["Pizza"],"lastUpdated":1547527612216,"name":"Jet’s Pizza","phone":"(615) 667-1557","price":"$$$","reviewCount":7,"reviewScore":3,"meta":{"revision":0,"created":1547531148802,"version":0},"$loki":67},{"_id":"5c3d65bd3525a329e0c00a47","address":"2540 Memorial Dr","location":{"type":"Point","coordinates":[-86.8652183816186,36.4879118710358]},"isApproved":true,"items":[],"keys":["Desserts","Ice Cream & Frozen Yogurt","American (New)"],"lastUpdated":1547527612230,"name":"Dairy Queen","phone":"(615) 384-7444","price":"$","reviewCount":6,"reviewScore":2.5,"meta":{"revision":0,"created":1547531148802,"version":0},"$loki":68},{"_id":"5c3d65bd3525a329e0c01255","address":"2123 Memorial Blvd","location":{"type":"Point","coordinates":[-86.8753170260106,36.4922337557819]},"isApproved":true,"items":[],"keys":["Seafood","Fast Food","American (Traditional)"],"lastUpdated":1547527612240,"name":"Captain D’s","phone":"(615) 384-8710","price":"","reviewCount":9,"reviewScore":2,"meta":{"revision":0,"created":1547531148802,"version":0},"$loki":69},{"_id":"5c3d65bd3525a329e0c0453d","address":"3509 Tom Austin Hwy","location":{"type":"Point","coordinates":[-86.879108,36.48916]},"isApproved":true,"items":[],"keys":["Fast Food","Chicken Wings","Salad"],"lastUpdated":1547527612323,"name":"Zaxby’s Chicken Fingers & Buffalo Wings","phone":"(615) 384-9611","price":"$","reviewCount":5,"reviewScore":4,"meta":{"revision":0,"created":1547531148802,"version":0},"$loki":70},{"_id":"5c3d65bd3525a329e0c02840","address":"2114 Memorial Blvd","location":{"type":"Point","coordinates":[-86.8790783,36.4891626]},"isApproved":true,"items":[],"keys":["Pizza","Chicken Wings","Sandwiches"],"lastUpdated":1547527612285,"name":"Domino’s Pizza","phone":"(615) 384-2100","price":"$","reviewCount":3,"reviewScore":2,"meta":{"revision":0,"created":1547531148802,"version":0},"$loki":71},{"_id":"5c3d65bd3525a329e0c0a07f","address":"2113 Memorial Blvd","location":{"type":"Point","coordinates":[-86.8779494,36.4902003]},"isApproved":true,"items":[],"keys":["Fast Food","Burgers","Coffee & Tea"],"lastUpdated":1547527612472,"name":"McDonald’s","phone":"(615) 384-6177","price":"$","reviewCount":7,"reviewScore":1.5,"meta":{"revision":0,"created":1547531148802,"version":0},"$loki":72},{"_id":"5c3d65bd3525a329e0c05749","address":"3548 Tom Austin Hwy","location":{"type":"Point","coordinates":[-86.8793846,36.4906228]},"isApproved":true,"items":[],"keys":["Bars","American (Traditional)"],"lastUpdated":1547527612349,"name":"Back Roads Bar and Grill","phone":"(615) 985-2030","price":"$","reviewCount":1,"reviewScore":1,"meta":{"revision":0,"created":1547531148802,"version":0},"$loki":73},{"_id":"5c3d65bd3525a329e0c03cf1","address":"803 Hwy 76","location":{"type":"Point","coordinates":[-86.880637230398,36.4910804146481]},"isApproved":true,"items":[],"keys":["American (Traditional)"],"lastUpdated":1547527612313,"name":"A&W Restaurant","phone":"(615) 285-0444","price":"$","reviewCount":8,"reviewScore":2,"meta":{"revision":0,"created":1547531148802,"version":0},"$loki":74},{"_id":"5c3d65bd3525a329e0c0f4e8","address":"3522 Tom Austin Hwy","location":{"type":"Point","coordinates":[-86.8809543400351,36.4897740255117]},"isApproved":true,"items":[],"keys":["Pizza","Italian","Chicken Wings"],"lastUpdated":1547527612592,"name":"Pizza Hut","phone":"(615) 384-4600","price":"","reviewCount":7,"reviewScore":2.5,"meta":{"revision":0,"created":1547531148802,"version":0},"$loki":75},{"_id":"5c3d65bd3525a329e0c12e39","address":"608 S Main St","location":{"type":"Point","coordinates":[-86.8809342384338,36.4886914582751]},"isApproved":true,"items":[],"keys":["Seafood","Fast Food","American (Traditional)"],"lastUpdated":1547527612681,"name":"Captain D’s","phone":"(270) 586-6311","price":"","reviewCount":3,"reviewScore":2.5,"meta":{"revision":0,"created":1547531148802,"version":0},"$loki":76},{"_id":"5c3d65bd3525a329e0c14c20","address":"3497 Tom Austin Hwy.","location":{"type":"Point","coordinates":[-86.881204,36.488811]},"isApproved":true,"items":[],"keys":["Fast Food","Mexican","Tex-Mex"],"lastUpdated":1547527612729,"name":"Taco Bell","phone":"(615) 384-6409","price":"$","reviewCount":15,"reviewScore":1,"meta":{"revision":0,"created":1547531148802,"version":0},"$loki":77},{"_id":"5c3d65bd3525a329e0c12bdc","address":"629 S Broadway","location":{"type":"Point","coordinates":[-86.885731,36.4852171]},"isApproved":true,"items":[],"keys":["Sushi Bars","Japanese"],"lastUpdated":1547527612680,"name":"Bento Japanese Express","phone":"(615) 325-8988","price":"$","reviewCount":16,"reviewScore":4,"meta":{"revision":0,"created":1547531148802,"version":0},"$loki":78},{"_id":"5c3d65bd3525a329e0c12f43","address":"803 Hwy76","location":{"type":"Point","coordinates":[-86.8858093,36.4857256]},"isApproved":true,"items":[],"keys":["Fast Food","Chicken Wings","Chicken Shop"],"lastUpdated":1547527612687,"name":"KFC","phone":"(615) 285-0444","price":"","reviewCount":4,"reviewScore":2,"meta":{"revision":0,"created":1547531148802,"version":0},"$loki":79},{"_id":"5c3d65bd3525a329e0c107c8","address":"300 Richard Wilks Rd","location":{"type":"Point","coordinates":[-86.8856562,36.4863922]},"isApproved":true,"items":[],"keys":["Chinese"],"lastUpdated":1547527612619,"name":"China Spring","phone":"(615) 672-3330","price":"$","reviewCount":7,"reviewScore":4,"meta":{"revision":0,"created":1547531148802,"version":0},"$loki":80},{"_id":"5c3d65bd3525a329e0c15cad","address":"1503 Memorial Blvd","location":{"type":"Point","coordinates":[-86.8824942297918,36.4999509316182]},"isApproved":true,"items":[],"keys":["Mexican"],"lastUpdated":1547527612755,"name":"El Vaquero","phone":"","price":"$","reviewCount":2,"reviewScore":3.5,"meta":{"revision":0,"created":1547531148802,"version":0},"$loki":81},{"_id":"5c3d65bd3525a329e0c1a886","address":"1303 Memorial Blvd","location":{"type":"Point","coordinates":[-86.8824404,36.500746]},"isApproved":true,"items":[],"keys":["Fast Food","Sandwiches"],"lastUpdated":1547527612867,"name":"Arby’s","phone":"(615) 384-6077","price":"","reviewCount":3,"reviewScore":2.5,"meta":{"revision":0,"created":1547531148802,"version":0},"$loki":82},{"_id":"5c3d65bd3525a329e0c0c232","address":"1506 Memorial Blvd","location":{"type":"Point","coordinates":[-86.8836277,36.5016154]},"isApproved":true,"items":[],"keys":["Chinese"],"lastUpdated":1547527612517,"name":"Fortune Village","phone":"(615) 384-6435","price":"$$","reviewCount":12,"reviewScore":4,"meta":{"revision":0,"created":1547531148802,"version":0},"$loki":83},{"_id":"5c3d65bd3525a329e0c0d167","address":"1007 Highway 76","location":{"type":"Point","coordinates":[-86.8858649082014,36.5035424217954]},"isApproved":true,"items":[],"keys":["Mexican"],"lastUpdated":1547527612545,"name":"El Ranchero Mexican Grill and Bar","phone":"(615) 672-4666","price":"$$","reviewCount":18,"reviewScore":4,"meta":{"revision":0,"created":1547531148802,"version":0},"$loki":84},{"_id":"5c3d65bd3525a329e0c1a94f","address":"1055 Doris Winters Rd","location":{"type":"Point","coordinates":[-86.8868278,36.5001006]},"isApproved":true,"items":[],"keys":["Barbeque","Seafood","Burgers"],"lastUpdated":1547527612867,"name":"Robert Head’s B-B-Q","phone":"(615) 247-8621","price":"","reviewCount":6,"reviewScore":4.5,"meta":{"revision":0,"created":1547531148802,"version":0},"$loki":85},{"_id":"5c3d65bd3525a329e0c168ee","address":"410 Jefferson St","location":{"type":"Point","coordinates":[-87.0055389404297,36.5539820860037]},"isApproved":true,"items":[],"keys":["Barbeque"],"lastUpdated":1547527612772,"name":"Dunn’s B-B Q","phone":"(270) 586-5115","price":"$","reviewCount":5,"reviewScore":3.5,"meta":{"revision":0,"created":1547531148802,"version":0},"$loki":86},{"_id":"5c3d65bd3525a329e0c0269c","address":"5500 Highway 31 W","location":{"type":"Point","coordinates":[-86.968214,36.553152]},"isApproved":true,"items":[],"keys":["Sandwiches","Delis"],"lastUpdated":1547527612284,"name":"Quiznos","phone":"(615) 325-1159","price":"","reviewCount":1,"reviewScore":1,"meta":{"revision":0,"created":1547531148802,"version":0},"$loki":87},{"_id":"5c3d65bd3525a329e0c0a356","address":"1107 W 7th St","location":{"type":"Point","coordinates":[-86.9056851,36.8315539]},"isApproved":true,"items":[],"keys":["Burgers","Fast Food"],"lastUpdated":1547527612474,"name":"Wendy’s","phone":"(270) 707-7490","price":"$","reviewCount":1,"reviewScore":2,"meta":{"revision":0,"created":1547531148802,"version":0},"$loki":88},{"_id":"5c3d65bd3525a329e0c020b4","address":"300 Clinic Dr","location":{"type":"Point","coordinates":[-86.9063505633682,36.8327129778097]},"isApproved":true,"items":[],"keys":["Burgers"],"lastUpdated":1547527612275,"name":"Burger King","phone":"","price":"","reviewCount":1,"reviewScore":1,"meta":{"revision":0,"created":1547531148802,"version":0},"$loki":89},{"_id":"5c3d65bd3525a329e0c05f15","address":"7612 State Rt 93 S","location":{"type":"Point","coordinates":[-86.9084172,36.8287211]},"isApproved":true,"items":[],"keys":["American (New)"],"lastUpdated":1547527612367,"name":"Echo Charlie’s Bayside Restaurant","phone":"(270) 388-2271","price":"$$","reviewCount":8,"reviewScore":3.5,"meta":{"revision":0,"created":1547531148802,"version":0},"$loki":90},{"_id":"5c3d65bd3525a329e0c066b2","address":"54 Public Sq","location":{"type":"Point","coordinates":[-86.91208,36.833848]},"isApproved":true,"items":[],"keys":["Mexican"],"lastUpdated":1547527612378,"name":"El Torito Mexican Restaurant","phone":"(270) 265-3904","price":"","reviewCount":4,"reviewScore":4,"meta":{"revision":0,"created":1547531148802,"version":0},"$loki":91},{"_id":"5c3d65bd3525a329e0c154e3","address":"4570 Fort Campbell Blvd","location":{"type":"Point","coordinates":[-86.91702,36.8287415827915]},"isApproved":true,"items":[],"keys":["Fast Food","Ice Cream & Frozen Yogurt","Salad"],"lastUpdated":1547527612745,"name":"Dairy Queen","phone":"(270) 886-6500","price":"","reviewCount":5,"reviewScore":2.5,"meta":{"revision":0,"created":1547531148802,"version":0},"$loki":92},{"_id":"5c3d65bd3525a329e0c1024d","address":"138 Clif Garrett Dr","location":{"type":"Point","coordinates":[-87.0660414,36.5824153]},"isApproved":true,"items":[],"keys":["Barbeque"],"lastUpdated":1547527612617,"name":"The Bar-B-Que Place","phone":"(615) 672-3444","price":"$$","reviewCount":37,"reviewScore":4,"meta":{"revision":0,"created":1547531148802,"version":0},"$loki":93},{"_id":"5c3d65bd3525a329e0c099dd","address":"3050 Fort Campbell Blvd","location":{"type":"Point","coordinates":[-86.891087,36.850628]},"isApproved":true,"items":[],"keys":["Fast Food"],"lastUpdated":1547527612463,"name":"Hardee’s","phone":"(270) 887-9142","price":"$","reviewCount":5,"reviewScore":1.5,"meta":{"revision":0,"created":1547531148802,"version":0},"$loki":94},{"_id":"5c3d65bd3525a329e0c08cbc","address":"39 Days Inn Dr","location":{"type":"Point","coordinates":[-86.8912406265736,36.8511800057907]},"isApproved":true,"items":[],"keys":["Fast Food","Burgers"],"lastUpdated":1547527612436,"name":"Wendy’s","phone":"(270) 388-0373","price":"$","reviewCount":10,"reviewScore":3.5,"meta":{"revision":0,"created":1547531148802,"version":0},"$loki":95},{"_id":"5c3d65bd3525a329e0c0a80e","address":"530 US Hwy 62 W","location":{"type":"Point","coordinates":[-86.8911086,36.8516574]},"isApproved":true,"items":[],"keys":["Mexican","Fast Food"],"lastUpdated":1547527612482,"name":"Taco John’s","phone":"(270) 365-7112","price":"$","reviewCount":9,"reviewScore":3.5,"meta":{"revision":0,"created":1547531148802,"version":0},"$loki":96},{"_id":"5c3d65bd3525a329e0c088a4","address":"1110 W 9th St","location":{"type":"Point","coordinates":[-86.8905,36.8504]},"isApproved":true,"items":[],"keys":["Fast Food","Sandwiches"],"lastUpdated":1547527612428,"name":"Arby’s","phone":"(270) 726-6252","price":"$$","reviewCount":3,"reviewScore":3,"meta":{"revision":0,"created":1547531148802,"version":0},"$loki":97},{"_id":"5c3d65bd3525a329e0c17926","address":"82 US Hwy 62 W","location":{"type":"Point","coordinates":[-86.892761,36.850823]},"isApproved":true,"items":[],"keys":["Burgers","Fast Food","Coffee & Tea"],"lastUpdated":1547527612792,"name":"McDonald’s","phone":"(270) 388-5347","price":"$","reviewCount":10,"reviewScore":3,"meta":{"revision":0,"created":1547531148802,"version":0},"$loki":98},{"_id":"5c3d65bd3525a329e0c1998e","address":"2920 Ft Campbell Blvd","location":{"type":"Point","coordinates":[-86.8986665,36.8446434]},"isApproved":true,"items":[],"keys":["Sandwiches"],"lastUpdated":1547527612843,"name":"Jersey Mike’s Subs","phone":"(270) 886-2060","price":"$","reviewCount":9,"reviewScore":4,"meta":{"revision":0,"created":1547531148802,"version":0},"$loki":99},{"_id":"5c3d65bd3525a329e0c0868f","address":"1709 Lake Barkley Dr","location":{"type":"Point","coordinates":[-86.8925043,36.8434731]},"isApproved":true,"items":[],"keys":["American (New)"],"lastUpdated":1547527612427,"name":"hu-bs","phone":"(270) 388-9563","price":"","reviewCount":3,"reviewScore":4.5,"meta":{"revision":0,"created":1547531148802,"version":0},"$loki":100},{"_id":"5c3d65bd3525a329e0c14b05","address":"73 Days Inn Drive","location":{"type":"Point","coordinates":[-86.88894,36.847937]},"isApproved":true,"items":[],"keys":["Breakfast & Brunch","American (Traditional)","Diners"],"lastUpdated":1547527612728,"name":"Huddle House","phone":"(270) 388-0811","price":"$","reviewCount":23,"reviewScore":3,"meta":{"revision":0,"created":1547531148802,"version":0},"$loki":101},{"_id":"5c3d65bd3525a329e0c1137c","address":"530 Lake Malone Rd","location":{"type":"Point","coordinates":[-86.8868474,36.8448841]},"isApproved":true,"items":[],"keys":["Hotels","Restaurants"],"lastUpdated":1547527612642,"name":"Shady Cliff Restaurant Lodge & Marina","phone":"(270) 657-9580","price":"","reviewCount":5,"reviewScore":3.5,"meta":{"revision":0,"created":1547531148802,"version":0},"$loki":102},{"_id":"5c3d65bd3525a329e0c107a1","address":"9110 US Hwy 431 S","location":{"type":"Point","coordinates":[-86.872913,36.843868]},"isApproved":true,"items":[],"keys":["Pizza","Chicken Wings"],"lastUpdated":1547527612619,"name":"Stix Pizza & Wingz","phone":"(270) 657-2580","price":"","reviewCount":2,"reviewScore":4.5,"meta":{"revision":0,"created":1547531148802,"version":0},"$loki":103},{"_id":"5c3d65bd3525a329e0c190c1","address":"1135 W 7th St","location":{"type":"Point","coordinates":[-86.8705498,36.8431975]},"isApproved":true,"items":[],"keys":["Mexican"],"lastUpdated":1547527612832,"name":"Dos Bros","phone":"(270) 887-6000","price":"","reviewCount":3,"reviewScore":1,"meta":{"revision":0,"created":1547531148802,"version":0},"$loki":104},{"_id":"5c3d65bd3525a329e0c0affd","address":"118 W 6th Ave","location":{"type":"Point","coordinates":[-86.5968816,36.5901198]},"isApproved":true,"items":[],"keys":["Cafes","Burgers"],"lastUpdated":1547527612491,"name":"The Copper Vault","phone":"(615) 985-2155","price":"$$","reviewCount":64,"reviewScore":3.5,"meta":{"revision":0,"created":1547531148802,"version":0},"$loki":105},{"_id":"5c3d65bd3525a329e0c06308","address":"150 Pearl Dr","location":{"type":"Point","coordinates":[-86.5922891,36.5895801]},"isApproved":true,"items":[],"keys":["Pizza","Italian"],"lastUpdated":1547527612369,"name":"Rafael’s Pizzeria & Italian Restaurant","phone":"(706) 638-8433","price":"$","reviewCount":2,"reviewScore":3.5,"meta":{"revision":0,"created":1547531148802,"version":0},"$loki":106},{"_id":"5c3d65bd3525a329e0c178db","address":"2354 Highway 41 S","location":{"type":"Point","coordinates":[-86.5824,36.725546]},"isApproved":true,"items":[],"keys":["Mexican"],"lastUpdated":1547527612792,"name":"Jose’s Mexican Restaurant","phone":"(615) 643-5511","price":"$","reviewCount":21,"reviewScore":4.5,"meta":{"revision":0,"created":1547531148802,"version":0},"$loki":107},{"_id":"5c3d65bd3525a329e0c14315","address":"105 State St","location":{"type":"Point","coordinates":[-86.5793161,36.7222559]},"isApproved":true,"items":[],"keys":["Barbeque"],"lastUpdated":1547527612713,"name":"Wildfire BBQ & Grill","phone":"(270) 586-5227","price":"$","reviewCount":56,"reviewScore":4.5,"meta":{"revision":0,"created":1547531148802,"version":0},"$loki":108},{"_id":"5c3d65bd3525a329e0c0af08","address":"1002 Memorial Blvd","location":{"type":"Point","coordinates":[-86.5792755,36.7222504]},"isApproved":true,"items":[],"keys":["Mexican"],"lastUpdated":1547527612491,"name":"Antojitos Dona Ana","phone":"","price":"$","reviewCount":8,"reviewScore":4.5,"meta":{"revision":0,"created":1547531148802,"version":0},"$loki":109},{"_id":"5c3d65bd3525a329e0c02c55","address":"1602 Memorial Blvd","location":{"type":"Point","coordinates":[-86.5776951199675,36.7228927194576]},"isApproved":true,"items":[],"keys":["Mexican"],"lastUpdated":1547527612293,"name":"Fonda El Pocito","phone":"(615) 985-2097","price":"","reviewCount":1,"reviewScore":4,"meta":{"revision":0,"created":1547531148802,"version":0},"$loki":110},{"_id":"5c3d65bd3525a329e0c09527","address":"2100 Memorial Blvd","location":{"type":"Point","coordinates":[-86.5757958,36.712084]},"isApproved":true,"items":[],"keys":["Mexican"],"lastUpdated":1547527612453,"name":"El Molcajete Mexican Restaurant","phone":"(615) 382-9200","price":"$$","reviewCount":38,"reviewScore":3.5,"meta":{"revision":0,"created":1547531148802,"version":0},"$loki":111},{"_id":"5c3d65bd3525a329e0c0d967","address":"847 S Main St","location":{"type":"Point","coordinates":[-86.575868,36.708454]},"isApproved":true,"items":[],"keys":["Fast Food","Mexican"],"lastUpdated":1547527612555,"name":"Taco Bell","phone":"(270) 586-5808","price":"$","reviewCount":2,"reviewScore":1,"meta":{"revision":0,"created":1547531148802,"version":0},"$loki":112},{"_id":"5c3d65bd3525a329e0c0df37","address":"807 S Main St","location":{"type":"Point","coordinates":[-86.5758352,36.7091822]},"isApproved":true,"items":[],"keys":["Fast Food"],"lastUpdated":1547527612564,"name":"Hardee’s","phone":"(270) 586-7795","price":"","reviewCount":1,"reviewScore":1,"meta":{"revision":0,"created":1547531148802,"version":0},"$loki":113},{"_id":"5c3d65bd3525a329e0c026ca","address":"3418 Tom Austin Hwy","location":{"type":"Point","coordinates":[-86.5759141,36.7105308]},"isApproved":true,"items":[],"keys":["Mexican"],"lastUpdated":1547527612284,"name":"El Alteno Mexican Restaurant","phone":"(615) 382-5023","price":"$$","reviewCount":8,"reviewScore":3,"meta":{"revision":0,"created":1547531148802,"version":0},"$loki":114},{"_id":"5c3d65bd3525a329e0c134fb","address":"4580 E Robertson Rd","location":{"type":"Point","coordinates":[-86.5757367,36.7101715]},"isApproved":true,"items":[],"keys":["Women's Clothing","Home Decor","Cafes"],"lastUpdated":1547527612695,"name":"Dandelions Marketplace and Cafe","phone":"(615) 379-1474","price":"","reviewCount":3,"reviewScore":4.5,"meta":{"revision":0,"created":1547531148802,"version":0},"$loki":115},{"_id":"5c3d65bd3525a329e0c1a00c","address":"403 S Broadway St","location":{"type":"Point","coordinates":[-86.5757551312828,36.7108393990942]},"isApproved":true,"items":[],"keys":["Burgers","Ice Cream & Frozen Yogurt","Fast Food"],"lastUpdated":1547527612857,"name":"Sonic Drive-In","phone":"(615) 325-7767","price":"$","reviewCount":8,"reviewScore":2.5,"meta":{"revision":0,"created":1547531148802,"version":0},"$loki":116},{"_id":"5c3d65bd3525a329e0c12346","address":"103 W McGlothlin St","location":{"type":"Point","coordinates":[-86.5740003,36.7102445]},"isApproved":true,"items":[],"keys":["American (New)","Salad","Sandwiches"],"lastUpdated":1547527612669,"name":"5 Chefs","phone":"(615) 325-9508","price":"$$","reviewCount":25,"reviewScore":3.5,"meta":{"revision":0,"created":1547531148802,"version":0},"$loki":117},{"_id":"5c3d65bd3525a329e0c125a1","address":"800 Highway 76","location":{"type":"Point","coordinates":[-86.5752143,36.7064192]},"isApproved":true,"items":[],"keys":["Fast Food","Chicken Wings","Salad"],"lastUpdated":1547527612671,"name":"Zaxby’s Chicken Fingers & Buffalo Wings","phone":"(615) 334-1347","price":"$","reviewCount":10,"reviewScore":4,"meta":{"revision":0,"created":1547531148802,"version":0},"$loki":118},{"_id":"5c3d65bd3525a329e0c11a32","address":"1442 Nashville Rd","location":{"type":"Point","coordinates":[-86.5707689379957,36.6947080381689]},"isApproved":true,"items":[],"keys":["Sushi Bars","Chinese"],"lastUpdated":1547527612651,"name":"Tokyo Express","phone":"(270) 586-1757","price":"","reviewCount":6,"reviewScore":4,"meta":{"revision":0,"created":1547531148802,"version":0},"$loki":119},{"_id":"5c3d65bd3525a329e0c0aaf8","address":"1214 Scottsville Rd","location":{"type":"Point","coordinates":[-86.5705328,36.6959657]},"isApproved":true,"items":[],"keys":["Pizza"],"lastUpdated":1547527612489,"name":"Pep A Ronis","phone":"(615) 688-7664","price":"","reviewCount":4,"reviewScore":5,"meta":{"revision":0,"created":1547531148802,"version":0},"$loki":120},{"_id":"5c3d65bd3525a329e0c17b2f","address":"412 Martin Subdivision St","location":{"type":"Point","coordinates":[-86.5705328,36.6959657]},"isApproved":true,"items":[],"keys":["Restaurants"],"lastUpdated":1547527612799,"name":"Proffitt Joe","phone":"(270) 487-8320","price":"","reviewCount":1,"reviewScore":5,"meta":{"revision":0,"created":1547531148802,"version":0},"$loki":121},{"_id":"5c3d65bd3525a329e0c12c17","address":"418 HIGHWAY 52 W","location":{"type":"Point","coordinates":[-86.571964,36.696492]},"isApproved":true,"items":[],"keys":["Tex-Mex","Fast Food","Mexican"],"lastUpdated":1547527612680,"name":"Taco Bell","phone":"(615) 325-7005","price":"","reviewCount":6,"reviewScore":3.5,"meta":{"revision":0,"created":1547531148802,"version":0},"$loki":122},{"_id":"5c3d65bd3525a329e0c0ebd2","address":"2437 Highway 41 S","location":{"type":"Point","coordinates":[-86.572293,36.6976]},"isApproved":true,"items":[],"keys":["Salvadoran"],"lastUpdated":1547527612582,"name":"Pupuseria y Taqueria La Migueleña","phone":"(615) 545-0475","price":"","reviewCount":2,"reviewScore":5,"meta":{"revision":0,"created":1547531148802,"version":0},"$loki":123},{"_id":"5c3d65bd3525a329e0c08089","address":"107 W 4th St","location":{"type":"Point","coordinates":[-86.571463,36.698343]},"isApproved":true,"items":[],"keys":["Burgers"],"lastUpdated":1547527612419,"name":"Dovie’s","phone":"","price":"$","reviewCount":16,"reviewScore":4.5,"meta":{"revision":0,"created":1547531148802,"version":0},"$loki":124},{"_id":"5c3d65bd3525a329e0c08863","address":"7062 Bethel Rd","location":{"type":"Point","coordinates":[-86.571463,36.698343]},"isApproved":true,"items":[],"keys":["Breakfast & Brunch"],"lastUpdated":1547527612428,"name":"Little Ruster Country Store","phone":"(615) 863-2679","price":"","reviewCount":1,"reviewScore":5,"meta":{"revision":0,"created":1547531148802,"version":0},"$loki":125},{"_id":"5c3d65bd3525a329e0c06488","address":"530 Hwy 76","location":{"type":"Point","coordinates":[-86.5255873,36.7179114]},"isApproved":true,"items":[],"keys":["Desserts","Fast Food"],"lastUpdated":1547527612371,"name":"Dairy Queen","phone":"(615) 559-5004","price":"$","reviewCount":3,"reviewScore":3.5,"meta":{"revision":0,"created":1547531148802,"version":0},"$loki":126},{"_id":"5c3d65bd3525a329e0c1607c","address":"459 N Broadway","location":{"type":"Point","coordinates":[-86.5246402,36.7125834]},"isApproved":true,"items":[],"keys":["Mexican"],"lastUpdated":1547527612756,"name":"Tacos Mi Jalisco","phone":"","price":"","reviewCount":4,"reviewScore":4.5,"meta":{"revision":0,"created":1547531148802,"version":0},"$loki":127},{"_id":"5c3d65bd3525a329e0c034df","address":"520 Hwy 76","location":{"type":"Point","coordinates":[-86.5576588,36.6664501]},"isApproved":true,"items":[],"keys":["Chinese"],"lastUpdated":1547527612303,"name":"Mr Wok","phone":"(615) 672-6878","price":"$","reviewCount":8,"reviewScore":4.5,"meta":{"revision":0,"created":1547531148802,"version":0},"$loki":128},{"_id":"5c3d65bd3525a329e0c0ba09","address":"709 S Main St","location":{"type":"Point","coordinates":[-86.55638667793,36.6674559920475]},"isApproved":true,"items":[],"keys":["Soul Food","Comfort Food","Burgers"],"lastUpdated":1547527612507,"name":"Rylan’s Restaurant","phone":"(270) 253-3198","price":"$","reviewCount":27,"reviewScore":4,"meta":{"revision":0,"created":1547531148802,"version":0},"$loki":129},{"_id":"5c3d65bd3525a329e0c186d3","address":"704 S Main St","location":{"type":"Point","coordinates":[-86.556358,36.667551]},"isApproved":true,"items":[],"keys":["Coffee & Tea","Sandwiches"],"lastUpdated":1547527612815,"name":"Historic Perk","phone":"(615) 667-1312","price":"$","reviewCount":19,"reviewScore":4.5,"meta":{"revision":0,"created":1547531148802,"version":0},"$loki":130},{"_id":"5c3d65bd3525a329e0c1a523","address":"501 Hester Dr","location":{"type":"Point","coordinates":[-86.5548896,36.6633056]},"isApproved":true,"items":[],"keys":["Fast Food"],"lastUpdated":1547527612859,"name":"Hardee’s","phone":"(615) 672-5229","price":"$","reviewCount":3,"reviewScore":2.5,"meta":{"revision":0,"created":1547531148802,"version":0},"$loki":131},{"_id":"5c3d65bd3525a329e0c102b4","address":"634 N Broadway","location":{"type":"Point","coordinates":[-86.5535840392113,36.6627841618397]},"isApproved":true,"items":[],"keys":["Sandwiches","Fast Food"],"lastUpdated":1547527612617,"name":"Subway","phone":"(615) 325-1748","price":"","reviewCount":1,"reviewScore":5,"meta":{"revision":0,"created":1547531148802,"version":0},"$loki":132},{"_id":"5c3d65bd3525a329e0c1115f","address":"125 Wilkinson Ln","location":{"type":"Point","coordinates":[-86.5586249,36.6697824]},"isApproved":true,"items":[],"keys":["Fast Food","Burgers"],"lastUpdated":1547527612641,"name":"Burger King","phone":"(615) 581-0820","price":"","reviewCount":4,"reviewScore":2.5,"meta":{"revision":0,"created":1547531148802,"version":0},"$loki":133},{"_id":"5c3d65bd3525a329e0c1aca5","address":"107 E 7th Ave","location":{"type":"Point","coordinates":[-86.557917,36.6690813]},"isApproved":true,"items":[],"keys":["American (New)"],"lastUpdated":1547527612874,"name":"Public House","phone":"(615) 380-8063","price":"","reviewCount":5,"reviewScore":4.5,"meta":{"revision":0,"created":1547531148802,"version":0},"$loki":134},{"_id":"5c3d65bd3525a329e0c0542b","address":"110 Steele Rd","location":{"type":"Point","coordinates":[-86.5586353093386,36.6685428402378]},"isApproved":true,"items":[],"keys":["Fast Food","Burgers","Coffee & Tea"],"lastUpdated":1547527612347,"name":"McDonald’s","phone":"(270) 586-8985","price":"$","reviewCount":16,"reviewScore":1.5,"meta":{"revision":0,"created":1547531148802,"version":0},"$loki":135},{"_id":"5c3d65bd3525a329e0c10d9b","address":"121 Main St","location":{"type":"Point","coordinates":[-86.5584701064619,36.6682005110109]},"isApproved":true,"items":[],"keys":["Mexican"],"lastUpdated":1547527612633,"name":"El Azteca Mexican Restaurant","phone":"(615) 325-0095","price":"$","reviewCount":8,"reviewScore":3.5,"meta":{"revision":0,"created":1547531148802,"version":0},"$loki":136},{"_id":"5c3d65bd3525a329e0c12376","address":"608 N Broadway","location":{"type":"Point","coordinates":[-86.533617,36.6005926]},"isApproved":true,"items":[],"keys":["Barbeque"],"lastUpdated":1547527612669,"name":"The Barbecue Pit","phone":"(615) 323-7878","price":"$","reviewCount":6,"reviewScore":4.5,"meta":{"revision":0,"created":1547531148802,"version":0},"$loki":137},{"_id":"5c3d65bd3525a329e0c07edb","address":"611 9th Ave S","location":{"type":"Point","coordinates":[-86.5240088,36.5913102]},"isApproved":true,"items":[],"keys":["Cooking Classes","Tapas Bars","American (New)"],"lastUpdated":1547527612417,"name":"The Chef & I","phone":"(615) 730-8496","price":"$$","reviewCount":213,"reviewScore":4.5,"meta":{"revision":0,"created":1547531148802,"version":0},"$loki":138},{"_id":"5c3d65bd3525a329e0c11b9d","address":"1007 S Main St","location":{"type":"Point","coordinates":[-86.5259227,36.5914712]},"isApproved":true,"items":[],"keys":["American (Traditional)"],"lastUpdated":1547527612659,"name":"Depot Bar And Grill","phone":"(615) 382-8584","price":"$$","reviewCount":114,"reviewScore":4.5,"meta":{"revision":0,"created":1547531148802,"version":0},"$loki":139},{"_id":"5c3d65bd3525a329e0c0ff0b","address":"304 S Broadway","location":{"type":"Point","coordinates":[-86.5283352728088,36.5939593267764]},"isApproved":true,"items":[],"keys":["Fast Food","Sandwiches"],"lastUpdated":1547527612609,"name":"Arby’s","phone":"(615) 323-7200","price":"$","reviewCount":5,"reviewScore":3.5,"meta":{"revision":0,"created":1547531148802,"version":0},"$loki":140},{"_id":"5c3d65bd3525a329e0c11889","address":"3200 Highway 25","location":{"type":"Point","coordinates":[-86.5229937806726,36.5894126821228]},"isApproved":true,"items":[],"keys":["Restaurants"],"lastUpdated":1547527612650,"name":"Johnson’s Crossroads Cafe & Market","phone":"(615) 323-1566","price":"","reviewCount":4,"reviewScore":5,"meta":{"revision":0,"created":1547531148802,"version":0},"$loki":141},{"_id":"5c3d65bd3525a329e0c0dd36","address":"699 Lafayette Rd","location":{"type":"Point","coordinates":[-86.5217002,36.5885252]},"isApproved":true,"items":[],"keys":["Seafood","Mexican"],"lastUpdated":1547527612563,"name":"Manantial Restaurant","phone":"(615) 699-8226","price":"","reviewCount":2,"reviewScore":4,"meta":{"revision":0,"created":1547531148802,"version":0},"$loki":142},{"_id":"5c3d65bd3525a329e0c16a71","address":"441 Hwy 52 Bypass W","location":{"type":"Point","coordinates":[-86.52415,36.57721]},"isApproved":true,"items":[],"keys":["Chinese"],"lastUpdated":1547527612773,"name":"Tray’s Garden Chinese Restaurant","phone":"(615) 666-6688","price":"","reviewCount":5,"reviewScore":4,"meta":{"revision":0,"created":1547531148802,"version":0},"$loki":143},{"_id":"5c3d65bd3525a329e0c14988","address":"219 Main St","location":{"type":"Point","coordinates":[-86.522496,36.576944]},"isApproved":true,"items":[],"keys":["American (Traditional)"],"lastUpdated":1547527612728,"name":"Nannie jo’s","phone":"(270) 434-2150","price":"$","reviewCount":1,"reviewScore":4,"meta":{"revision":0,"created":1547531148802,"version":0},"$loki":144},{"_id":"5c3d65bd3525a329e0c0be8c","address":"31 W","location":{"type":"Point","coordinates":[-86.5164859593187,36.5762593160468]},"isApproved":true,"items":[],"keys":["American (New)"],"lastUpdated":1547527612515,"name":"DQ Grill And Chill","phone":"","price":"","reviewCount":1,"reviewScore":4,"meta":{"revision":0,"created":1547531148802,"version":0},"$loki":145},{"_id":"5c3d65bd3525a329e0c07af7","address":"3085 Old Gallatin Rd","location":{"type":"Point","coordinates":[-86.5167497,36.5757622]},"isApproved":true,"items":[],"keys":["Seafood"],"lastUpdated":1547527612410,"name":"Harpers Catfish","phone":"(270) 622-7557","price":"$","reviewCount":24,"reviewScore":4,"meta":{"revision":0,"created":1547531148802,"version":0},"$loki":146},{"_id":"5c3d65bd3525a329e0c16c6c","address":"140 W Knight St","location":{"type":"Point","coordinates":[-86.5162539,36.5750423]},"isApproved":true,"items":[],"keys":["Pizza"],"lastUpdated":1547527612774,"name":"Papa John’s Pizza","phone":"(615) 325-7272","price":"","reviewCount":1,"reviewScore":1,"meta":{"revision":0,"created":1547531148802,"version":0},"$loki":147},{"_id":"5c3d65bd3525a329e0c0149e","address":"526 Hwy 76","location":{"type":"Point","coordinates":[-86.5162,36.5754467]},"isApproved":true,"items":[],"keys":["Mexican"],"lastUpdated":1547527612249,"name":"Los Jalapeños","phone":"(615) 672-4251","price":"$$","reviewCount":26,"reviewScore":4,"meta":{"revision":0,"created":1547531148802,"version":0},"$loki":148},{"_id":"5c3d65bd3525a329e0c0d60d","address":"152 W Knight St","location":{"type":"Point","coordinates":[-86.5140603,36.5779189]},"isApproved":true,"items":[],"keys":["Japanese","Chinese","Sushi Bars"],"lastUpdated":1547527612548,"name":"Hibachi Sushi Buffet","phone":"(615) 323-7000","price":"$$","reviewCount":5,"reviewScore":3,"meta":{"revision":0,"created":1547531148802,"version":0},"$loki":149},{"_id":"5c3d65bd3525a329e0c16e2d","address":"217 S Jackson St","location":{"type":"Point","coordinates":[-86.5140603,36.5779189]},"isApproved":true,"items":[],"keys":["Barbeque"],"lastUpdated":1547527612780,"name":"R&S BBQ","phone":"(270) 487-1008","price":"","reviewCount":6,"reviewScore":5,"meta":{"revision":0,"created":1547531148802,"version":0},"$loki":150},{"_id":"5c3d65bd3525a329e0c1a10b","address":"856 Highway 76","location":{"type":"Point","coordinates":[-86.5140603,36.5779189]},"isApproved":true,"items":[],"keys":["Burgers","Fast Food","Coffee & Tea"],"lastUpdated":1547527612857,"name":"McDonald’s","phone":"(615) 672-2957","price":"$","reviewCount":14,"reviewScore":2,"meta":{"revision":0,"created":1547531148802,"version":0},"$loki":151},{"_id":"5c3d65bd3525a329e0c07c4d","address":"1055 Dorris Winters Rd","location":{"type":"Point","coordinates":[-86.5140591,36.5779197]},"isApproved":true,"items":[],"keys":["Barbeque","Seafood","Burgers"],"lastUpdated":1547527612410,"name":"Heads BBQ","phone":"(615) 247-8621","price":"","reviewCount":6,"reviewScore":3.5,"meta":{"revision":0,"created":1547531148802,"version":0},"$loki":152},{"_id":"5c3d65bd3525a329e0c10e71","address":"520 Highway 76","location":{"type":"Point","coordinates":[-86.5147799,36.5758382]},"isApproved":true,"items":[],"keys":["Pizza"],"lastUpdated":1547527612634,"name":"Little Caesars","phone":"(615) 672-0038","price":"","reviewCount":4,"reviewScore":3,"meta":{"revision":0,"created":1547531148802,"version":0},"$loki":153},{"_id":"5c3d65bd3525a329e0c19ca4","address":"301 White House Crossing Way,","location":{"type":"Point","coordinates":[-86.5146423951591,36.5753400763164]},"isApproved":true,"items":[],"keys":["Fast Food","Sandwiches"],"lastUpdated":1547527612850,"name":"Arby’s","phone":"(615) 672-5253","price":"","reviewCount":3,"reviewScore":2.5,"meta":{"revision":0,"created":1547531148802,"version":0},"$loki":154},{"_id":"5c3d65bd3525a329e0c0130a","address":"304 S Broadway","location":{"type":"Point","coordinates":[-86.512866,36.570207]},"isApproved":true,"items":[],"keys":["Chinese"],"lastUpdated":1547527612241,"name":"Mr Wok","phone":"(615) 325-2688","price":"$","reviewCount":14,"reviewScore":3.5,"meta":{"revision":0,"created":1547531148802,"version":0},"$loki":155},{"_id":"5c3d65bd3525a329e0c09b80","address":"3655 Dunn Rd","location":{"type":"Point","coordinates":[-86.5134099,36.571621]},"isApproved":true,"items":[],"keys":["Barbeque"],"lastUpdated":1547527612464,"name":"Mike’s Old Fashioned Bbq","phone":"(615) 696-1111","price":"","reviewCount":1,"reviewScore":5,"meta":{"revision":0,"created":1547531148802,"version":0},"$loki":156},{"_id":"5c3d65bd3525a329e0c14678","address":"5102 Austin Peay Hwy","location":{"type":"Point","coordinates":[-86.514794,36.580471]},"isApproved":true,"items":[],"keys":["Grocery","Pizza"],"lastUpdated":1547527612715,"name":"Buffet Pizza","phone":"(615) 644-3658","price":"","reviewCount":1,"reviewScore":4,"meta":{"revision":0,"created":1547531148802,"version":0},"$loki":157},{"_id":"5c3d65bd3525a329e0c14116","address":"1272 Gamaliel Rd","location":{"type":"Point","coordinates":[-86.515089,36.5803749]},"isApproved":true,"items":[],"keys":["American (New)","Burgers","Seafood"],"lastUpdated":1547527612707,"name":"The Eatin’ Table","phone":"(270) 457-2111","price":"$$","reviewCount":4,"reviewScore":5,"meta":{"revision":0,"created":1547531148802,"version":0},"$loki":158},{"_id":"5c3d65bd3525a329e0c16f1c","address":"148 W Knight St","location":{"type":"Point","coordinates":[-86.515089,36.5803749]},"isApproved":true,"items":[],"keys":["Mexican"],"lastUpdated":1547527612781,"name":"Senor Fajitas","phone":"(615) 325-1996","price":"$","reviewCount":19,"reviewScore":4,"meta":{"revision":0,"created":1547531148802,"version":0},"$loki":159},{"_id":"5c3d65bd3525a329e0bffc30","address":"3535 Tom Austin Hwy","location":{"type":"Point","coordinates":[-86.5158373,36.5818278]},"isApproved":true,"items":[],"keys":["American (Traditional)","Burgers","Southern"],"lastUpdated":1547527612221,"name":"O’Charley’s Restaurant & Bar","phone":"(615) 382-3321","price":"$$","reviewCount":22,"reviewScore":2.5,"meta":{"revision":0,"created":1547531148802,"version":0},"$loki":160},{"_id":"5c3d65bd3525a329e0c06b57","address":"603 Broadway","location":{"type":"Point","coordinates":[-86.5172117,36.582095]},"isApproved":true,"items":[],"keys":["Salad","American (Traditional)","Sandwiches"],"lastUpdated":1547527612385,"name":"109 Family Restaurant","phone":"(615) 325-6996","price":"$","reviewCount":18,"reviewScore":3.5,"meta":{"revision":0,"created":1547531148802,"version":0},"$loki":161},{"_id":"5c3d65bd3525a329e0c03126","address":"4227 Nashville Rd","location":{"type":"Point","coordinates":[-86.5164117,36.5832303]},"isApproved":true,"items":[],"keys":["Burgers"],"lastUpdated":1547527612296,"name":"Burger King","phone":"(270) 598-0249","price":"$$","reviewCount":5,"reviewScore":1.5,"meta":{"revision":0,"created":1547531148802,"version":0},"$loki":162},{"_id":"5c3d65bd3525a329e0c13cb8","address":"7837 Hwy 25 E","location":{"type":"Point","coordinates":[-86.4986676,36.5777603]},"isApproved":true,"items":[],"keys":["Barbeque"],"lastUpdated":1547527612705,"name":"True’s Barbeque","phone":"(615) 654-2838","price":"$","reviewCount":4,"reviewScore":3,"meta":{"revision":0,"created":1547531148802,"version":0},"$loki":163},{"_id":"5c3d65bd3525a329e0c103e0","address":"2299 US Highway 62 W","location":{"type":"Point","coordinates":[-86.4808043,36.9685219]},"isApproved":true,"items":[],"keys":["Delis","Sandwiches"],"lastUpdated":1547527612617,"name":"Quiznos","phone":"(270) 388-8196","price":"","reviewCount":3,"reviewScore":1.5,"meta":{"revision":0,"created":1547531148802,"version":0},"$loki":164},{"_id":"5c3d65bd3525a329e0c1278f","address":"","location":{"type":"Point","coordinates":[-86.4808043,36.9685219]},"isApproved":true,"items":[],"keys":["Food Trucks","Tacos","Sandwiches"],"lastUpdated":1547527612672,"name":"Pop’s Street Eats","phone":"(270) 799-2755","price":"","reviewCount":1,"reviewScore":2,"meta":{"revision":0,"created":1547531148802,"version":0},"$loki":165}],"idIndex":[1,2,3,4,5,6,7,8,9,10,11,12,13,14,15,16,17,18,19,20,21,22,23,24,25,26,27,28,29,30,31,32,33,34,35,36,37,38,39,40,41,42,43,44,45,46,47,48,49,50,51,52,53,54,55,56,57,58,59,60,61,62,63,64,65,66,67,68,69,70,71,72,73,74,75,76,77,78,79,80,81,82,83,84,85,86,87,88,89,90,91,92,93,94,95,96,97,98,99,100,101,102,103,104,105,106,107,108,109,110,111,112,113,114,115,116,117,118,119,120,121,122,123,124,125,126,127,128,129,130,131,132,133,134,135,136,137,138,139,140,141,142,143,144,145,146,147,148,149,150,151,152,153,154,155,156,157,158,159,160,161,162,163,164,165],"binaryIndices":{},"constraints":null,"uniqueNames":[],"transforms":{},"objType":"restaurants","dirty":true,"cachedIndex":null,"cachedBinaryIndex":null,"cachedData":null,"adaptiveBinaryIndices":true,"transactional":false,"cloneObjects":false,"cloneMethod":"parse-stringify","asyncListeners":false,"disableMeta":false,"disableChangesApi":true,"disableDeltaChangesApi":true,"autoupdate":false,"serializableIndices":true,"ttl":null,"maxId":165,"DynamicViews":[],"events":{"insert":[],"update":[],"pre-insert":[],"pre-update":[],"close":[],"flushbuffer":[],"error":[],"delete":[null],"warning":[null]},"changes":[]}],"databaseVersion":1.5,"engineVersion":1.5,"autosave":false,"autosaveInterval":5000,"autosaveHandle":null,"throttledSaves":true,"options":{"serializationMethod":"normal","destructureDelimiter":"$<\n"},"persistenceMethod":"fs","persistenceAdapter":null,"verbose":false,"events":{"init":[null],"loaded":[],"flushChanges":[],"close":[],"changes":[],"warning":[]},"ENV":"NODEJS"}