{"filename":"-87-39.75","collections":[{"name":"restaurants","data":[{"_id":"5c3d65bd3525a329e0c03eae","address":"1185 Sagamore Pkwy W","location":{"type":"Point","coordinates":[-86.9031399,40.0437853]},"isApproved":true,"items":[],"keys":["Delis","Bakeries","Gift Shops"],"lastUpdated":1547527612313,"name":"The Homestead","phone":"(765) 838-1590","price":"","reviewCount":5,"reviewScore":4,"meta":{"revision":0,"created":1547531151364,"version":0},"$loki":1},{"_id":"5c3d65bd3525a329e0c044d5","address":"110 S Union St","location":{"type":"Point","coordinates":[-86.9055303033178,40.0430392691601]},"isApproved":true,"items":[],"keys":["Breweries","American (Traditional)"],"lastUpdated":1547527612322,"name":"Grand Junction Brewing","phone":"(317) 804-5168","price":"$$","reviewCount":123,"reviewScore":3.5,"meta":{"revision":0,"created":1547531151364,"version":0},"$loki":2},{"_id":"5c3d65bd3525a329e0c09a42","address":"230 Main St","location":{"type":"Point","coordinates":[-86.9081323,40.050186]},"isApproved":true,"items":[],"keys":["American (New)","Cocktail Bars"],"lastUpdated":1547527612463,"name":"Angry Donkey","phone":"(765) 249-5344","price":"","reviewCount":11,"reviewScore":5,"meta":{"revision":0,"created":1547531151364,"version":0},"$loki":3},{"_id":"5c3d65bd3525a329e0c13b75","address":"1100 E 2nd St","location":{"type":"Point","coordinates":[-86.8804724,40.0476469]},"isApproved":true,"items":[],"keys":["American (Traditional)"],"lastUpdated":1547527612704,"name":"Apple Tree","phone":"(765) 294-2273","price":"$","reviewCount":5,"reviewScore":4,"meta":{"revision":0,"created":1547531151364,"version":0},"$loki":4},{"_id":"5c3d65bd3525a329e0c09def","address":"1408 Darlington Ave","location":{"type":"Point","coordinates":[-86.8797764,40.0471025]},"isApproved":true,"items":[],"keys":["Chinese"],"lastUpdated":1547527612471,"name":"Beijing Chinese Restaurant","phone":"(765) 359-1885","price":"$","reviewCount":14,"reviewScore":4.5,"meta":{"revision":0,"created":1547531151364,"version":0},"$loki":5},{"_id":"5c3d65bd3525a329e0c0a833","address":"101 W Washington","location":{"type":"Point","coordinates":[-86.8822053,40.0455669]},"isApproved":true,"items":[],"keys":["Videos & Video Game Rental","Pizza"],"lastUpdated":1547527612482,"name":"Waynetown Pizza King","phone":"(765) 234-2133","price":"$","reviewCount":4,"reviewScore":5,"meta":{"revision":0,"created":1547531151364,"version":0},"$loki":6},{"_id":"5c3d65bd3525a329e0c02582","address":"1114 E Main St","location":{"type":"Point","coordinates":[-86.885741,40.0421198]},"isApproved":true,"items":[],"keys":["Sandwiches","Ice Cream & Frozen Yogurt"],"lastUpdated":1547527612278,"name":"Dari-Licious","phone":"(765) 307-2342","price":"$","reviewCount":33,"reviewScore":4,"meta":{"revision":0,"created":1547531151364,"version":0},"$loki":7},{"_id":"5c3d65bd3525a329e0c0cb81","address":"210 E Pike St","location":{"type":"Point","coordinates":[-86.8995372,40.0426886]},"isApproved":true,"items":[],"keys":["Mexican"],"lastUpdated":1547527612533,"name":"Las Cazuelas","phone":"(765) 362-7033","price":"$","reviewCount":3,"reviewScore":4.5,"meta":{"revision":0,"created":1547531151364,"version":0},"$loki":8},{"_id":"5c3d65bd3525a329e0c0f8af","address":"20813 Hague Rd","location":{"type":"Point","coordinates":[-86.8995372,40.0426886]},"isApproved":true,"items":[],"keys":["Pizza"],"lastUpdated":1547527612600,"name":"Pizza by the Harbour","phone":"(317) 674-0044","price":"$$","reviewCount":26,"reviewScore":4.5,"meta":{"revision":0,"created":1547531151364,"version":0},"$loki":9},{"_id":"5c3d65bd3525a329e0c10413","address":"848 E Jefferson St","location":{"type":"Point","coordinates":[-86.8995372,40.0426886]},"isApproved":true,"items":[],"keys":["Mexican","Tex-Mex","Cocktail Bars"],"lastUpdated":1547527612618,"name":"Los Portales Mexican Restaurant","phone":"(765) 675-2289","price":"$","reviewCount":10,"reviewScore":3.5,"meta":{"revision":0,"created":1547531151364,"version":0},"$loki":10},{"_id":"5c3d65bd3525a329e0c12d13","address":"200 S Main St","location":{"type":"Point","coordinates":[-86.8995372,40.0426886]},"isApproved":true,"items":[],"keys":["Chicken Wings","Pizza","Sandwiches"],"lastUpdated":1547527612681,"name":"Jan’s Village Pizza","phone":"(317) 758-6660","price":"","reviewCount":2,"reviewScore":1,"meta":{"revision":0,"created":1547531151364,"version":0},"$loki":11},{"_id":"5c3d65bd3525a329e0c13972","address":"172 Logan St","location":{"type":"Point","coordinates":[-86.8995372,40.0426886]},"isApproved":true,"items":[],"keys":["Delis","Grocery"],"lastUpdated":1547527612698,"name":"Kroger","phone":"(317) 776-3344","price":"","reviewCount":16,"reviewScore":3,"meta":{"revision":0,"created":1547531151364,"version":0},"$loki":12},{"_id":"5c3d65bd3525a329e0c145dd","address":"211 E Main St","location":{"type":"Point","coordinates":[-86.8995372,40.0426886]},"isApproved":true,"items":[],"keys":["Mexican"],"lastUpdated":1547527612715,"name":"Little Mexico","phone":"(765) 361-1042","price":"$$","reviewCount":61,"reviewScore":4,"meta":{"revision":0,"created":1547531151364,"version":0},"$loki":13},{"_id":"5c3d65bd3525a329e0c161f1","address":"2470 N Lebanon St","location":{"type":"Point","coordinates":[-86.8995372,40.0426886]},"isApproved":true,"items":[],"keys":["American (Traditional)","Chicken Wings","Sports Bars"],"lastUpdated":1547527612763,"name":"Buffalo Wild Wings","phone":"(765) 481-2500","price":"$$","reviewCount":17,"reviewScore":2,"meta":{"revision":0,"created":1547531151364,"version":0},"$loki":14},{"_id":"5c3d65bd3525a329e0c0deda","address":"5643 Pebble Village Ln","location":{"type":"Point","coordinates":[-86.9015,40.0443]},"isApproved":true,"items":[],"keys":["Japanese"],"lastUpdated":1547527612564,"name":"OEC Japanese Cuisine","phone":"(317) 804-2988","price":"$","reviewCount":20,"reviewScore":4.5,"meta":{"revision":0,"created":1547531151364,"version":0},"$loki":15},{"_id":"5c3d65bd3525a329e0c03ded","address":"127 W Market St","location":{"type":"Point","coordinates":[-86.900012308784,40.0430514599537]},"isApproved":true,"items":[],"keys":["Pizza","Sandwiches","Salad"],"lastUpdated":1547527612313,"name":"Mama Fazio’s Pizza","phone":"(765) 362-3676","price":"$$","reviewCount":12,"reviewScore":3,"meta":{"revision":0,"created":1547531151364,"version":0},"$loki":16},{"_id":"5c3d65bd3525a329e0c118cd","address":"2000 E Wabash St","location":{"type":"Point","coordinates":[-86.901219,40.043333]},"isApproved":true,"items":[],"keys":["Mexican"],"lastUpdated":1547527612650,"name":"El Jaripeo 5","phone":"(765) 654-9580","price":"","reviewCount":8,"reviewScore":4,"meta":{"revision":0,"created":1547531151364,"version":0},"$loki":17},{"_id":"5c3d65bd3525a329e0c12587","address":"120 N Washington St","location":{"type":"Point","coordinates":[-86.9018326,40.042685]},"isApproved":true,"items":[],"keys":["Mexican","Food Trucks","Tex-Mex"],"lastUpdated":1547527612670,"name":"Mitchell’s Mexican Grill","phone":"(765) 564-6868","price":"$","reviewCount":8,"reviewScore":4.5,"meta":{"revision":0,"created":1547531151364,"version":0},"$loki":18},{"_id":"5c3d65bd3525a329e0c0cd41","address":"1005 Candle View Ln","location":{"type":"Point","coordinates":[-86.9011821,40.0414859]},"isApproved":true,"items":[],"keys":["American (Traditional)","Breakfast & Brunch","Southern"],"lastUpdated":1547527612534,"name":"Cracker Barrel Old Country Store","phone":"(765) 362-5097","price":"$$","reviewCount":55,"reviewScore":3,"meta":{"revision":0,"created":1547531151364,"version":0},"$loki":19},{"_id":"5c3d65bd3525a329e0c0ac29","address":"111 W Main St","location":{"type":"Point","coordinates":[-86.901594,40.0411892]},"isApproved":true,"items":[],"keys":["American (New)","Breweries","Beer Bar"],"lastUpdated":1547527612490,"name":"People’s Revel Room","phone":"(765) 391-0123","price":"$","reviewCount":55,"reviewScore":4,"meta":{"revision":0,"created":1547531151364,"version":0},"$loki":20},{"_id":"5c3d65bd3525a329e0c115c0","address":"105 W Main St","location":{"type":"Point","coordinates":[-86.9001638,40.0410242]},"isApproved":true,"items":[],"keys":["Italian","Pizza"],"lastUpdated":1547527612649,"name":"Greek’s Pizzeria","phone":"(765) 859-5005","price":"$","reviewCount":12,"reviewScore":4.5,"meta":{"revision":0,"created":1547531151364,"version":0},"$loki":21},{"_id":"5c3d65bd3525a329e0c115fe","address":"114 E Main St","location":{"type":"Point","coordinates":[-86.8998461589217,40.0412522455515]},"isApproved":true,"items":[],"keys":["Pizza"],"lastUpdated":1547527612649,"name":"The Lost Frontier","phone":"(765) 436-2288","price":"$","reviewCount":8,"reviewScore":4.5,"meta":{"revision":0,"created":1547531151364,"version":0},"$loki":22},{"_id":"5c3d65bd3525a329e0c1852a","address":"212 S Lebanon St","location":{"type":"Point","coordinates":[-86.8998807,40.0414158]},"isApproved":true,"items":[],"keys":["American (Traditional)","Breakfast & Brunch","Cafes"],"lastUpdated":1547527612815,"name":"Bekah’s Westside Cafe","phone":"(765) 482-5605","price":"$","reviewCount":53,"reviewScore":4.5,"meta":{"revision":0,"created":1547531151364,"version":0},"$loki":23},{"_id":"5c3d65bd3525a329e0c0901d","address":"1410 Darlington Ave","location":{"type":"Point","coordinates":[-86.9009068,40.0417017]},"isApproved":true,"items":[],"keys":["American (Traditional)","Breakfast & Brunch"],"lastUpdated":1547527612439,"name":"The Forum","phone":"(765) 361-8751","price":"$","reviewCount":23,"reviewScore":3,"meta":{"revision":0,"created":1547531151364,"version":0},"$loki":24},{"_id":"5c3d65bd3525a329e0c07500","address":"1400 Mckinley Ave","location":{"type":"Point","coordinates":[-86.8996975,40.0417181]},"isApproved":true,"items":[],"keys":["Mexican","American (Traditional)","Hot Dogs"],"lastUpdated":1547527612400,"name":"Los Amigos","phone":"(765) 659-5530","price":"","reviewCount":2,"reviewScore":5,"meta":{"revision":0,"created":1547531151364,"version":0},"$loki":25},{"_id":"5c3d65bd3525a329e0c03a33","address":"2301 E Wabash St","location":{"type":"Point","coordinates":[-86.8992239,40.040799]},"isApproved":true,"items":[],"keys":["Breakfast & Brunch","Venues & Event Spaces"],"lastUpdated":1547527612311,"name":"The King Of The Pancake House","phone":"(765) 601-4033","price":"","reviewCount":3,"reviewScore":3.5,"meta":{"revision":0,"created":1547531151364,"version":0},"$loki":26}],"idIndex":[1,2,3,4,5,6,7,8,9,10,11,12,13,14,15,16,17,18,19,20,21,22,23,24,25,26],"binaryIndices":{},"constraints":null,"uniqueNames":[],"transforms":{},"objType":"restaurants","dirty":true,"cachedIndex":null,"cachedBinaryIndex":null,"cachedData":null,"adaptiveBinaryIndices":true,"transactional":false,"cloneObjects":false,"cloneMethod":"parse-stringify","asyncListeners":false,"disableMeta":false,"disableChangesApi":true,"disableDeltaChangesApi":true,"autoupdate":false,"serializableIndices":true,"ttl":null,"maxId":26,"DynamicViews":[],"events":{"insert":[],"update":[],"pre-insert":[],"pre-update":[],"close":[],"flushbuffer":[],"error":[],"delete":[null],"warning":[null]},"changes":[]}],"databaseVersion":1.5,"engineVersion":1.5,"autosave":false,"autosaveInterval":5000,"autosaveHandle":null,"throttledSaves":true,"options":{"serializationMethod":"normal","destructureDelimiter":"$<\n"},"persistenceMethod":"fs","persistenceAdapter":null,"verbose":false,"events":{"init":[null],"loaded":[],"flushChanges":[],"close":[],"changes":[],"warning":[]},"ENV":"NODEJS"}