{"filename":"-87.75-36","collections":[{"name":"restaurants","data":[{"_id":"5c3d65bd3525a329e0c0ed6d","address":"10715 Highway 192","location":{"type":"Point","coordinates":[-88.0848192796111,35.8643272425237]},"isApproved":true,"items":[],"keys":["Southern","Seafood","Barbeque"],"lastUpdated":1547527612582,"name":"Shands Fish N BBQ","phone":"(731) 584-3010","price":"","reviewCount":5,"reviewScore":5,"meta":{"revision":0,"created":1547531149839,"version":0},"$loki":1},{"_id":"5c3d65bd3525a329e0c06fb0","address":"14765 Hwy 641 S","location":{"type":"Point","coordinates":[-88.0865202602422,35.8474231619436]},"isApproved":true,"items":[],"keys":["Burgers"],"lastUpdated":1547527612388,"name":"Sandy’s Burger Barn","phone":"(731) 584-4902","price":"$","reviewCount":33,"reviewScore":4.5,"meta":{"revision":0,"created":1547531149839,"version":0},"$loki":2},{"_id":"5c3d65bd3525a329e0c143e0","address":"15060 Hwy 641 S","location":{"type":"Point","coordinates":[-88.084816,35.843056]},"isApproved":true,"items":[],"keys":["Gas Stations","Convenience Stores","American (Traditional)"],"lastUpdated":1547527612714,"name":"North Forty Truck Stop","phone":"(731) 584-5163","price":"$","reviewCount":25,"reviewScore":4,"meta":{"revision":0,"created":1547531149839,"version":0},"$loki":3},{"_id":"5c3d65bd3525a329e0c04366","address":"1620 Toms Creek Rd","location":{"type":"Point","coordinates":[-87.9579496,35.7424606]},"isApproved":true,"items":[],"keys":["Burgers"],"lastUpdated":1547527612321,"name":"Chicks Grill","phone":"(931) 593-3015","price":"","reviewCount":1,"reviewScore":5,"meta":{"revision":0,"created":1547531149839,"version":0},"$loki":4},{"_id":"5c3d65bd3525a329e0c1afe5","address":"15913 Hwy 13 S","location":{"type":"Point","coordinates":[-87.803466,35.87761]},"isApproved":true,"items":[],"keys":["Food Court"],"lastUpdated":1547527612876,"name":"Serrano’s","phone":"","price":"","reviewCount":1,"reviewScore":5,"meta":{"revision":0,"created":1547531149839,"version":0},"$loki":5},{"_id":"5c3d65bd3525a329e0bff9a1","address":"15530 Hwy 13 S","location":{"type":"Point","coordinates":[-87.7993488,35.8822336]},"isApproved":true,"items":[],"keys":["American (Traditional)"],"lastUpdated":1547527612219,"name":"The Log Cabin","phone":"(931) 296-5311","price":"$$","reviewCount":160,"reviewScore":4,"meta":{"revision":0,"created":1547531149839,"version":0},"$loki":6},{"_id":"5c3d65bd3525a329e0c01c98","address":"15579 Highway 13 S","location":{"type":"Point","coordinates":[-87.8005868,35.881572]},"isApproved":true,"items":[],"keys":["Fast Food","Sandwiches"],"lastUpdated":1547527612259,"name":"Arby’s","phone":"(931) 296-9004","price":"$$","reviewCount":5,"reviewScore":2,"meta":{"revision":0,"created":1547531149839,"version":0},"$loki":7},{"_id":"5c3d65bd3525a329e0c06014","address":"15521 Hwy 13 S","location":{"type":"Point","coordinates":[-87.800278,35.883347]},"isApproved":true,"items":[],"keys":["Barbeque"],"lastUpdated":1547527612368,"name":"Rochelle’s Bar None BBQ","phone":"(931) 296-4499","price":"$$","reviewCount":96,"reviewScore":4.5,"meta":{"revision":0,"created":1547531149839,"version":0},"$loki":8},{"_id":"5c3d65bd3525a329e0c13974","address":"15366 Hwy 13 S","location":{"type":"Point","coordinates":[-87.7977937980497,35.884606323443]},"isApproved":true,"items":[],"keys":["American (Traditional)","Soul Food","Southern"],"lastUpdated":1547527612698,"name":"Loretta Lynn’s Kitchen","phone":"(931) 296-1122","price":"$$","reviewCount":110,"reviewScore":2.5,"meta":{"revision":0,"created":1547531149839,"version":0},"$loki":9},{"_id":"5c3d65bd3525a329e0c02cf1","address":"15371 Hwy 13 S","location":{"type":"Point","coordinates":[-87.7991183,35.8846977]},"isApproved":true,"items":[],"keys":["Seafood","Steakhouses","American (Traditional)"],"lastUpdated":1547527612293,"name":"Jen’s Steak and Seafood","phone":"(931) 412-1188","price":"$$","reviewCount":12,"reviewScore":3,"meta":{"revision":0,"created":1547531149839,"version":0},"$loki":10},{"_id":"5c3d65bd3525a329e0c09f39","address":"275 S Main St","location":{"type":"Point","coordinates":[-87.783874,35.767964]},"isApproved":true,"items":[],"keys":["Barbeque"],"lastUpdated":1547527612472,"name":"Hott’s BBQ","phone":"(931) 593-2001","price":"$","reviewCount":5,"reviewScore":5,"meta":{"revision":0,"created":1547531149839,"version":0},"$loki":11},{"_id":"5c3d65bd3525a329e0c0a72b","address":"313 N Main St","location":{"type":"Point","coordinates":[-87.7821940183639,35.7758221716357]},"isApproved":true,"items":[],"keys":["Gas Stations","Fast Food"],"lastUpdated":1547527612481,"name":"Speedy B’s","phone":"(931) 593-3443","price":"$","reviewCount":1,"reviewScore":4,"meta":{"revision":0,"created":1547531149839,"version":0},"$loki":12}],"idIndex":[1,2,3,4,5,6,7,8,9,10,11,12],"binaryIndices":{},"constraints":null,"uniqueNames":[],"transforms":{},"objType":"restaurants","dirty":true,"cachedIndex":null,"cachedBinaryIndex":null,"cachedData":null,"adaptiveBinaryIndices":true,"transactional":false,"cloneObjects":false,"cloneMethod":"parse-stringify","asyncListeners":false,"disableMeta":false,"disableChangesApi":true,"disableDeltaChangesApi":true,"autoupdate":false,"serializableIndices":true,"ttl":null,"maxId":12,"DynamicViews":[],"events":{"insert":[],"update":[],"pre-insert":[],"pre-update":[],"close":[],"flushbuffer":[],"error":[],"delete":[null],"warning":[null]},"changes":[]}],"databaseVersion":1.5,"engineVersion":1.5,"autosave":false,"autosaveInterval":5000,"autosaveHandle":null,"throttledSaves":true,"options":{"serializationMethod":"normal","destructureDelimiter":"$<\n"},"persistenceMethod":"fs","persistenceAdapter":null,"verbose":false,"events":{"init":[null],"loaded":[],"flushChanges":[],"close":[],"changes":[],"warning":[]},"ENV":"NODEJS"}