{"filename":"-88-35.75","collections":[{"name":"restaurants","data":[{"_id":"5c3d65bd3525a329e0c0e1a2","address":"10050 State Hwy 100","location":{"type":"Point","coordinates":[-88.2525732,35.5246449]},"isApproved":true,"items":[],"keys":["American (Traditional)"],"lastUpdated":1547527612565,"name":"Café Magnolia","phone":"(731) 549-3737","price":"","reviewCount":4,"reviewScore":5,"meta":{"revision":0,"created":1547531148377,"version":0},"$loki":1},{"_id":"5c3d65bd3525a329e0c19f02","address":"9995 Highway 114 W","location":{"type":"Point","coordinates":[-88.2406988,35.512923]},"isApproved":true,"items":[],"keys":["Restaurants"],"lastUpdated":1547527612851,"name":"Bob’s Bar B Q","phone":"(731) 549-3935","price":"","reviewCount":2,"reviewScore":3,"meta":{"revision":0,"created":1547531148377,"version":0},"$loki":2},{"_id":"5c3d65bd3525a329e0c161be","address":"93 College Dr","location":{"type":"Point","coordinates":[-88.364813,35.63845]},"isApproved":true,"items":[],"keys":["American (Traditional)"],"lastUpdated":1547527612763,"name":"KC’s Farmhouse Restaurant","phone":"(731) 249-9236","price":"","reviewCount":3,"reviewScore":3.5,"meta":{"revision":0,"created":1547531148377,"version":0},"$loki":3},{"_id":"5c3d65bd3525a329e0c10584","address":"21430 TN-22","location":{"type":"Point","coordinates":[-88.390631,35.792833]},"isApproved":true,"items":[],"keys":["Seafood","American (Traditional)"],"lastUpdated":1547527612618,"name":"Smarder’s Grill","phone":"(731) 249-9988","price":"","reviewCount":2,"reviewScore":3.5,"meta":{"revision":0,"created":1547531148377,"version":0},"$loki":4},{"_id":"5c3d65bd3525a329e0c0aa89","address":"21320 Hwy 22","location":{"type":"Point","coordinates":[-88.3909892,35.7905881]},"isApproved":true,"items":[],"keys":["Burgers","Fast Food","Coffee & Tea"],"lastUpdated":1547527612489,"name":"McDonald’s","phone":"(731) 967-9015","price":"$","reviewCount":8,"reviewScore":3.5,"meta":{"revision":0,"created":1547531148377,"version":0},"$loki":5},{"_id":"5c3d65bd3525a329e0c1618b","address":"20630 Hwy 22","location":{"type":"Point","coordinates":[-88.3908,35.782476]},"isApproved":true,"items":[],"keys":["American (New)"],"lastUpdated":1547527612763,"name":"Patty’s","phone":"(731) 967-1955","price":"$","reviewCount":61,"reviewScore":4,"meta":{"revision":0,"created":1547531148377,"version":0},"$loki":6},{"_id":"5c3d65bd3525a329e0c0ed6d","address":"10715 Highway 192","location":{"type":"Point","coordinates":[-88.0848192796111,35.8643272425237]},"isApproved":true,"items":[],"keys":["Southern","Seafood","Barbeque"],"lastUpdated":1547527612582,"name":"Shands Fish N BBQ","phone":"(731) 584-3010","price":"","reviewCount":5,"reviewScore":5,"meta":{"revision":0,"created":1547531148377,"version":0},"$loki":7},{"_id":"5c3d65bd3525a329e0c06fb0","address":"14765 Hwy 641 S","location":{"type":"Point","coordinates":[-88.0865202602422,35.8474231619436]},"isApproved":true,"items":[],"keys":["Burgers"],"lastUpdated":1547527612388,"name":"Sandy’s Burger Barn","phone":"(731) 584-4902","price":"$","reviewCount":33,"reviewScore":4.5,"meta":{"revision":0,"created":1547531148377,"version":0},"$loki":8},{"_id":"5c3d65bd3525a329e0c143e0","address":"15060 Hwy 641 S","location":{"type":"Point","coordinates":[-88.084816,35.843056]},"isApproved":true,"items":[],"keys":["Gas Stations","Convenience Stores","American (Traditional)"],"lastUpdated":1547527612714,"name":"North Forty Truck Stop","phone":"(731) 584-5163","price":"$","reviewCount":25,"reviewScore":4,"meta":{"revision":0,"created":1547531148377,"version":0},"$loki":9},{"_id":"5c3d65bd3525a329e0c12af7","address":"14075 Hwy 641 N","location":{"type":"Point","coordinates":[-88.0922584,35.8070478]},"isApproved":true,"items":[],"keys":["Fast Food","Sandwiches"],"lastUpdated":1547527612680,"name":"Subway","phone":"(731) 584-3003","price":"","reviewCount":1,"reviewScore":5,"meta":{"revision":0,"created":1547531148377,"version":0},"$loki":10},{"_id":"5c3d65bd3525a329e0c00677","address":"425 E Main St","location":{"type":"Point","coordinates":[-88.119125,35.651265]},"isApproved":true,"items":[],"keys":["Mexican"],"lastUpdated":1547527612227,"name":"Mi Pueblito","phone":"","price":"$$","reviewCount":6,"reviewScore":4,"meta":{"revision":0,"created":1547531148377,"version":0},"$loki":11},{"_id":"5c3d65bd3525a329e0c0a14e","address":"1027 S Highland Ave","location":{"type":"Point","coordinates":[-88.1263992190361,35.6548531664267]},"isApproved":true,"items":[],"keys":["Barbeque","Burgers","Food Trucks"],"lastUpdated":1547527612473,"name":"KC Finn’s","phone":"(731) 693-2550","price":"","reviewCount":4,"reviewScore":5,"meta":{"revision":0,"created":1547531148377,"version":0},"$loki":12},{"_id":"5c3d65bd3525a329e0c093d9","address":"2024A N Highland Ave","location":{"type":"Point","coordinates":[-88.1264903,35.6518839]},"isApproved":true,"items":[],"keys":["Mexican","Food Trucks"],"lastUpdated":1547527612452,"name":"El Mariachi Loco","phone":"(731) 616-0736","price":"","reviewCount":3,"reviewScore":5,"meta":{"revision":0,"created":1547531148377,"version":0},"$loki":13},{"_id":"5c3d65bd3525a329e0c08b06","address":"408 W Church St","location":{"type":"Point","coordinates":[-88.1254847,35.6504802]},"isApproved":true,"items":[],"keys":["Mexican"],"lastUpdated":1547527612435,"name":"Los Portales Mexican Restaurant","phone":"(731) 967-0440","price":"$","reviewCount":7,"reviewScore":2.5,"meta":{"revision":0,"created":1547531148377,"version":0},"$loki":14},{"_id":"5c3d65bd3525a329e0c1a88c","address":"16 Jackson Walk Plz","location":{"type":"Point","coordinates":[-88.127127,35.6492526]},"isApproved":true,"items":[],"keys":["Pizza"],"lastUpdated":1547527612867,"name":"Rock’n Dough Pizza","phone":"(731) 300-0404","price":"$$","reviewCount":83,"reviewScore":4.5,"meta":{"revision":0,"created":1547531148377,"version":0},"$loki":15},{"_id":"5c3d65bd3525a329e0c02a68","address":"329 S Tennessee Ave","location":{"type":"Point","coordinates":[-88.1243432156556,35.64520610683]},"isApproved":true,"items":[],"keys":["Sandwiches"],"lastUpdated":1547527612286,"name":"Prater’s Taters","phone":"(731) 257-1130","price":"$","reviewCount":7,"reviewScore":5,"meta":{"revision":0,"created":1547531148377,"version":0},"$loki":16},{"_id":"5c3d65bd3525a329e0c0618d","address":"2574 Christmasville Cv","location":{"type":"Point","coordinates":[-88.124481,35.645276]},"isApproved":true,"items":[],"keys":["Chinese","Japanese","Sushi Bars"],"lastUpdated":1547527612369,"name":"Jiang Jun","phone":"(731) 988-9998","price":"$","reviewCount":28,"reviewScore":4,"meta":{"revision":0,"created":1547531148377,"version":0},"$loki":17},{"_id":"5c3d65bd3525a329e0c037fd","address":"727 S Tennessee Ave","location":{"type":"Point","coordinates":[-88.122671,35.640527]},"isApproved":true,"items":[],"keys":["Chinese","Buffets"],"lastUpdated":1547527612304,"name":"China Buffet Express","phone":"(731) 847-6366","price":"","reviewCount":3,"reviewScore":5,"meta":{"revision":0,"created":1547531148377,"version":0},"$loki":18},{"_id":"5c3d65bd3525a329e0c07574","address":"1272 W Main St","location":{"type":"Point","coordinates":[-88.1480694,35.6465759]},"isApproved":true,"items":[],"keys":["Restaurants"],"lastUpdated":1547527612400,"name":"Tucker’s Restaurant","phone":"(731) 847-7613","price":"","reviewCount":1,"reviewScore":4,"meta":{"revision":0,"created":1547531148377,"version":0},"$loki":19},{"_id":"5c3d65bd3525a329e0c10d80","address":"190 W Main St","location":{"type":"Point","coordinates":[-88.1301399,35.6501316273802]},"isApproved":true,"items":[],"keys":["Ice Cream & Frozen Yogurt","American (Traditional)"],"lastUpdated":1547527612633,"name":"Parsons Dairy Bar","phone":"(731) 847-6333","price":"$","reviewCount":6,"reviewScore":4,"meta":{"revision":0,"created":1547531148377,"version":0},"$loki":20},{"_id":"5c3d65bd3525a329e0c0b12c","address":"4109 US-412","location":{"type":"Point","coordinates":[-88.058233811703,35.6342872486119]},"isApproved":true,"items":[],"keys":["American (Traditional)"],"lastUpdated":1547527612497,"name":"Sara’s Cooking Shack","phone":"","price":"","reviewCount":1,"reviewScore":5,"meta":{"revision":0,"created":1547531148377,"version":0},"$loki":21},{"_id":"5c3d65bd3525a329e0bfff7c","address":"3080 TN-100","location":{"type":"Point","coordinates":[-88.06682,35.58069]},"isApproved":true,"items":[],"keys":["Steakhouses"],"lastUpdated":1547527612223,"name":"Cowboy Steak House","phone":"(731) 852-4559","price":"","reviewCount":2,"reviewScore":3.5,"meta":{"revision":0,"created":1547531148377,"version":0},"$loki":22},{"_id":"5c3d65bd3525a329e0c17ec3","address":"1002 Perryville Rd","location":{"type":"Point","coordinates":[-88.039373,35.6228089]},"isApproved":true,"items":[],"keys":["Seafood"],"lastUpdated":1547527612802,"name":"Rivershack Restaurant","phone":"(731) 847-6610","price":"$$","reviewCount":4,"reviewScore":4.5,"meta":{"revision":0,"created":1547531148377,"version":0},"$loki":23},{"_id":"5c3d65bd3525a329e0c104cf","address":"820 Pentecostal Campground Rd","location":{"type":"Point","coordinates":[-88.0419855,35.6215713]},"isApproved":true,"items":[],"keys":["Seafood"],"lastUpdated":1547527612618,"name":"Fish House Diner","phone":"(731) 847-3261","price":"$$","reviewCount":4,"reviewScore":5,"meta":{"revision":0,"created":1547531148377,"version":0},"$loki":24},{"_id":"5c3d65bd3525a329e0c0afde","address":"162 Old Hickory Blvd","location":{"type":"Point","coordinates":[-88.006498,35.560468]},"isApproved":true,"items":[],"keys":["Bars","American (Traditional)","Barbeque"],"lastUpdated":1547527612491,"name":"Rafferty’s Restaurant & Bar","phone":"(731) 664-8118","price":"$$","reviewCount":41,"reviewScore":4,"meta":{"revision":0,"created":1547531148377,"version":0},"$loki":25},{"_id":"5c3d65bd3525a329e0c04366","address":"1620 Toms Creek Rd","location":{"type":"Point","coordinates":[-87.9579496,35.7424606]},"isApproved":true,"items":[],"keys":["Burgers"],"lastUpdated":1547527612321,"name":"Chicks Grill","phone":"(931) 593-3015","price":"","reviewCount":1,"reviewScore":5,"meta":{"revision":0,"created":1547531148377,"version":0},"$loki":26},{"_id":"5c3d65bd3525a329e0c1afe5","address":"15913 Hwy 13 S","location":{"type":"Point","coordinates":[-87.803466,35.87761]},"isApproved":true,"items":[],"keys":["Food Court"],"lastUpdated":1547527612876,"name":"Serrano’s","phone":"","price":"","reviewCount":1,"reviewScore":5,"meta":{"revision":0,"created":1547531148377,"version":0},"$loki":27},{"_id":"5c3d65bd3525a329e0bff9a1","address":"15530 Hwy 13 S","location":{"type":"Point","coordinates":[-87.7993488,35.8822336]},"isApproved":true,"items":[],"keys":["American (Traditional)"],"lastUpdated":1547527612219,"name":"The Log Cabin","phone":"(931) 296-5311","price":"$$","reviewCount":160,"reviewScore":4,"meta":{"revision":0,"created":1547531148377,"version":0},"$loki":28},{"_id":"5c3d65bd3525a329e0c01c98","address":"15579 Highway 13 S","location":{"type":"Point","coordinates":[-87.8005868,35.881572]},"isApproved":true,"items":[],"keys":["Fast Food","Sandwiches"],"lastUpdated":1547527612259,"name":"Arby’s","phone":"(931) 296-9004","price":"$$","reviewCount":5,"reviewScore":2,"meta":{"revision":0,"created":1547531148377,"version":0},"$loki":29},{"_id":"5c3d65bd3525a329e0c06014","address":"15521 Hwy 13 S","location":{"type":"Point","coordinates":[-87.800278,35.883347]},"isApproved":true,"items":[],"keys":["Barbeque"],"lastUpdated":1547527612368,"name":"Rochelle’s Bar None BBQ","phone":"(931) 296-4499","price":"$$","reviewCount":96,"reviewScore":4.5,"meta":{"revision":0,"created":1547531148377,"version":0},"$loki":30},{"_id":"5c3d65bd3525a329e0c13974","address":"15366 Hwy 13 S","location":{"type":"Point","coordinates":[-87.7977937980497,35.884606323443]},"isApproved":true,"items":[],"keys":["American (Traditional)","Soul Food","Southern"],"lastUpdated":1547527612698,"name":"Loretta Lynn’s Kitchen","phone":"(931) 296-1122","price":"$$","reviewCount":110,"reviewScore":2.5,"meta":{"revision":0,"created":1547531148377,"version":0},"$loki":31},{"_id":"5c3d65bd3525a329e0c02cf1","address":"15371 Hwy 13 S","location":{"type":"Point","coordinates":[-87.7991183,35.8846977]},"isApproved":true,"items":[],"keys":["Seafood","Steakhouses","American (Traditional)"],"lastUpdated":1547527612293,"name":"Jen’s Steak and Seafood","phone":"(931) 412-1188","price":"$$","reviewCount":12,"reviewScore":3,"meta":{"revision":0,"created":1547531148377,"version":0},"$loki":32},{"_id":"5c3d65bd3525a329e0c09f39","address":"275 S Main St","location":{"type":"Point","coordinates":[-87.783874,35.767964]},"isApproved":true,"items":[],"keys":["Barbeque"],"lastUpdated":1547527612472,"name":"Hott’s BBQ","phone":"(931) 593-2001","price":"$","reviewCount":5,"reviewScore":5,"meta":{"revision":0,"created":1547531148377,"version":0},"$loki":33},{"_id":"5c3d65bd3525a329e0c0a72b","address":"313 N Main St","location":{"type":"Point","coordinates":[-87.7821940183639,35.7758221716357]},"isApproved":true,"items":[],"keys":["Gas Stations","Fast Food"],"lastUpdated":1547527612481,"name":"Speedy B’s","phone":"(931) 593-3443","price":"$","reviewCount":1,"reviewScore":4,"meta":{"revision":0,"created":1547531148377,"version":0},"$loki":34},{"_id":"5c3d65bd3525a329e0c05760","address":"227 N Church Ave","location":{"type":"Point","coordinates":[-87.842169,35.6178349]},"isApproved":true,"items":[],"keys":["Mexican"],"lastUpdated":1547527612349,"name":"El Ranchito","phone":"(731) 989-7373","price":"$$","reviewCount":5,"reviewScore":3,"meta":{"revision":0,"created":1547531148377,"version":0},"$loki":35},{"_id":"5c3d65bd3525a329e0c02fc8","address":"215 E Baltimore St","location":{"type":"Point","coordinates":[-87.8360836207867,35.617546301833]},"isApproved":true,"items":[],"keys":["Diners"],"lastUpdated":1547527612295,"name":"Dixie Castle","phone":"(731) 423-3359","price":"$","reviewCount":5,"reviewScore":4.5,"meta":{"revision":0,"created":1547531148377,"version":0},"$loki":36},{"_id":"5c3d65bd3525a329e0c10981","address":"605 Carriage House Dr","location":{"type":"Point","coordinates":[-87.837755,35.617735]},"isApproved":true,"items":[],"keys":["Thai","Noodles","Soup"],"lastUpdated":1547527612626,"name":"Thai Cafe","phone":"(731) 984-7050","price":"$$","reviewCount":43,"reviewScore":3.5,"meta":{"revision":0,"created":1547531148377,"version":0},"$loki":37},{"_id":"5c3d65bd3525a329e0c0fb2b","address":"114 E Main St","location":{"type":"Point","coordinates":[-87.8382767,35.6166091]},"isApproved":true,"items":[],"keys":["Hotels","Cafes"],"lastUpdated":1547527612601,"name":"Commodore Hotel & Cafe","phone":"(931) 589-3224","price":"$$","reviewCount":21,"reviewScore":4.5,"meta":{"revision":0,"created":1547531148377,"version":0},"$loki":38},{"_id":"5c3d65bd3525a329e0c1982f","address":"1039 Squirrel Hollow Dr","location":{"type":"Point","coordinates":[-87.840135,35.6070803]},"isApproved":true,"items":[],"keys":["American (Traditional)"],"lastUpdated":1547527612842,"name":"B & H Dairy Bar","phone":"(931) 589-2921","price":"$","reviewCount":6,"reviewScore":5,"meta":{"revision":0,"created":1547531148377,"version":0},"$loki":39},{"_id":"5c3d65bd3525a329e0c0415c","address":"292 Parkstone Pl","location":{"type":"Point","coordinates":[-87.8381395339966,35.6078708853918]},"isApproved":true,"items":[],"keys":["Barbeque","Chicken Wings","American (Traditional)"],"lastUpdated":1547527612320,"name":"Reggi’s BBQ & Wings","phone":"(731) 660-8600","price":"$","reviewCount":110,"reviewScore":4,"meta":{"revision":0,"created":1547531148377,"version":0},"$loki":40},{"_id":"5c3d65bd3525a329e0c19c5f","address":"169 Hill St","location":{"type":"Point","coordinates":[-87.838416,35.608488]},"isApproved":true,"items":[],"keys":["Burgers","Pizza"],"lastUpdated":1547527612850,"name":"Video Corner","phone":"(931) 589-5401","price":"$","reviewCount":2,"reviewScore":5,"meta":{"revision":0,"created":1547531148377,"version":0},"$loki":41},{"_id":"5c3d65bd3525a329e0c001b0","address":"1160 Vann Dr","location":{"type":"Point","coordinates":[-87.8367233703828,35.6088251401196]},"isApproved":true,"items":[],"keys":["American (New)"],"lastUpdated":1547527612224,"name":"Flatiron Grille","phone":"(731) 668-3528","price":"$$$","reviewCount":79,"reviewScore":3.5,"meta":{"revision":0,"created":1547531148377,"version":0},"$loki":42},{"_id":"5c3d65bd3525a329e0c1768a","address":"500 W Church St","location":{"type":"Point","coordinates":[-87.837039,35.610013]},"isApproved":true,"items":[],"keys":["Burgers","Fast Food"],"lastUpdated":1547527612791,"name":"Wendy’s","phone":"(731) 967-9398","price":"","reviewCount":1,"reviewScore":4,"meta":{"revision":0,"created":1547531148377,"version":0},"$loki":43},{"_id":"5c3d65bd3525a329e0bffa8d","address":"2049 Hwy 70 E","location":{"type":"Point","coordinates":[-87.8331556543708,35.6215731782876]},"isApproved":true,"items":[],"keys":["Barbeque","Food Trucks"],"lastUpdated":1547527612220,"name":"I-40 Exit 87 BBQ Stand","phone":"(731) 988-6222","price":"$","reviewCount":74,"reviewScore":4.5,"meta":{"revision":0,"created":1547531148377,"version":0},"$loki":44},{"_id":"5c3d65bd3525a329e0c0289a","address":"","location":{"type":"Point","coordinates":[-87.8332359,35.6224999]},"isApproved":true,"items":[],"keys":["American (Traditional)","Food Trucks"],"lastUpdated":1547527612285,"name":"Eatbox","phone":"(731) 487-1812","price":"$$","reviewCount":3,"reviewScore":4.5,"meta":{"revision":0,"created":1547531148377,"version":0},"$loki":45}],"idIndex":[1,2,3,4,5,6,7,8,9,10,11,12,13,14,15,16,17,18,19,20,21,22,23,24,25,26,27,28,29,30,31,32,33,34,35,36,37,38,39,40,41,42,43,44,45],"binaryIndices":{},"constraints":null,"uniqueNames":[],"transforms":{},"objType":"restaurants","dirty":true,"cachedIndex":null,"cachedBinaryIndex":null,"cachedData":null,"adaptiveBinaryIndices":true,"transactional":false,"cloneObjects":false,"cloneMethod":"parse-stringify","asyncListeners":false,"disableMeta":false,"disableChangesApi":true,"disableDeltaChangesApi":true,"autoupdate":false,"serializableIndices":true,"ttl":null,"maxId":45,"DynamicViews":[],"events":{"insert":[],"update":[],"pre-insert":[],"pre-update":[],"close":[],"flushbuffer":[],"error":[],"delete":[null],"warning":[null]},"changes":[]}],"databaseVersion":1.5,"engineVersion":1.5,"autosave":false,"autosaveInterval":5000,"autosaveHandle":null,"throttledSaves":true,"options":{"serializationMethod":"normal","destructureDelimiter":"$<\n"},"persistenceMethod":"fs","persistenceAdapter":null,"verbose":false,"events":{"init":[null],"loaded":[],"flushChanges":[],"close":[],"changes":[],"warning":[]},"ENV":"NODEJS"}