{"filename":"-88.5-37","collections":[{"name":"restaurants","data":[{"_id":"5c3d65bd3525a329e0c0f3ca","address":"701 W 10th St","location":{"type":"Point","coordinates":[-88.7355479,37.1600282]},"isApproved":true,"items":[],"keys":["American (New)"],"lastUpdated":1547527612592,"name":"Rube’s","phone":"(618) 524-1048","price":"$","reviewCount":4,"reviewScore":4,"meta":{"revision":0,"created":1547531148099,"version":0},"$loki":1},{"_id":"5c3d65bd3525a329e0c1b1fa","address":"310 W 10th St","location":{"type":"Point","coordinates":[-88.731341958046,37.157430755431]},"isApproved":true,"items":[],"keys":["Barbeque"],"lastUpdated":1547527612877,"name":"Yesterday’s BBQ","phone":"(618) 524-8905","price":"$","reviewCount":16,"reviewScore":4,"meta":{"revision":0,"created":1547531148099,"version":0},"$loki":2},{"_id":"5c3d65bd3525a329e0c08081","address":"2105 E 5th St","location":{"type":"Point","coordinates":[-88.690156,37.1627402]},"isApproved":true,"items":[],"keys":["Delis","Sandwiches"],"lastUpdated":1547527612419,"name":"Quiznos","phone":"(618) 524-5907","price":"$$$$","reviewCount":1,"reviewScore":5,"meta":{"revision":0,"created":1547531148099,"version":0},"$loki":3},{"_id":"5c3d65bd3525a329e0c17680","address":"2105 East 5th Street","location":{"type":"Point","coordinates":[-88.690429088535,37.162576278134]},"isApproved":true,"items":[],"keys":["American (Traditional)","Diners","Breakfast & Brunch"],"lastUpdated":1547527612791,"name":"Huddle House","phone":"(618) 524-4179","price":"$","reviewCount":13,"reviewScore":3,"meta":{"revision":0,"created":1547531148099,"version":0},"$loki":4},{"_id":"5c3d65bd3525a329e0c1b2b6","address":"200 S Bethel St","location":{"type":"Point","coordinates":[-88.1957615276127,36.7954320358201]},"isApproved":true,"items":[],"keys":["Restaurants"],"lastUpdated":1547527612878,"name":"Bethel Dipper","phone":"(270) 726-7571","price":"$","reviewCount":1,"reviewScore":5,"meta":{"revision":0,"created":1547531148099,"version":0},"$loki":5},{"_id":"5c3d65bd3525a329e0bff6e6","address":"2824 Fort Campbell Blvd","location":{"type":"Point","coordinates":[-88.1235453,37.0714074]},"isApproved":true,"items":[],"keys":["Burgers","Fast Food"],"lastUpdated":1547527612217,"name":"Burger King","phone":"(931) 885-2727","price":"$","reviewCount":3,"reviewScore":1,"meta":{"revision":0,"created":1547531148099,"version":0},"$loki":6},{"_id":"5c3d65bd3525a329e0c19a77","address":"4002 Fort Campbell Blvd","location":{"type":"Point","coordinates":[-88.1251631,37.0719448]},"isApproved":true,"items":[],"keys":["Chicken Wings","Fast Food","Salad"],"lastUpdated":1547527612849,"name":"Zaxby’s Chicken Fingers & Buffalo Wings","phone":"(270) 886-2111","price":"$","reviewCount":4,"reviewScore":4.5,"meta":{"revision":0,"created":1547531148099,"version":0},"$loki":7},{"_id":"5c3d65bd3525a329e0c0feac","address":"302 Pkwy Dr","location":{"type":"Point","coordinates":[-88.126128,37.072039]},"isApproved":true,"items":[],"keys":["Fast Food","Mexican"],"lastUpdated":1547527612609,"name":"Taco Bell","phone":"(270) 365-3055","price":"","reviewCount":4,"reviewScore":3,"meta":{"revision":0,"created":1547531148099,"version":0},"$loki":8},{"_id":"5c3d65bd3525a329e0c0e089","address":"985 Buzzard Rock Rd","location":{"type":"Point","coordinates":[-88.1089669,37.0610433]},"isApproved":true,"items":[],"keys":["Seafood","American (Traditional)"],"lastUpdated":1547527612564,"name":"Buzzard Rock Cafe","phone":"(270) 388-7925","price":"$$","reviewCount":10,"reviewScore":3,"meta":{"revision":0,"created":1547531148099,"version":0},"$loki":9},{"_id":"5c3d65bd3525a329e0c1b1cf","address":"2717 Fort Campbell Blvd","location":{"type":"Point","coordinates":[-88.106857,37.061723]},"isApproved":true,"items":[],"keys":["Pizza","Chicken Wings"],"lastUpdated":1547527612877,"name":"Hoptown Pizza and Wings","phone":"(270) 887-0001","price":"","reviewCount":1,"reviewScore":5,"meta":{"revision":0,"created":1547531148099,"version":0},"$loki":10},{"_id":"5c3d65bd3525a329e0c0747c","address":"Bowling Green Rd","location":{"type":"Point","coordinates":[-88.143043667078,37.0422593822683]},"isApproved":true,"items":[],"keys":["Restaurants"],"lastUpdated":1547527612400,"name":"Colonial Inn","phone":"(270) 726-4989","price":"$","reviewCount":6,"reviewScore":4,"meta":{"revision":0,"created":1547531148099,"version":0},"$loki":11},{"_id":"5c3d65bd3525a329e0c02b4a","address":"2916 Fort Campbell Blvd","location":{"type":"Point","coordinates":[-88.1365245580673,37.063864544034]},"isApproved":true,"items":[],"keys":["Sports Bars","American (Traditional)","Chicken Wings"],"lastUpdated":1547527612286,"name":"Buffalo Wild Wings","phone":"(270) 887-0905","price":"$$","reviewCount":8,"reviewScore":3,"meta":{"revision":0,"created":1547531148099,"version":0},"$loki":12}],"idIndex":[1,2,3,4,5,6,7,8,9,10,11,12],"binaryIndices":{},"constraints":null,"uniqueNames":[],"transforms":{},"objType":"restaurants","dirty":true,"cachedIndex":null,"cachedBinaryIndex":null,"cachedData":null,"adaptiveBinaryIndices":true,"transactional":false,"cloneObjects":false,"cloneMethod":"parse-stringify","asyncListeners":false,"disableMeta":false,"disableChangesApi":true,"disableDeltaChangesApi":true,"autoupdate":false,"serializableIndices":true,"ttl":null,"maxId":12,"DynamicViews":[],"events":{"insert":[],"update":[],"pre-insert":[],"pre-update":[],"close":[],"flushbuffer":[],"error":[],"delete":[null],"warning":[null]},"changes":[]}],"databaseVersion":1.5,"engineVersion":1.5,"autosave":false,"autosaveInterval":5000,"autosaveHandle":null,"throttledSaves":true,"options":{"serializationMethod":"normal","destructureDelimiter":"$<\n"},"persistenceMethod":"fs","persistenceAdapter":null,"verbose":false,"events":{"init":[null],"loaded":[],"flushChanges":[],"close":[],"changes":[],"warning":[]},"ENV":"NODEJS"}