{"filename":"-89-37.25","collections":[{"name":"restaurants","data":[{"_id":"5c3d65bd3525a329e0c07217","address":"715 North Giant City Rd","location":{"type":"Point","coordinates":[-88.971803,37.553918]},"isApproved":true,"items":[],"keys":["Mexican","Tex-Mex"],"lastUpdated":1547527612398,"name":"Moe’s Southwest Grill","phone":"(618) 549-4200","price":"$","reviewCount":16,"reviewScore":4,"meta":{"revision":0,"created":1547531149799,"version":0},"$loki":1},{"_id":"5c3d65bd3525a329e0c17f23","address":"903 N Court St","location":{"type":"Point","coordinates":[-88.9724073,37.554807]},"isApproved":true,"items":[],"keys":["Mexican","Fast Food"],"lastUpdated":1547527612802,"name":"Taco John’s","phone":"(618) 993-8901","price":"$","reviewCount":9,"reviewScore":4,"meta":{"revision":0,"created":1547531149799,"version":0},"$loki":2},{"_id":"5c3d65bd3525a329e0c1356f","address":"217 N Main St","location":{"type":"Point","coordinates":[-88.9746189,37.5547686]},"isApproved":true,"items":[],"keys":["Grocery","Delis"],"lastUpdated":1547527612696,"name":"Rozier’s Food Centre","phone":"(573) 547-6523","price":"","reviewCount":1,"reviewScore":4,"meta":{"revision":0,"created":1547531149799,"version":0},"$loki":3},{"_id":"5c3d65bd3525a329e0c06646","address":"309 E Main","location":{"type":"Point","coordinates":[-88.8958885,37.4141998]},"isApproved":true,"items":[],"keys":["Pizza"],"lastUpdated":1547527612377,"name":"Family Pizza","phone":"(618) 658-9025","price":"","reviewCount":2,"reviewScore":4.5,"meta":{"revision":0,"created":1547531149799,"version":0},"$loki":4},{"_id":"5c3d65bd3525a329e0c19fdb","address":"101 N 1st St","location":{"type":"Point","coordinates":[-88.893445,37.414634]},"isApproved":true,"items":[],"keys":["Burgers"],"lastUpdated":1547527612852,"name":"Ned’s Shed","phone":"(618) 658-9507","price":"$","reviewCount":18,"reviewScore":4.5,"meta":{"revision":0,"created":1547531149799,"version":0},"$loki":5},{"_id":"5c3d65bd3525a329e0c12e6e","address":"523 E Vine St","location":{"type":"Point","coordinates":[-88.8800245,37.4158655]},"isApproved":true,"items":[],"keys":["Mexican"],"lastUpdated":1547527612681,"name":"El Tequila","phone":"(618) 658-2527","price":"$","reviewCount":6,"reviewScore":3.5,"meta":{"revision":0,"created":1547531149799,"version":0},"$loki":6},{"_id":"5c3d65bd3525a329e0c159ed","address":"511 E Vine St","location":{"type":"Point","coordinates":[-88.8829022,37.4160737]},"isApproved":true,"items":[],"keys":["American (Traditional)","Diners"],"lastUpdated":1547527612747,"name":"Vienna Diner","phone":"(618) 658-2300","price":"$","reviewCount":40,"reviewScore":4,"meta":{"revision":0,"created":1547531149799,"version":0},"$loki":7},{"_id":"5c3d65bd3525a329e0c14a42","address":"533 E Vine St","location":{"type":"Point","coordinates":[-88.875674,37.415165]},"isApproved":true,"items":[],"keys":["Fast Food","Ice Cream & Frozen Yogurt"],"lastUpdated":1547527612728,"name":"Dairy Queen","phone":"(618) 658-8862","price":"$","reviewCount":7,"reviewScore":4,"meta":{"revision":0,"created":1547531149799,"version":0},"$loki":8},{"_id":"5c3d65bd3525a329e0c023ce","address":"129 Veterans Ave","location":{"type":"Point","coordinates":[-88.888835,37.423841]},"isApproved":true,"items":[],"keys":["Buffets","Sandwiches","Steakhouses"],"lastUpdated":1547527612277,"name":"Wildfires","phone":"(618) 658-6398","price":"","reviewCount":4,"reviewScore":5,"meta":{"revision":0,"created":1547531149799,"version":0},"$loki":9},{"_id":"5c3d65bd3525a329e0c174fc","address":"315 Forman Ln","location":{"type":"Point","coordinates":[-88.906645,37.3428263]},"isApproved":true,"items":[],"keys":["American (New)"],"lastUpdated":1547527612790,"name":"Wineaux’s Restaurant","phone":"(618) 658-8353","price":"$$","reviewCount":2,"reviewScore":4,"meta":{"revision":0,"created":1547531149799,"version":0},"$loki":10},{"_id":"5c3d65bd3525a329e0c06ace","address":"170 N Front St","location":{"type":"Point","coordinates":[-89.088390919115,37.1809497830304]},"isApproved":true,"items":[],"keys":["American (Traditional)"],"lastUpdated":1547527612380,"name":"Lynda’s Family Diner","phone":"(618) 742-6000","price":"","reviewCount":1,"reviewScore":5,"meta":{"revision":0,"created":1547531149799,"version":0},"$loki":11},{"_id":"5c3d65bd3525a329e0c0f3ca","address":"701 W 10th St","location":{"type":"Point","coordinates":[-88.7355479,37.1600282]},"isApproved":true,"items":[],"keys":["American (New)"],"lastUpdated":1547527612592,"name":"Rube’s","phone":"(618) 524-1048","price":"$","reviewCount":4,"reviewScore":4,"meta":{"revision":0,"created":1547531149799,"version":0},"$loki":12},{"_id":"5c3d65bd3525a329e0c1b1fa","address":"310 W 10th St","location":{"type":"Point","coordinates":[-88.731341958046,37.157430755431]},"isApproved":true,"items":[],"keys":["Barbeque"],"lastUpdated":1547527612877,"name":"Yesterday’s BBQ","phone":"(618) 524-8905","price":"$","reviewCount":16,"reviewScore":4,"meta":{"revision":0,"created":1547531149799,"version":0},"$loki":13},{"_id":"5c3d65bd3525a329e0c08081","address":"2105 E 5th St","location":{"type":"Point","coordinates":[-88.690156,37.1627402]},"isApproved":true,"items":[],"keys":["Delis","Sandwiches"],"lastUpdated":1547527612419,"name":"Quiznos","phone":"(618) 524-5907","price":"$$$$","reviewCount":1,"reviewScore":5,"meta":{"revision":0,"created":1547531149799,"version":0},"$loki":14},{"_id":"5c3d65bd3525a329e0c17680","address":"2105 East 5th Street","location":{"type":"Point","coordinates":[-88.690429088535,37.162576278134]},"isApproved":true,"items":[],"keys":["American (Traditional)","Diners","Breakfast & Brunch"],"lastUpdated":1547527612791,"name":"Huddle House","phone":"(618) 524-4179","price":"$","reviewCount":13,"reviewScore":3,"meta":{"revision":0,"created":1547531149799,"version":0},"$loki":15}],"idIndex":[1,2,3,4,5,6,7,8,9,10,11,12,13,14,15],"binaryIndices":{},"constraints":null,"uniqueNames":[],"transforms":{},"objType":"restaurants","dirty":true,"cachedIndex":null,"cachedBinaryIndex":null,"cachedData":null,"adaptiveBinaryIndices":true,"transactional":false,"cloneObjects":false,"cloneMethod":"parse-stringify","asyncListeners":false,"disableMeta":false,"disableChangesApi":true,"disableDeltaChangesApi":true,"autoupdate":false,"serializableIndices":true,"ttl":null,"maxId":15,"DynamicViews":[],"events":{"insert":[],"update":[],"pre-insert":[],"pre-update":[],"close":[],"flushbuffer":[],"error":[],"delete":[null],"warning":[null]},"changes":[]}],"databaseVersion":1.5,"engineVersion":1.5,"autosave":false,"autosaveInterval":5000,"autosaveHandle":null,"throttledSaves":true,"options":{"serializationMethod":"normal","destructureDelimiter":"$<\n"},"persistenceMethod":"fs","persistenceAdapter":null,"verbose":false,"events":{"init":[null],"loaded":[],"flushChanges":[],"close":[],"changes":[],"warning":[]},"ENV":"NODEJS"}