{"filename":"-89-39.75","collections":[{"name":"restaurants","data":[{"_id":"5c3d65bd3525a329e0c03f45","address":"2824 Plaza Dr","location":{"type":"Point","coordinates":[-88.593322,39.792168]},"isApproved":true,"items":[],"keys":["Asian Fusion"],"lastUpdated":1547527612319,"name":"Pao","phone":"(217) 546-4660","price":"$$","reviewCount":39,"reviewScore":3.5,"meta":{"revision":0,"created":1547531155327,"version":0},"$loki":1},{"_id":"5c3d65bd3525a329e0c07b86","address":"333 W 2nd St","location":{"type":"Point","coordinates":[-89.050409,39.518343]},"isApproved":true,"items":[],"keys":["Restaurants"],"lastUpdated":1547527612410,"name":"Dairy Queen","phone":"(217) 562-3234","price":"$","reviewCount":1,"reviewScore":3,"meta":{"revision":0,"created":1547531155327,"version":0},"$loki":2},{"_id":"5c3d65bd3525a329e0c13e6f","address":"2355 W Monroe St","location":{"type":"Point","coordinates":[-88.805485,39.714307]},"isApproved":true,"items":[],"keys":["Hawaiian","Asian Fusion","Barbeque"],"lastUpdated":1547527612706,"name":"K&S Hawaiian BBQ","phone":"(217) 698-0000","price":"$","reviewCount":89,"reviewScore":4,"meta":{"revision":0,"created":1547531155327,"version":0},"$loki":3},{"_id":"5c3d65bd3525a329e0c02c49","address":"130 E Main St","location":{"type":"Point","coordinates":[-88.8046735,39.7115292]},"isApproved":true,"items":[],"keys":["Sports Bars","Chicken Wings","Sandwiches"],"lastUpdated":1547527612293,"name":"Harley’s Hideout","phone":"(217) 874-2309","price":"","reviewCount":6,"reviewScore":4.5,"meta":{"revision":0,"created":1547531155327,"version":0},"$loki":4},{"_id":"5c3d65bd3525a329e0c0ad5c","address":"301 N Grand Ave W","location":{"type":"Point","coordinates":[-88.8701286898414,39.7786741179987]},"isApproved":true,"items":[],"keys":["Pubs","American (Traditional)"],"lastUpdated":1547527612490,"name":"Dew Chilli Parlor Pub and Grill","phone":"(217) 670-2530","price":"","reviewCount":3,"reviewScore":3.5,"meta":{"revision":0,"created":1547531155327,"version":0},"$loki":5},{"_id":"5c3d65bd3525a329e0c18808","address":"3045 E Clear Lake Ave","location":{"type":"Point","coordinates":[-88.8709567,39.7732657]},"isApproved":true,"items":[],"keys":["Seafood","Steakhouses"],"lastUpdated":1547527612821,"name":"Chesapeake Seafood House","phone":"(217) 522-5220","price":"$$","reviewCount":82,"reviewScore":3.5,"meta":{"revision":0,"created":1547531155327,"version":0},"$loki":6},{"_id":"5c3d65bd3525a329e0c0100c","address":"1935 S Taylorville Rd","location":{"type":"Point","coordinates":[-88.8715563,39.783732]},"isApproved":true,"items":[],"keys":["American (Traditional)","Bars"],"lastUpdated":1547527612238,"name":"Friendly Bar & Package","phone":"(217) 330-8168","price":"$","reviewCount":6,"reviewScore":3.5,"meta":{"revision":0,"created":1547531155327,"version":0},"$loki":7},{"_id":"5c3d65bd3525a329e0c034ac","address":"1105 W Wood St","location":{"type":"Point","coordinates":[-88.8704466523593,39.7865187261431]},"isApproved":true,"items":[],"keys":["Barbeque","Burgers","Hot Dogs"],"lastUpdated":1547527612302,"name":"University Dogs","phone":"(217) 422-2288","price":"$","reviewCount":17,"reviewScore":3.5,"meta":{"revision":0,"created":1547531155327,"version":0},"$loki":8},{"_id":"5c3d65bd3525a329e0c0f9bc","address":"255 West Mound Road","location":{"type":"Point","coordinates":[-88.8704676,39.7906235]},"isApproved":true,"items":[],"keys":["Pizza"],"lastUpdated":1547527612600,"name":"Papa Murphy’s","phone":"(217) 875-1700","price":"","reviewCount":3,"reviewScore":5,"meta":{"revision":0,"created":1547531155327,"version":0},"$loki":9},{"_id":"5c3d65bd3525a329e0c1a39f","address":"3311 Robbins Rd","location":{"type":"Point","coordinates":[-88.8704692,39.7906235]},"isApproved":true,"items":[],"keys":["Sandwiches","Salad","Soup"],"lastUpdated":1547527612858,"name":"Head West Sub Stop","phone":"(217) 726-9202","price":"$","reviewCount":44,"reviewScore":4.5,"meta":{"revision":0,"created":1547531155327,"version":0},"$loki":10},{"_id":"5c3d65bd3525a329e0c0899e","address":"1404 N 22nd St","location":{"type":"Point","coordinates":[-88.877840526402,39.805697209998]},"isApproved":true,"items":[],"keys":["American (Traditional)"],"lastUpdated":1547527612429,"name":"Debbie Diner","phone":"(217) 423-4130","price":"$","reviewCount":9,"reviewScore":4,"meta":{"revision":0,"created":1547531155327,"version":0},"$loki":11},{"_id":"5c3d65bd3525a329e0c08b8c","address":"1987 N Jasper St","location":{"type":"Point","coordinates":[-88.85984,39.8161]},"isApproved":true,"items":[],"keys":["Restaurants"],"lastUpdated":1547527612436,"name":"The Wagon","phone":"(217) 429-2260","price":"$$","reviewCount":6,"reviewScore":3,"meta":{"revision":0,"created":1547531155327,"version":0},"$loki":12},{"_id":"5c3d65bd3525a329e0c039b4","address":"100 Villa Pkwy","location":{"type":"Point","coordinates":[-88.93697,39.890312]},"isApproved":true,"items":[],"keys":["Cafes","Breakfast & Brunch"],"lastUpdated":1547527612311,"name":"Tasty Cafe","phone":"(217) 492-9379","price":"$","reviewCount":2,"reviewScore":5,"meta":{"revision":0,"created":1547531155327,"version":0},"$loki":13},{"_id":"5c3d65bd3525a329e0c10399","address":"3025 N Kandy Ln","location":{"type":"Point","coordinates":[-88.9341656,39.8775818]},"isApproved":true,"items":[],"keys":["Chinese","Hawaiian"],"lastUpdated":1547527612617,"name":"Aloha","phone":"(217) 875-5540","price":"$$","reviewCount":24,"reviewScore":4,"meta":{"revision":0,"created":1547531155327,"version":0},"$loki":14},{"_id":"5c3d65bd3525a329e0c14981","address":"210 W Rt 125","location":{"type":"Point","coordinates":[-88.932594,39.8777281]},"isApproved":true,"items":[],"keys":["Barbeque","Seafood","American (Traditional)"],"lastUpdated":1547527612728,"name":"Grainery","phone":"(217) 626-2508","price":"$","reviewCount":5,"reviewScore":4,"meta":{"revision":0,"created":1547531155327,"version":0},"$loki":15},{"_id":"5c3d65bd3525a329e0c14bed","address":"1304 N 7th St","location":{"type":"Point","coordinates":[-88.9397,39.8774]},"isApproved":true,"items":[],"keys":["Sandwiches","Fast Food"],"lastUpdated":1547527612729,"name":"Subway","phone":"(217) 629-7861","price":"","reviewCount":3,"reviewScore":3.5,"meta":{"revision":0,"created":1547531155327,"version":0},"$loki":16},{"_id":"5c3d65bd3525a329e0c1116b","address":"2501 Wabash Ave","location":{"type":"Point","coordinates":[-88.9389541,39.8777373]},"isApproved":true,"items":[],"keys":["Burgers","Fast Food"],"lastUpdated":1547527612641,"name":"Five Guys","phone":"(217) 546-8230","price":"$$","reviewCount":20,"reviewScore":3,"meta":{"revision":0,"created":1547531155327,"version":0},"$loki":17},{"_id":"5c3d65bd3525a329e0c09d64","address":"3335 Veteran&#39;s Pkwy","location":{"type":"Point","coordinates":[-88.9372308,39.8768869]},"isApproved":true,"items":[],"keys":["Sports Bars","Burgers","American (Traditional)"],"lastUpdated":1547527612465,"name":"Applebee’s Grill + Bar","phone":"(217) 698-0550","price":"$$","reviewCount":11,"reviewScore":2.5,"meta":{"revision":0,"created":1547531155327,"version":0},"$loki":18},{"_id":"5c3d65bd3525a329e0c0dcd1","address":"2999 N Monroe St","location":{"type":"Point","coordinates":[-88.9381316,39.876895]},"isApproved":true,"items":[],"keys":["Bakeries","Breakfast & Brunch","American (Traditional)"],"lastUpdated":1547527612563,"name":"Perkins Restaurant & Bakery","phone":"(217) 875-0743","price":"$$","reviewCount":19,"reviewScore":2.5,"meta":{"revision":0,"created":1547531155327,"version":0},"$loki":19},{"_id":"5c3d65bd3525a329e0c066bb","address":"256 W Main St","location":{"type":"Point","coordinates":[-88.9412556,39.8622403]},"isApproved":true,"items":[],"keys":["Bakeries","Coffee & Tea","Sandwiches"],"lastUpdated":1547527612378,"name":"Wildflour Artisan Bakery & Cafe","phone":"(217) 422-3300","price":"$","reviewCount":24,"reviewScore":4,"meta":{"revision":0,"created":1547531155327,"version":0},"$loki":20},{"_id":"5c3d65bd3525a329e0c13918","address":"1975 W Wabash Ave","location":{"type":"Point","coordinates":[-88.9262661,39.856759]},"isApproved":true,"items":[],"keys":["Pubs","American (Traditional)","Pizza"],"lastUpdated":1547527612698,"name":"The Dublin Pub","phone":"(217) 793-6871","price":"$$","reviewCount":118,"reviewScore":3.5,"meta":{"revision":0,"created":1547531155327,"version":0},"$loki":21},{"_id":"5c3d65bd3525a329e0c04367","address":"517 S 4th St","location":{"type":"Point","coordinates":[-88.8967477328186,39.8846135800761]},"isApproved":true,"items":[],"keys":["American (Traditional)","Lounges"],"lastUpdated":1547527612321,"name":"Loukinens’ On 4th","phone":"(217) 670-1363","price":"$$$","reviewCount":26,"reviewScore":5,"meta":{"revision":0,"created":1547531155327,"version":0},"$loki":22},{"_id":"5c3d65bd3525a329e0c1434d","address":"3115 Chatham Rd","location":{"type":"Point","coordinates":[-88.901346,39.849005]},"isApproved":true,"items":[],"keys":["Indian"],"lastUpdated":1547527612714,"name":"Gateway To India","phone":"(217) 726-6890","price":"$$","reviewCount":86,"reviewScore":3.5,"meta":{"revision":0,"created":1547531155327,"version":0},"$loki":23},{"_id":"5c3d65bd3525a329e0c1b517","address":"2301 S Dirksen Pkwy","location":{"type":"Point","coordinates":[-88.8992033153772,39.8496303251059]},"isApproved":true,"items":[],"keys":["American (Traditional)"],"lastUpdated":1547527612885,"name":"Abe’s Hideout","phone":"(217) 679-2044","price":"$$","reviewCount":35,"reviewScore":3.5,"meta":{"revision":0,"created":1547531155327,"version":0},"$loki":24},{"_id":"5c3d65bd3525a329e0c16719","address":"1827 N Peoria Rd","location":{"type":"Point","coordinates":[-88.8974444,39.8519693]},"isApproved":true,"items":[],"keys":["Fast Food","Hot Dogs"],"lastUpdated":1547527612766,"name":"Taste Of The Windy City","phone":"(217) 679-1636","price":"","reviewCount":5,"reviewScore":4,"meta":{"revision":0,"created":1547531155327,"version":0},"$loki":25},{"_id":"5c3d65bd3525a329e0c0b5cb","address":"910 S Airport Rd","location":{"type":"Point","coordinates":[-88.8772255,39.8333812]},"isApproved":true,"items":[],"keys":["American (New)","Salad","Bars"],"lastUpdated":1547527612499,"name":"Red Barn Kitchen","phone":"(217) 330-7777","price":"$$","reviewCount":23,"reviewScore":4,"meta":{"revision":0,"created":1547531155327,"version":0},"$loki":26},{"_id":"5c3d65bd3525a329e0c110c5","address":"620 N Bruns Ln","location":{"type":"Point","coordinates":[-88.8776828,39.8163077]},"isApproved":true,"items":[],"keys":["Steakhouses"],"lastUpdated":1547527612641,"name":"Alexander’s Steak House","phone":"(217) 793-0440","price":"$$","reviewCount":30,"reviewScore":3.5,"meta":{"revision":0,"created":1547531155327,"version":0},"$loki":27},{"_id":"5c3d65bd3525a329e0c1148e","address":"1013 Wabash Ave","location":{"type":"Point","coordinates":[-88.8774874806404,39.8155174918595]},"isApproved":true,"items":[],"keys":["Pizza","Salad","Sandwiches"],"lastUpdated":1547527612643,"name":"Antonios Pizza","phone":"(217) 787-5544","price":"$","reviewCount":13,"reviewScore":3.5,"meta":{"revision":0,"created":1547531155327,"version":0},"$loki":28},{"_id":"5c3d65bd3525a329e0c09289","address":"1909 Mount Zion Rd","location":{"type":"Point","coordinates":[-88.8786638,39.8197464]},"isApproved":true,"items":[],"keys":["Fast Food","Burgers","Coffee & Tea"],"lastUpdated":1547527612452,"name":"McDonald’s","phone":"(217) 864-4937","price":"$","reviewCount":4,"reviewScore":2.5,"meta":{"revision":0,"created":1547531155327,"version":0},"$loki":29},{"_id":"5c3d65bd3525a329e0bfff50","address":"1910 Mt Zion Rd","location":{"type":"Point","coordinates":[-88.8781679,39.8198918]},"isApproved":true,"items":[],"keys":["Delis","Sandwiches","Fast Food"],"lastUpdated":1547527612223,"name":"Jimmy John’s","phone":"(217) 864-9999","price":"$","reviewCount":3,"reviewScore":3,"meta":{"revision":0,"created":1547531155327,"version":0},"$loki":30},{"_id":"5c3d65bd3525a329e0c05db4","address":"1925 S Zion Rd","location":{"type":"Point","coordinates":[-88.8788554,39.818994]},"isApproved":true,"items":[],"keys":["Fast Food","Sandwiches"],"lastUpdated":1547527612361,"name":"Arby’s","phone":"(217) 864-3820","price":"$","reviewCount":1,"reviewScore":1,"meta":{"revision":0,"created":1547531155327,"version":0},"$loki":31},{"_id":"5c3d65bd3525a329e0c14461","address":"1991 Mt Zion Rd","location":{"type":"Point","coordinates":[-88.878158,39.818655]},"isApproved":true,"items":[],"keys":["Mexican","Tex-Mex","Fast Food"],"lastUpdated":1547527612714,"name":"Taco Bell","phone":"(217) 864-2900","price":"","reviewCount":2,"reviewScore":2,"meta":{"revision":0,"created":1547531155327,"version":0},"$loki":32},{"_id":"5c3d65bd3525a329e0c01ff7","address":"3010 N Martin Luther King Jr Dr","location":{"type":"Point","coordinates":[-88.8768600582593,39.8171433539519]},"isApproved":true,"items":[],"keys":["Italian"],"lastUpdated":1547527612274,"name":"Tuscany Steak and Pasta House","phone":"(217) 876-9900","price":"","reviewCount":9,"reviewScore":3.5,"meta":{"revision":0,"created":1547531155327,"version":0},"$loki":33},{"_id":"5c3d65bd3525a329e0c0c57b","address":"803 S Dirksen Pkwy","location":{"type":"Point","coordinates":[-88.876733,39.817012]},"isApproved":true,"items":[],"keys":["Mexican"],"lastUpdated":1547527612524,"name":"Jolly Tamale","phone":"(217) 523-2345","price":"$","reviewCount":15,"reviewScore":3,"meta":{"revision":0,"created":1547531155327,"version":0},"$loki":34},{"_id":"5c3d65bd3525a329e0c0d0c1","address":"495 N 22nd St","location":{"type":"Point","coordinates":[-88.8767393774136,39.8166630609595]},"isApproved":true,"items":[],"keys":["Mexican"],"lastUpdated":1547527612544,"name":"Taqueria La Perlita","phone":"(217) 330-8008","price":"$","reviewCount":13,"reviewScore":4.5,"meta":{"revision":0,"created":1547531155327,"version":0},"$loki":35},{"_id":"5c3d65bd3525a329e0c0bb2e","address":"204 S 6th St","location":{"type":"Point","coordinates":[-88.8826471,39.8175468]},"isApproved":true,"items":[],"keys":["Coffee & Tea","Breakfast & Brunch","Sandwiches"],"lastUpdated":1547527612509,"name":"Cafe Andiamo","phone":"(217) 523-3262","price":"$","reviewCount":79,"reviewScore":3.5,"meta":{"revision":0,"created":1547531155327,"version":0},"$loki":36},{"_id":"5c3d65bd3525a329e0c006d5","address":"3655 E State Rt 36","location":{"type":"Point","coordinates":[-88.8871425,39.822405]},"isApproved":true,"items":[],"keys":["Mexican"],"lastUpdated":1547527612227,"name":"EL Corral Restaurante Mexicano","phone":"(217) 233-1714","price":"$","reviewCount":14,"reviewScore":4.5,"meta":{"revision":0,"created":1547531155327,"version":0},"$loki":37},{"_id":"5c3d65bd3525a329e0c0330e","address":"11000 Buckhart Rd","location":{"type":"Point","coordinates":[-88.8956947498058,39.8242101548669]},"isApproved":true,"items":[],"keys":["Pizza"],"lastUpdated":1547527612302,"name":"Buckhart Tavern","phone":"(217) 498-9469","price":"","reviewCount":2,"reviewScore":5,"meta":{"revision":0,"created":1547531155327,"version":0},"$loki":38},{"_id":"5c3d65bd3525a329e0c05b6a","address":"8266 US Hwy 36","location":{"type":"Point","coordinates":[-88.9184027324607,39.8448270649324]},"isApproved":true,"items":[],"keys":["Cafes"],"lastUpdated":1547527612356,"name":"Hammond Cafe","phone":"(217) 262-3314","price":"","reviewCount":1,"reviewScore":5,"meta":{"revision":0,"created":1547531155327,"version":0},"$loki":39},{"_id":"5c3d65bd3525a329e0bffce1","address":"2201 E Wood St","location":{"type":"Point","coordinates":[-88.9259048,39.8408051]},"isApproved":true,"items":[],"keys":["Diners","Breakfast & Brunch"],"lastUpdated":1547527612221,"name":"The Corner Cafe","phone":"(217) 424-9390","price":"","reviewCount":1,"reviewScore":1,"meta":{"revision":0,"created":1547531155327,"version":0},"$loki":40},{"_id":"5c3d65bd3525a329e0c01013","address":"4201 Wabash Ave","location":{"type":"Point","coordinates":[-88.9260961057457,39.8411803083892]},"isApproved":true,"items":[],"keys":["American (New)","Asian Fusion"],"lastUpdated":1547527612238,"name":"Mimosa","phone":"(217) 787-7733","price":"$$","reviewCount":62,"reviewScore":3.5,"meta":{"revision":0,"created":1547531155327,"version":0},"$loki":41},{"_id":"5c3d65bd3525a329e0c01938","address":"1531 Wabash Ave","location":{"type":"Point","coordinates":[-88.9237435,39.8425904]},"isApproved":true,"items":[],"keys":["Thai","Vietnamese"],"lastUpdated":1547527612251,"name":"Little Saigon","phone":"(217) 726-9633","price":"$","reviewCount":184,"reviewScore":4,"meta":{"revision":0,"created":1547531155327,"version":0},"$loki":42},{"_id":"5c3d65bd3525a329e0c152a6","address":"713 N 7th St","location":{"type":"Point","coordinates":[-88.9266065,39.8461749]},"isApproved":true,"items":[],"keys":["Pizza","Italian"],"lastUpdated":1547527612737,"name":"Frances’ Pizza","phone":"(217) 629-8880","price":"$$","reviewCount":2,"reviewScore":5,"meta":{"revision":0,"created":1547531155327,"version":0},"$loki":43},{"_id":"5c3d65bd3525a329e0c138b0","address":"3114 S 6th St","location":{"type":"Point","coordinates":[-88.9316527,39.8458680552312]},"isApproved":true,"items":[],"keys":["Italian","Pizza","Chicken Wings"],"lastUpdated":1547527612698,"name":"Pizza Hut","phone":"(217) 529-3344","price":"","reviewCount":4,"reviewScore":2,"meta":{"revision":0,"created":1547531155327,"version":0},"$loki":44},{"_id":"5c3d65bd3525a329e0c15660","address":"848 S Grand Ave E","location":{"type":"Point","coordinates":[-88.930275,39.8467501]},"isApproved":true,"items":[],"keys":["Fast Food","Seafood"],"lastUpdated":1547527612746,"name":"Da Catch Shrimp Fish Chicken","phone":"(217) 670-1895","price":"","reviewCount":2,"reviewScore":2,"meta":{"revision":0,"created":1547531155327,"version":0},"$loki":45},{"_id":"5c3d65bd3525a329e0c0fb50","address":"3133 S Dirksen Pkwy","location":{"type":"Point","coordinates":[-88.9322198,39.8460645]},"isApproved":true,"items":[],"keys":["Pizza"],"lastUpdated":1547527612601,"name":"Gallina’s Pizza","phone":"(217) 529-0649","price":"$","reviewCount":34,"reviewScore":3.5,"meta":{"revision":0,"created":1547531155327,"version":0},"$loki":46},{"_id":"5c3d65bd3525a329e0c1b4b7","address":"3205 Clearlake Ave","location":{"type":"Point","coordinates":[-88.940823,39.845697]},"isApproved":true,"items":[],"keys":["American (Traditional)","Burgers","Ice Cream & Frozen Yogurt"],"lastUpdated":1547527612885,"name":"Freddy’s Frozen Custard & Steakburgers","phone":"(217) 544-5144","price":"$","reviewCount":45,"reviewScore":3,"meta":{"revision":0,"created":1547531155327,"version":0},"$loki":47},{"_id":"5c3d65bd3525a329e0c082f9","address":"1869 E Sangamon Ave","location":{"type":"Point","coordinates":[-88.9399275,39.8458938]},"isApproved":true,"items":[],"keys":["Italian"],"lastUpdated":1547527612420,"name":"Spaghetti Shop","phone":"(217) 788-0781","price":"$","reviewCount":4,"reviewScore":1.5,"meta":{"revision":0,"created":1547531155327,"version":0},"$loki":48},{"_id":"5c3d65bd3525a329e0c0f397","address":"2690 S Dirksen Pkwy","location":{"type":"Point","coordinates":[-88.9404147,39.8413364]},"isApproved":true,"items":[],"keys":["American (New)"],"lastUpdated":1547527612592,"name":"Dew Chilli Parlor","phone":"(217) 679-2940","price":"","reviewCount":4,"reviewScore":4,"meta":{"revision":0,"created":1547531155327,"version":0},"$loki":49},{"_id":"5c3d65bd3525a329e0c03d03","address":"2301 S Lake Shore Dr","location":{"type":"Point","coordinates":[-88.9230649,39.8319128]},"isApproved":true,"items":[],"keys":["Steakhouses","Seafood","Cajun/Creole"],"lastUpdated":1547527612313,"name":"Beach House","phone":"(217) 422-7202","price":"$$","reviewCount":93,"reviewScore":3.5,"meta":{"revision":0,"created":1547531155327,"version":0},"$loki":50},{"_id":"5c3d65bd3525a329e0c06cc5","address":"170 W Debby Dr","location":{"type":"Point","coordinates":[-88.9589059352875,39.820909937363]},"isApproved":true,"items":[],"keys":["Pizza","Pubs","American (Traditional)"],"lastUpdated":1547527612386,"name":"Crawford’s Pizza & Pub","phone":"(217) 864-1691","price":"","reviewCount":6,"reviewScore":3.5,"meta":{"revision":0,"created":1547531155327,"version":0},"$loki":51},{"_id":"5c3d65bd3525a329e0c0133a","address":"1101 Wabash Ave","location":{"type":"Point","coordinates":[-88.959131,39.821002]},"isApproved":true,"items":[],"keys":["Chinese","Sushi Bars"],"lastUpdated":1547527612248,"name":"Hunan Chinese Restaurant & Sushi Bar","phone":"(217) 726-5760","price":"$$","reviewCount":61,"reviewScore":3.5,"meta":{"revision":0,"created":1547531155327,"version":0},"$loki":52},{"_id":"5c3d65bd3525a329e0c06ed0","address":"118 N Pasfield St","location":{"type":"Point","coordinates":[-88.957685,39.82226]},"isApproved":true,"items":[],"keys":["Sandwiches"],"lastUpdated":1547527612388,"name":"Maid Rite Sandwich Shop","phone":"(217) 523-0723","price":"$","reviewCount":64,"reviewScore":3.5,"meta":{"revision":0,"created":1547531155327,"version":0},"$loki":53},{"_id":"5c3d65bd3525a329e0c13177","address":"962 W Eldorado","location":{"type":"Point","coordinates":[-88.9571359034271,39.821572442278]},"isApproved":true,"items":[],"keys":["Burgers","Fast Food","Coffee & Tea"],"lastUpdated":1547527612688,"name":"McDonald’s","phone":"(217) 422-8149","price":"$","reviewCount":7,"reviewScore":1.5,"meta":{"revision":0,"created":1547531155327,"version":0},"$loki":54},{"_id":"5c3d65bd3525a329e0c1875e","address":"201 W 1st Dr","location":{"type":"Point","coordinates":[-88.956424,39.821338]},"isApproved":true,"items":[],"keys":["Cocktail Bars","Seafood","American (Traditional)"],"lastUpdated":1547527612821,"name":"The Wharf","phone":"(217) 423-5450","price":"$$","reviewCount":18,"reviewScore":4,"meta":{"revision":0,"created":1547531155327,"version":0},"$loki":55},{"_id":"5c3d65bd3525a329e0c04154","address":"801 E Wood St","location":{"type":"Point","coordinates":[-88.9460813,39.8403028]},"isApproved":true,"items":[],"keys":["Burgers","Ice Cream & Frozen Yogurt"],"lastUpdated":1547527612320,"name":"Krekel’s Custard","phone":"(217) 429-1122","price":"$","reviewCount":7,"reviewScore":4.5,"meta":{"revision":0,"created":1547531155327,"version":0},"$loki":56},{"_id":"5c3d65bd3525a329e0c0653f","address":"1948 E Eldorado St","location":{"type":"Point","coordinates":[-88.9420225,39.8457521]},"isApproved":true,"items":[],"keys":["Pizza","Chicken Wings","Sandwiches"],"lastUpdated":1547527612377,"name":"Domino’s Pizza","phone":"(217) 429-4155","price":"","reviewCount":4,"reviewScore":3,"meta":{"revision":0,"created":1547531155327,"version":0},"$loki":57},{"_id":"5c3d65bd3525a329e0c05aa7","address":"2760 N Dirksen Pkwy","location":{"type":"Point","coordinates":[-88.9535528,39.8429774]},"isApproved":true,"items":[],"keys":["Fast Food","Sandwiches"],"lastUpdated":1547527612356,"name":"Subway","phone":"(217) 492-1449","price":"","reviewCount":1,"reviewScore":2,"meta":{"revision":0,"created":1547531155327,"version":0},"$loki":58},{"_id":"5c3d65bd3525a329e0c0ff74","address":"200 W Illinois St","location":{"type":"Point","coordinates":[-88.9535807,39.8439676]},"isApproved":true,"items":[],"keys":["Pizza"],"lastUpdated":1547527612609,"name":"Capones Hideout","phone":"(217) 488-6121","price":"$$","reviewCount":17,"reviewScore":4,"meta":{"revision":0,"created":1547531155327,"version":0},"$loki":59},{"_id":"5c3d65bd3525a329e0c103ac","address":"4655 E Maryland St","location":{"type":"Point","coordinates":[-88.9537648,39.844694]},"isApproved":true,"items":[],"keys":["Chinese"],"lastUpdated":1547527612617,"name":"China King","phone":"(217) 864-2808","price":"","reviewCount":1,"reviewScore":3,"meta":{"revision":0,"created":1547531155327,"version":0},"$loki":60},{"_id":"5c3d65bd3525a329e0c0a6f7","address":"1814 Adlai Stevenson Dr","location":{"type":"Point","coordinates":[-88.9553223484226,39.846866697172]},"isApproved":true,"items":[],"keys":["Greek"],"lastUpdated":1547527612481,"name":"Yannis Gyros","phone":"(217) 585-9300","price":"$","reviewCount":66,"reviewScore":4.5,"meta":{"revision":0,"created":1547531155327,"version":0},"$loki":61},{"_id":"5c3d65bd3525a329e0c07762","address":"3211 E Sangamon Ave","location":{"type":"Point","coordinates":[-88.9561956436749,39.8484393669346]},"isApproved":true,"items":[],"keys":["Pizza","Dive Bars","American (Traditional)"],"lastUpdated":1547527612402,"name":"Top Cats Chill & Grill","phone":"(217) 528-4201","price":"$","reviewCount":19,"reviewScore":2.5,"meta":{"revision":0,"created":1547531155327,"version":0},"$loki":62},{"_id":"5c3d65bd3525a329e0c04b54","address":"1425 N Oakland Ave","location":{"type":"Point","coordinates":[-88.956236,39.843308]},"isApproved":true,"items":[],"keys":["American (New)"],"lastUpdated":1547527612331,"name":"Krekel’s Custard","phone":"(217) 362-0121","price":"$","reviewCount":21,"reviewScore":4.5,"meta":{"revision":0,"created":1547531155327,"version":0},"$loki":63},{"_id":"5c3d65bd3525a329e0c12366","address":"200 WIllinois St","location":{"type":"Point","coordinates":[-88.956142,39.843411]},"isApproved":true,"items":[],"keys":["Pizza","Italian"],"lastUpdated":1547527612669,"name":"The Garden","phone":"(217) 313-1890","price":"$$","reviewCount":14,"reviewScore":4.5,"meta":{"revision":0,"created":1547531155327,"version":0},"$loki":64},{"_id":"5c3d65bd3525a329e0c08475","address":"237 N Main St","location":{"type":"Point","coordinates":[-88.956052,39.8431281]},"isApproved":true,"items":[],"keys":["American (New)","Bars"],"lastUpdated":1547527612426,"name":"Sol Bistro","phone":"(217) 330-6483","price":"$$","reviewCount":81,"reviewScore":4,"meta":{"revision":0,"created":1547531155327,"version":0},"$loki":65},{"_id":"5c3d65bd3525a329e0c195f4","address":"5025 S Route 51","location":{"type":"Point","coordinates":[-88.9584731,39.8415599]},"isApproved":true,"items":[],"keys":["Restaurants"],"lastUpdated":1547527612841,"name":"Rasberry Room","phone":"(217) 865-2916","price":"","reviewCount":1,"reviewScore":3,"meta":{"revision":0,"created":1547531155327,"version":0},"$loki":66},{"_id":"5c3d65bd3525a329e0c1334c","address":"2500 Sunrise Dr","location":{"type":"Point","coordinates":[-88.9570005610585,39.841248317963]},"isApproved":true,"items":[],"keys":["Steakhouses","American (Traditional)","Beer Bar"],"lastUpdated":1547527612689,"name":"Springfield Char House","phone":"(217) 679-5022","price":"$$","reviewCount":54,"reviewScore":3.5,"meta":{"revision":0,"created":1547531155327,"version":0},"$loki":67},{"_id":"5c3d65bd3525a329e0c01590","address":"820 N Main St","location":{"type":"Point","coordinates":[-88.9560698,39.8418435]},"isApproved":true,"items":[],"keys":["Soul Food"],"lastUpdated":1547527612249,"name":"Jalyrih Grill and Catering","phone":"(217) 330-7427","price":"","reviewCount":2,"reviewScore":4,"meta":{"revision":0,"created":1547531155327,"version":0},"$loki":68},{"_id":"5c3d65bd3525a329e0c0e662","address":"3000 S Dirksen Pkwy","location":{"type":"Point","coordinates":[-88.9560731,39.8428502]},"isApproved":true,"items":[],"keys":["American (Traditional)"],"lastUpdated":1547527612574,"name":"Long 9 Restaurant","phone":"(217) 529-7777","price":"","reviewCount":1,"reviewScore":1,"meta":{"revision":0,"created":1547531155327,"version":0},"$loki":69},{"_id":"5c3d65bd3525a329e0c12aeb","address":"2825 N Water St","location":{"type":"Point","coordinates":[-88.9556039,39.8427499]},"isApproved":true,"items":[],"keys":["Italian"],"lastUpdated":1547527612680,"name":"Lagondola Spaghetti House North","phone":"(217) 875-4888","price":"$","reviewCount":24,"reviewScore":4,"meta":{"revision":0,"created":1547531155327,"version":0},"$loki":70},{"_id":"5c3d65bd3525a329e0bff79a","address":"824 W Eldorado St","location":{"type":"Point","coordinates":[-88.9554391,39.842389]},"isApproved":true,"items":[],"keys":["Barbeque"],"lastUpdated":1547527612218,"name":"Tasty’s Chicago Grille","phone":"(217) 422-6060","price":"$","reviewCount":7,"reviewScore":3.5,"meta":{"revision":0,"created":1547531155327,"version":0},"$loki":71},{"_id":"5c3d65bd3525a329e0c15213","address":"170 N Merchant St","location":{"type":"Point","coordinates":[-88.9552992,39.8423859]},"isApproved":true,"items":[],"keys":["American (New)","Cocktail Bars"],"lastUpdated":1547527612737,"name":"TapRoot","phone":"(217) 330-6365","price":"$$","reviewCount":52,"reviewScore":4,"meta":{"revision":0,"created":1547531155327,"version":0},"$loki":72},{"_id":"5c3d65bd3525a329e0c03322","address":"124 E Prairie St","location":{"type":"Point","coordinates":[-88.9552824,39.8427571]},"isApproved":true,"items":[],"keys":["Bars","American (New)"],"lastUpdated":1547527612302,"name":"The Gin Mill","phone":"(217) 330-8073","price":"$$$","reviewCount":67,"reviewScore":4,"meta":{"revision":0,"created":1547531155327,"version":0},"$loki":73},{"_id":"5c3d65bd3525a329e0c1b455","address":"122 N Merchant St","location":{"type":"Point","coordinates":[-88.9553759,39.8418938]},"isApproved":true,"items":[],"keys":["American (Traditional)"],"lastUpdated":1547527612885,"name":"Robbie’s Grille","phone":"(217) 423-0448","price":"$$","reviewCount":18,"reviewScore":4,"meta":{"revision":0,"created":1547531155327,"version":0},"$loki":74},{"_id":"5c3d65bd3525a329e0c01e50","address":"3013 Lindbergh Blvd","location":{"type":"Point","coordinates":[-88.9528841,39.8370262]},"isApproved":true,"items":[],"keys":["Seafood","French","Asian Fusion"],"lastUpdated":1547527612260,"name":"Indigo Restaurant","phone":"(217) 726-3487","price":"$$$","reviewCount":51,"reviewScore":3.5,"meta":{"revision":0,"created":1547531155327,"version":0},"$loki":75},{"_id":"5c3d65bd3525a329e0c12bf1","address":"320 E Main St","location":{"type":"Point","coordinates":[-88.9524026,39.8334464]},"isApproved":true,"items":[],"keys":["Bars","Salad","Burgers"],"lastUpdated":1547527612680,"name":"The Alibi","phone":"(217) 498-1129","price":"","reviewCount":6,"reviewScore":4,"meta":{"revision":0,"created":1547531155327,"version":0},"$loki":76},{"_id":"5c3d65bd3525a329e0c08b7c","address":"701 W Eldorado St","location":{"type":"Point","coordinates":[-88.9651195,39.8453931]},"isApproved":true,"items":[],"keys":["Seafood","Fast Food"],"lastUpdated":1547527612436,"name":"Long John Silver’s","phone":"(217) 422-8977","price":"$","reviewCount":1,"reviewScore":1,"meta":{"revision":0,"created":1547531155327,"version":0},"$loki":77},{"_id":"5c3d65bd3525a329e0c05c8e","address":"3100 W Iles Ave","location":{"type":"Point","coordinates":[-88.9699656012181,39.8458827958587]},"isApproved":true,"items":[],"keys":["Pizza"],"lastUpdated":1547527612357,"name":"Domino’s","phone":"(217) 717-2103","price":"","reviewCount":3,"reviewScore":2.5,"meta":{"revision":0,"created":1547531155327,"version":0},"$loki":78},{"_id":"5c3d65bd3525a329e0c0664c","address":"2890 Mount Zion Rd","location":{"type":"Point","coordinates":[-88.9665078,39.8458714]},"isApproved":true,"items":[],"keys":["Cafes","Coffee & Tea"],"lastUpdated":1547527612377,"name":"Black Iron Coffee Company","phone":"(217) 571-0167","price":"","reviewCount":8,"reviewScore":4.5,"meta":{"revision":0,"created":1547531155327,"version":0},"$loki":79},{"_id":"5c3d65bd3525a329e0c14d88","address":"102 E Pershing Rd","location":{"type":"Point","coordinates":[-88.9700895,39.8453003]},"isApproved":true,"items":[],"keys":["Burgers","Fast Food"],"lastUpdated":1547527612730,"name":"Wendy’s","phone":"(217) 872-6442","price":"","reviewCount":3,"reviewScore":3.5,"meta":{"revision":0,"created":1547531155327,"version":0},"$loki":80},{"_id":"5c3d65bd3525a329e0c0de77","address":"1080 W Eldorado St","location":{"type":"Point","coordinates":[-88.9724447,39.8458838]},"isApproved":true,"items":[],"keys":["Fast Food"],"lastUpdated":1547527612563,"name":"Hardee’s","phone":"(217) 428-6100","price":"$","reviewCount":3,"reviewScore":1,"meta":{"revision":0,"created":1547531155327,"version":0},"$loki":81},{"_id":"5c3d65bd3525a329e0c0498c","address":"916 S Grand Ave W","location":{"type":"Point","coordinates":[-88.9716185,39.8457085]},"isApproved":true,"items":[],"keys":["Cafes","Coffee & Tea","Sandwiches"],"lastUpdated":1547527612330,"name":"Free Press Coffee House","phone":"(217) 679-1866","price":"","reviewCount":17,"reviewScore":4.5,"meta":{"revision":0,"created":1547531155327,"version":0},"$loki":82},{"_id":"5c3d65bd3525a329e0c0d7d9","address":"108 E Illinois St","location":{"type":"Point","coordinates":[-88.9727329,39.8408174]},"isApproved":true,"items":[],"keys":["American (Traditional)","Bars"],"lastUpdated":1547527612554,"name":"Shepp’s Bar & Grill","phone":"(217) 488-6363","price":"","reviewCount":1,"reviewScore":5,"meta":{"revision":0,"created":1547531155327,"version":0},"$loki":83},{"_id":"5c3d65bd3525a329e0c0d667","address":"2901 Chatham Rd","location":{"type":"Point","coordinates":[-88.9725568,39.8406684]},"isApproved":true,"items":[],"keys":["Barbeque","Asian Fusion"],"lastUpdated":1547527612554,"name":"James Home Kitchen","phone":"(217) 679-2006","price":"$$","reviewCount":30,"reviewScore":4.5,"meta":{"revision":0,"created":1547531155327,"version":0},"$loki":84},{"_id":"5c3d65bd3525a329e0c0694e","address":"210 Broadway","location":{"type":"Point","coordinates":[-88.9726455269412,39.8408238241696]},"isApproved":true,"items":[],"keys":["Bars","American (Traditional)"],"lastUpdated":1547527612379,"name":"Arlington’s","phone":"(217) 679-6235","price":"$$","reviewCount":60,"reviewScore":4,"meta":{"revision":0,"created":1547531155327,"version":0},"$loki":85},{"_id":"5c3d65bd3525a329e0c1a910","address":"348 W 1st Dr","location":{"type":"Point","coordinates":[-88.9725568,39.840905]},"isApproved":true,"items":[],"keys":["Pizza","Italian","Sandwiches"],"lastUpdated":1547527612867,"name":"Monical’s Pizza","phone":"(217) 423-2333","price":"$$","reviewCount":15,"reviewScore":4,"meta":{"revision":0,"created":1547531155327,"version":0},"$loki":86},{"_id":"5c3d65bd3525a329e0c07ae0","address":"2703 N Dirksen Pkwy","location":{"type":"Point","coordinates":[-88.9726377,39.8402137]},"isApproved":true,"items":[],"keys":["Thai"],"lastUpdated":1547527612410,"name":"Thai Basil","phone":"(217) 525-7777","price":"$","reviewCount":67,"reviewScore":4,"meta":{"revision":0,"created":1547531155327,"version":0},"$loki":87},{"_id":"5c3d65bd3525a329e0c0ed47","address":"1101 S Spring St","location":{"type":"Point","coordinates":[-88.9725998,39.8403724]},"isApproved":true,"items":[],"keys":["Pizza","Italian"],"lastUpdated":1547527612582,"name":"Bernie & Betty’s Pizza","phone":"(217) 528-1821","price":"$$","reviewCount":26,"reviewScore":4,"meta":{"revision":0,"created":1547531155327,"version":0},"$loki":88},{"_id":"5c3d65bd3525a329e0c0f93d","address":"1135 W Wood St","location":{"type":"Point","coordinates":[-88.9733648,39.8399709]},"isApproved":true,"items":[],"keys":["Pizza","Chicken Wings","Sandwiches"],"lastUpdated":1547527612600,"name":"Domino’s Pizza","phone":"(217) 422-2244","price":"","reviewCount":1,"reviewScore":2,"meta":{"revision":0,"created":1547531155327,"version":0},"$loki":89},{"_id":"5c3d65bd3525a329e0c066bf","address":"1831 S Grand Ave E","location":{"type":"Point","coordinates":[-88.985412,39.81918]},"isApproved":true,"items":[],"keys":["American (New)"],"lastUpdated":1547527612378,"name":"Boyd’s New Generation","phone":"(217) 544-9866","price":"$$","reviewCount":6,"reviewScore":4.5,"meta":{"revision":0,"created":1547531155327,"version":0},"$loki":90},{"_id":"5c3d65bd3525a329e0c0b040","address":"2661 Chatham Rd","location":{"type":"Point","coordinates":[-88.9803169083519,39.8479604591148]},"isApproved":true,"items":[],"keys":["Tacos","Food Trucks","Breakfast & Brunch"],"lastUpdated":1547527612492,"name":"Tacos Pepe","phone":"(217) 391-4260","price":"$","reviewCount":33,"reviewScore":3.5,"meta":{"revision":0,"created":1547531155327,"version":0},"$loki":91},{"_id":"5c3d65bd3525a329e0c0c264","address":"2753 Chatham Rd","location":{"type":"Point","coordinates":[-88.9811617,39.8482025]},"isApproved":true,"items":[],"keys":["Mexican"],"lastUpdated":1547527612517,"name":"Aztca Mexican Grill","phone":"(217) 546-6906","price":"$$","reviewCount":71,"reviewScore":4,"meta":{"revision":0,"created":1547531155327,"version":0},"$loki":92},{"_id":"5c3d65bd3525a329e0c0a769","address":"217 N Main St","location":{"type":"Point","coordinates":[-88.9810004306902,39.8487563594972]},"isApproved":true,"items":[],"keys":["American (Traditional)","Breakfast & Brunch","Sandwiches"],"lastUpdated":1547527612481,"name":"The Downtown Cafe","phone":"(217) 428-1120","price":"$","reviewCount":14,"reviewScore":3.5,"meta":{"revision":0,"created":1547531155327,"version":0},"$loki":93},{"_id":"5c3d65bd3525a329e0c03656","address":"4241 Conestoga Dr","location":{"type":"Point","coordinates":[-88.9825674,39.8541361]},"isApproved":true,"items":[],"keys":["American (Traditional)","Burgers","Southern"],"lastUpdated":1547527612303,"name":"O’Charley’s Restaurant & Bar","phone":"(217) 787-2809","price":"$$","reviewCount":31,"reviewScore":3,"meta":{"revision":0,"created":1547531155327,"version":0},"$loki":94},{"_id":"5c3d65bd3525a329e0c1b17b","address":"2641 Chatham Road","location":{"type":"Point","coordinates":[-88.9649958908558,39.8759906017742]},"isApproved":true,"items":[],"keys":["Pizza"],"lastUpdated":1547527612877,"name":"Papa Murphy’s","phone":"(217) 698-7272","price":"$$","reviewCount":2,"reviewScore":4.5,"meta":{"revision":0,"created":1547531155327,"version":0},"$loki":95},{"_id":"5c3d65bd3525a329e0c0a633","address":"2959 N Oakland Ave","location":{"type":"Point","coordinates":[-88.9734353,39.8755246]},"isApproved":true,"items":[],"keys":["American (Traditional)"],"lastUpdated":1547527612481,"name":"Diamond’s Family Restaurant","phone":"(217) 875-6051","price":"$","reviewCount":25,"reviewScore":4,"meta":{"revision":0,"created":1547531155327,"version":0},"$loki":96},{"_id":"5c3d65bd3525a329e0c11231","address":"3115 E.Sangamon Ave","location":{"type":"Point","coordinates":[-88.9723138,39.8736759]},"isApproved":true,"items":[],"keys":["American (New)"],"lastUpdated":1547527612642,"name":"Cooper’s Alley Side","phone":"","price":"$","reviewCount":4,"reviewScore":3,"meta":{"revision":0,"created":1547531155327,"version":0},"$loki":97},{"_id":"5c3d65bd3525a329e0c00408","address":"2230 S Mt Zion Rd","location":{"type":"Point","coordinates":[-88.9726764,39.866487]},"isApproved":true,"items":[],"keys":["Pizza","Italian"],"lastUpdated":1547527612226,"name":"Monical’s Pizza","phone":"(217) 864-2060","price":"$$","reviewCount":8,"reviewScore":3.5,"meta":{"revision":0,"created":1547531155327,"version":0},"$loki":98},{"_id":"5c3d65bd3525a329e0bff664","address":"1800 S 6th St","location":{"type":"Point","coordinates":[-88.9729642,39.8565804]},"isApproved":true,"items":[],"keys":["American (Traditional)","Pubs"],"lastUpdated":1547527612217,"name":"George Rank’s","phone":"(217) 670-1507","price":"","reviewCount":2,"reviewScore":5,"meta":{"revision":0,"created":1547531155327,"version":0},"$loki":99},{"_id":"5c3d65bd3525a329e0c16a88","address":"2208 N Peoria Rd","location":{"type":"Point","coordinates":[-88.9741455,39.8558045]},"isApproved":true,"items":[],"keys":["Food Stands"],"lastUpdated":1547527612773,"name":"P&P’s Lil Grill","phone":"(217) 553-0479","price":"$","reviewCount":1,"reviewScore":5,"meta":{"revision":0,"created":1547531155327,"version":0},"$loki":100},{"_id":"5c3d65bd3525a329e0c04767","address":"2805 N Main St","location":{"type":"Point","coordinates":[-88.9739370346069,39.8556792424531]},"isApproved":true,"items":[],"keys":["Mexican","Fast Food","Salad"],"lastUpdated":1547527612329,"name":"Solsa American Burrito","phone":"(217) 330-6309","price":"$$","reviewCount":12,"reviewScore":4.5,"meta":{"revision":0,"created":1547531155327,"version":0},"$loki":101},{"_id":"5c3d65bd3525a329e0c0200b","address":"3290 W Iles Ave","location":{"type":"Point","coordinates":[-88.9560938882837,39.8737825701498]},"isApproved":true,"items":[],"keys":["Cafes","American (Traditional)"],"lastUpdated":1547527612274,"name":"Papo’s Cafe","phone":"(217) 679-6044","price":"$$","reviewCount":22,"reviewScore":4.5,"meta":{"revision":0,"created":1547531155327,"version":0},"$loki":102},{"_id":"5c3d65bd3525a329e0c16974","address":"253 N Main St","location":{"type":"Point","coordinates":[-88.9553198,39.8736156]},"isApproved":true,"items":[],"keys":["Sushi Bars","Thai","Soup"],"lastUpdated":1547527612772,"name":"Anna Thai Restaurant","phone":"(217) 542-5972","price":"$$","reviewCount":33,"reviewScore":4,"meta":{"revision":0,"created":1547531155327,"version":0},"$loki":103},{"_id":"5c3d65bd3525a329e0c0684e","address":"3019 S Dirksen Pkwy","location":{"type":"Point","coordinates":[-88.9551311791213,39.8616266627054]},"isApproved":true,"items":[],"keys":["Sandwiches","Salad","Soup"],"lastUpdated":1547527612378,"name":"Panera Bread","phone":"(217) 529-6200","price":"$","reviewCount":29,"reviewScore":2.5,"meta":{"revision":0,"created":1547531155327,"version":0},"$loki":104},{"_id":"5c3d65bd3525a329e0c01336","address":"2612 N Martin Luther King Jr Dr","location":{"type":"Point","coordinates":[-88.95032,39.870712]},"isApproved":true,"items":[],"keys":["American (Traditional)","Smokehouse","Chicken Wings"],"lastUpdated":1547527612248,"name":"Carrol Lous Smokehouse","phone":"(217) 542-7275","price":"$","reviewCount":28,"reviewScore":4.5,"meta":{"revision":0,"created":1547531155327,"version":0},"$loki":105},{"_id":"5c3d65bd3525a329e0c0eae2","address":"2801 S 6th St","location":{"type":"Point","coordinates":[-88.9500275,39.878449]},"isApproved":true,"items":[],"keys":["Chinese"],"lastUpdated":1547527612581,"name":"New China Restaurant","phone":"(217) 523-3333","price":"$","reviewCount":8,"reviewScore":3,"meta":{"revision":0,"created":1547531155327,"version":0},"$loki":106},{"_id":"5c3d65bd3525a329e0c1a9a2","address":"2249 N 3rd St","location":{"type":"Point","coordinates":[-88.9498066666667,39.8777187515542]},"isApproved":true,"items":[],"keys":["Pubs","American (Traditional)"],"lastUpdated":1547527612868,"name":"Delaney’s Bar & Grill","phone":"(217) 679-8367","price":"$","reviewCount":12,"reviewScore":4.5,"meta":{"revision":0,"created":1547531155327,"version":0},"$loki":107},{"_id":"5c3d65bd3525a329e0c14f19","address":"2590 Wabash Ave","location":{"type":"Point","coordinates":[-88.9487558,39.8772325]},"isApproved":true,"items":[],"keys":["Steakhouses"],"lastUpdated":1547527612736,"name":"Outback Steakhouse","phone":"(217) 523-2815","price":"$$","reviewCount":37,"reviewScore":2.5,"meta":{"revision":0,"created":1547531155327,"version":0},"$loki":108},{"_id":"5c3d65bd3525a329e0c04d92","address":"2496 Wabash Ave","location":{"type":"Point","coordinates":[-88.946881,39.876647]},"isApproved":true,"items":[],"keys":["Fast Food","Chicken Wings"],"lastUpdated":1547527612338,"name":"Popeyes Louisiana Kitchen","phone":"(217) 793-9280","price":"$","reviewCount":4,"reviewScore":3.5,"meta":{"revision":0,"created":1547531155327,"version":0},"$loki":109},{"_id":"5c3d65bd3525a329e0c02d40","address":"1580 Wabash","location":{"type":"Point","coordinates":[-88.947411,39.8764973]},"isApproved":true,"items":[],"keys":["Burgers","Breakfast & Brunch","American (Traditional)"],"lastUpdated":1547527612294,"name":"Steak ’n Shake","phone":"(217) 787-0392","price":"$","reviewCount":19,"reviewScore":3.5,"meta":{"revision":0,"created":1547531155327,"version":0},"$loki":110},{"_id":"5c3d65bd3525a329e0c171df","address":"3752 Camp Butler Rd","location":{"type":"Point","coordinates":[-88.949888,39.875912]},"isApproved":true,"items":[],"keys":["Diners","Cafes"],"lastUpdated":1547527612783,"name":"Star 66 Cafe","phone":"(217) 523-0611","price":"$","reviewCount":51,"reviewScore":4.5,"meta":{"revision":0,"created":1547531155327,"version":0},"$loki":111},{"_id":"5c3d65bd3525a329e0c0bcc7","address":"1710 South MacArthur Blvd","location":{"type":"Point","coordinates":[-88.9504772,39.8754183]},"isApproved":true,"items":[],"keys":["Pizza"],"lastUpdated":1547527612509,"name":"Pies the Limit","phone":"(217) 679-3846","price":"$","reviewCount":21,"reviewScore":4,"meta":{"revision":0,"created":1547531155327,"version":0},"$loki":112},{"_id":"5c3d65bd3525a329e0c03dc4","address":"1001 Lejune Dr","location":{"type":"Point","coordinates":[-88.95312,39.878474]},"isApproved":true,"items":[],"keys":["Pizza","Chicken Wings"],"lastUpdated":1547527612313,"name":"Pizza Ranch","phone":"(217) 679-8844","price":"$$","reviewCount":38,"reviewScore":3.5,"meta":{"revision":0,"created":1547531155327,"version":0},"$loki":113},{"_id":"5c3d65bd3525a329e0c1080b","address":"1851 N Grand Ave E","location":{"type":"Point","coordinates":[-88.9530085,39.8781672]},"isApproved":true,"items":[],"keys":["Fast Food","Mexican"],"lastUpdated":1547527612619,"name":"Taco Gringo","phone":"(217) 525-2666","price":"$","reviewCount":7,"reviewScore":3.5,"meta":{"revision":0,"created":1547531155327,"version":0},"$loki":114},{"_id":"5c3d65bd3525a329e0c03623","address":"238 S Dirksen Pkwy","location":{"type":"Point","coordinates":[-88.9543287,39.8777245]},"isApproved":true,"items":[],"keys":["Chinese"],"lastUpdated":1547527612303,"name":"Hunan Express","phone":"(217) 525-8865","price":"$","reviewCount":5,"reviewScore":3,"meta":{"revision":0,"created":1547531155327,"version":0},"$loki":115},{"_id":"5c3d65bd3525a329e0bff592","address":"4211 Conestoga Dr","location":{"type":"Point","coordinates":[-88.9556343108416,39.8770815546742]},"isApproved":true,"items":[],"keys":["Burgers","Breakfast & Brunch","American (Traditional)"],"lastUpdated":1547527612217,"name":"Steak ’n Shake","phone":"(217) 698-9439","price":"$","reviewCount":15,"reviewScore":1.5,"meta":{"revision":0,"created":1547531155327,"version":0},"$loki":116},{"_id":"5c3d65bd3525a329e0bffab9","address":"121 N Grand Ave W","location":{"type":"Point","coordinates":[-88.955141,39.8767741]},"isApproved":true,"items":[],"keys":["Pizza","Sandwiches"],"lastUpdated":1547527612220,"name":"Papa John’s Pizza","phone":"(217) 744-7272","price":"$","reviewCount":9,"reviewScore":3,"meta":{"revision":0,"created":1547531155327,"version":0},"$loki":117},{"_id":"5c3d65bd3525a329e0c14f40","address":"4 S Old State Capitl Plz","location":{"type":"Point","coordinates":[-88.955533,39.876141]},"isApproved":true,"items":[],"keys":["Jazz & Blues","Sandwiches"],"lastUpdated":1547527612736,"name":"Robbie’s","phone":"(217) 528-1901","price":"$$","reviewCount":18,"reviewScore":2.5,"meta":{"revision":0,"created":1547531155327,"version":0},"$loki":118},{"_id":"5c3d65bd3525a329e0c1b64a","address":"3124 Montvale Dr","location":{"type":"Point","coordinates":[-88.9544409,39.8762393]},"isApproved":true,"items":[],"keys":["Sandwiches","Salad","Soup"],"lastUpdated":1547527612886,"name":"Monty’s Submarines","phone":"(217) 546-3020","price":"$","reviewCount":34,"reviewScore":4,"meta":{"revision":0,"created":1547531155327,"version":0},"$loki":119},{"_id":"5c3d65bd3525a329e0c069ed","address":"2950 N Water St","location":{"type":"Point","coordinates":[-88.9545196163056,39.8756578440539]},"isApproved":true,"items":[],"keys":["Delis","Sandwiches","Fast Food"],"lastUpdated":1547527612379,"name":"Jimmy John’s","phone":"(217) 872-8282","price":"","reviewCount":3,"reviewScore":2.5,"meta":{"revision":0,"created":1547531155327,"version":0},"$loki":120},{"_id":"5c3d65bd3525a329e0c021db","address":"3050 Stevenson Dr","location":{"type":"Point","coordinates":[-88.9549684524536,39.873841322331]},"isApproved":true,"items":[],"keys":["Breakfast & Brunch","American (Traditional)","Comfort Food"],"lastUpdated":1547527612276,"name":"Bob Evans","phone":"(217) 529-1909","price":"$$","reviewCount":23,"reviewScore":3.5,"meta":{"revision":0,"created":1547531155327,"version":0},"$loki":121},{"_id":"5c3d65bd3525a329e0c17dc7","address":"1925 E Garfield Ave","location":{"type":"Point","coordinates":[-88.956222,39.874137]},"isApproved":true,"items":[],"keys":["Pizza"],"lastUpdated":1547527612801,"name":"Little Caesars Pizza","phone":"(217) 875-5898","price":"$","reviewCount":4,"reviewScore":3.5,"meta":{"revision":0,"created":1547531155327,"version":0},"$loki":122},{"_id":"5c3d65bd3525a329e0c035ab","address":"4136 N Peoria Rd","location":{"type":"Point","coordinates":[-88.9562114,39.8750712]},"isApproved":true,"items":[],"keys":["Bars","American (Traditional)"],"lastUpdated":1547527612303,"name":"Weebles Bar and Grill","phone":"(217) 528-3337","price":"$","reviewCount":5,"reviewScore":3,"meta":{"revision":0,"created":1547531155327,"version":0},"$loki":123},{"_id":"5c3d65bd3525a329e0c16de0","address":"3082 N Main St","location":{"type":"Point","coordinates":[-88.9564417,39.877884]},"isApproved":true,"items":[],"keys":["Pizza"],"lastUpdated":1547527612780,"name":"Papa John’s Pizza","phone":"(217) 872-7722","price":"$$","reviewCount":4,"reviewScore":2,"meta":{"revision":0,"created":1547531155328,"version":0},"$loki":124},{"_id":"5c3d65bd3525a329e0c175d4","address":"951 S Durkin Dr","location":{"type":"Point","coordinates":[-88.9558577274257,39.8909568125985]},"isApproved":true,"items":[],"keys":["Cafes"],"lastUpdated":1547527612790,"name":"Lime Street Cafe","phone":"(217) 793-1905","price":"$$","reviewCount":26,"reviewScore":3.5,"meta":{"revision":0,"created":1547531155328,"version":0},"$loki":125},{"_id":"5c3d65bd3525a329e0c03708","address":"751 S Durkin Dr","location":{"type":"Point","coordinates":[-88.9577693,39.8909289]},"isApproved":true,"items":[],"keys":["Salad","Breakfast & Brunch","Sandwiches"],"lastUpdated":1547527612304,"name":"Nico’s Homestyle","phone":"(217) 993-8800","price":"$$","reviewCount":10,"reviewScore":4,"meta":{"revision":0,"created":1547531155328,"version":0},"$loki":126},{"_id":"5c3d65bd3525a329e0c03153","address":"4335 W Main St","location":{"type":"Point","coordinates":[-89.0279549,39.8416282]},"isApproved":true,"items":[],"keys":["Bars","American (Traditional)"],"lastUpdated":1547527612296,"name":"Pops Place","phone":"(217) 330-6546","price":"$$","reviewCount":5,"reviewScore":4,"meta":{"revision":0,"created":1547531155328,"version":0},"$loki":127},{"_id":"5c3d65bd3525a329e0c0215c","address":"3124 Montvale Dr","location":{"type":"Point","coordinates":[-88.979952,39.777953]},"isApproved":true,"items":[],"keys":["Indian"],"lastUpdated":1547527612275,"name":"Flavor of India","phone":"(217) 787-8122","price":"$$","reviewCount":69,"reviewScore":4,"meta":{"revision":0,"created":1547531155328,"version":0},"$loki":128},{"_id":"5c3d65bd3525a329e0c00eb1","address":"18 N Wall St","location":{"type":"Point","coordinates":[-88.9979437,39.7102745]},"isApproved":true,"items":[],"keys":["American (Traditional)"],"lastUpdated":1547527612237,"name":"Whit’s End","phone":"(217) 764-3300","price":"","reviewCount":6,"reviewScore":3,"meta":{"revision":0,"created":1547531155328,"version":0},"$loki":129},{"_id":"5c3d65bd3525a329e0c18377","address":"215 Dye Rd","location":{"type":"Point","coordinates":[-89.2554691,39.8515568]},"isApproved":true,"items":[],"keys":["Italian"],"lastUpdated":1547527612814,"name":"Taste Of Little Illi","phone":"(217) 486-5500","price":"","reviewCount":1,"reviewScore":5,"meta":{"revision":0,"created":1547531155328,"version":0},"$loki":130},{"_id":"5c3d65bd3525a329e0c03931","address":"100 Dye St","location":{"type":"Point","coordinates":[-89.2551008031161,39.8501186808533]},"isApproved":true,"items":[],"keys":["Pubs","American (New)"],"lastUpdated":1547527612310,"name":"Uncle Monkey’s","phone":"(217) 381-4400","price":"","reviewCount":2,"reviewScore":5,"meta":{"revision":0,"created":1547531155328,"version":0},"$loki":131},{"_id":"5c3d65bd3525a329e0c10a85","address":"200 W Main St","location":{"type":"Point","coordinates":[-89.3979617,39.809472]},"isApproved":true,"items":[],"keys":["Steakhouses"],"lastUpdated":1547527612631,"name":"Abe’s Hideout and Saloon","phone":"(217) 364-9386","price":"$$","reviewCount":13,"reviewScore":4.5,"meta":{"revision":0,"created":1547531155328,"version":0},"$loki":132},{"_id":"5c3d65bd3525a329e0c0474a","address":"103 W Washington St","location":{"type":"Point","coordinates":[-89.389014,39.656952]},"isApproved":true,"items":[],"keys":["Bars","American (Traditional)"],"lastUpdated":1547527612329,"name":"Jan’s Bar & Grill","phone":"(217) 623-5568","price":"$","reviewCount":1,"reviewScore":5,"meta":{"revision":0,"created":1547531155328,"version":0},"$loki":133},{"_id":"5c3d65bd3525a329e0c1a5e2","address":"1524 W Springfield Rd","location":{"type":"Point","coordinates":[-89.3249932,39.5482528]},"isApproved":true,"items":[],"keys":["Chinese"],"lastUpdated":1547527612860,"name":"QQ China","phone":"(217) 824-6888","price":"$$","reviewCount":10,"reviewScore":3,"meta":{"revision":0,"created":1547531155328,"version":0},"$loki":134},{"_id":"5c3d65bd3525a329e0c0cbe3","address":"15 S Arch St","location":{"type":"Point","coordinates":[-89.3044748,39.5530794]},"isApproved":true,"items":[],"keys":["American (Traditional)","Ice Cream & Frozen Yogurt"],"lastUpdated":1547527612533,"name":"Peppermill Grill & Chill","phone":"(217) 742-3634","price":"","reviewCount":2,"reviewScore":2,"meta":{"revision":0,"created":1547531155328,"version":0},"$loki":135},{"_id":"5c3d65bd3525a329e0c0c189","address":"1025 W Spresser St","location":{"type":"Point","coordinates":[-89.307702,39.553032]},"isApproved":true,"items":[],"keys":["American (New)"],"lastUpdated":1547527612517,"name":"Country Kitchen","phone":"(217) 824-3111","price":"$","reviewCount":10,"reviewScore":4,"meta":{"revision":0,"created":1547531155328,"version":0},"$loki":136},{"_id":"5c3d65bd3525a329e0c0ddbb","address":"512 N Webster St","location":{"type":"Point","coordinates":[-89.310289,39.566196]},"isApproved":true,"items":[],"keys":["Mexican"],"lastUpdated":1547527612563,"name":"Charro Mexican Restaurant","phone":"(217) 824-5959","price":"$$","reviewCount":12,"reviewScore":3.5,"meta":{"revision":0,"created":1547531155328,"version":0},"$loki":137},{"_id":"5c3d65bd3525a329e0c02610","address":"7032 Kingsmill Ct","location":{"type":"Point","coordinates":[-89.3072824,39.5631307]},"isApproved":true,"items":[],"keys":["Sandwiches","Salad","Soup"],"lastUpdated":1547527612284,"name":"Head West Sub Stop","phone":"(217) 670-0111","price":"$","reviewCount":6,"reviewScore":4,"meta":{"revision":0,"created":1547531155328,"version":0},"$loki":138},{"_id":"5c3d65bd3525a329e0c19c99","address":"129 S Chestnut St","location":{"type":"Point","coordinates":[-89.3065142,39.5631462]},"isApproved":true,"items":[],"keys":["Restaurants"],"lastUpdated":1547527612850,"name":"Dinner Bucket","phone":"(217) 226-3700","price":"","reviewCount":1,"reviewScore":1,"meta":{"revision":0,"created":1547531155328,"version":0},"$loki":139},{"_id":"5c3d65bd3525a329e0c0f9dc","address":"700 N Webster St","location":{"type":"Point","coordinates":[-89.297837,39.5601064]},"isApproved":true,"items":[],"keys":["Burgers","Fast Food"],"lastUpdated":1547527612600,"name":"Wendy’s","phone":"(217) 824-4055","price":"","reviewCount":3,"reviewScore":3.5,"meta":{"revision":0,"created":1547531155328,"version":0},"$loki":140},{"_id":"5c3d65bd3525a329e0c0eb22","address":"610 N Webster St","location":{"type":"Point","coordinates":[-89.2988892628143,39.5594794094411]},"isApproved":true,"items":[],"keys":["Mexican","Tex-Mex","Fast Food"],"lastUpdated":1547527612581,"name":"Taco Bell","phone":"(217) 287-1077","price":"$","reviewCount":1,"reviewScore":1,"meta":{"revision":0,"created":1547531155328,"version":0},"$loki":141},{"_id":"5c3d65bd3525a329e0c027fe","address":"309 E Walnut St","location":{"type":"Point","coordinates":[-89.2983562,39.5592212]},"isApproved":true,"items":[],"keys":["Ice Cream & Frozen Yogurt","Delis"],"lastUpdated":1547527612285,"name":"Weber’s Ice Deli - Temp. CLOSED","phone":"(217) 971-7998","price":"","reviewCount":2,"reviewScore":3.5,"meta":{"revision":0,"created":1547531155328,"version":0},"$loki":142},{"_id":"5c3d65bd3525a329e0c18247","address":"201 W Bidwell St","location":{"type":"Point","coordinates":[-89.2965409,39.5588792]},"isApproved":true,"items":[],"keys":["Mexican"],"lastUpdated":1547527612809,"name":"Los Rancheros","phone":"(217) 824-8200","price":"","reviewCount":11,"reviewScore":4.5,"meta":{"revision":0,"created":1547531155328,"version":0},"$loki":143},{"_id":"5c3d65bd3525a329e0c08b4a","address":"1001 Jason Pl","location":{"type":"Point","coordinates":[-89.2947032,39.5481948]},"isApproved":true,"items":[],"keys":["Pizza"],"lastUpdated":1547527612436,"name":"Antonio’s Pizza","phone":"(217) 483-3733","price":"$$","reviewCount":6,"reviewScore":4,"meta":{"revision":0,"created":1547531155328,"version":0},"$loki":144},{"_id":"5c3d65bd3525a329e0bff966","address":"301 N Main St","location":{"type":"Point","coordinates":[-89.2949566,39.5487205]},"isApproved":true,"items":[],"keys":["Cantonese"],"lastUpdated":1547527612219,"name":"China Pavilion","phone":"(217) 824-5622","price":"$$","reviewCount":12,"reviewScore":4,"meta":{"revision":0,"created":1547531155328,"version":0},"$loki":145},{"_id":"5c3d65bd3525a329e0c04f01","address":"764 Old Rt 36","location":{"type":"Point","coordinates":[-89.2972099408507,39.5514464372283]},"isApproved":true,"items":[],"keys":["Cafes","American (Traditional)","Comfort Food"],"lastUpdated":1547527612339,"name":"Buck & Jo’s Too Cafe","phone":"(217) 742-3628","price":"","reviewCount":4,"reviewScore":4.5,"meta":{"revision":0,"created":1547531155328,"version":0},"$loki":146},{"_id":"5c3d65bd3525a329e0c17a5d","address":"111 N Main St","location":{"type":"Point","coordinates":[-89.2951482,39.5497321]},"isApproved":true,"items":[],"keys":["Diners"],"lastUpdated":1547527612798,"name":"Bill’s Toasty Shop","phone":"(217) 824-4022","price":"$","reviewCount":25,"reviewScore":3.5,"meta":{"revision":0,"created":1547531155328,"version":0},"$loki":147},{"_id":"5c3d65bd3525a329e0c108fa","address":"331 N Main St","location":{"type":"Point","coordinates":[-89.2944436,39.5519439]},"isApproved":true,"items":[],"keys":["Burgers"],"lastUpdated":1547527612625,"name":"Hardee’s","phone":"(217) 483-3905","price":"","reviewCount":2,"reviewScore":1,"meta":{"revision":0,"created":1547531155328,"version":0},"$loki":148},{"_id":"5c3d65bd3525a329e0c032f2","address":"702 N Main St","location":{"type":"Point","coordinates":[-89.2944436,39.551949]},"isApproved":true,"items":[],"keys":["American (Traditional)"],"lastUpdated":1547527612302,"name":"Main Street","phone":"(217) 374-2931","price":"$$","reviewCount":3,"reviewScore":3.5,"meta":{"revision":0,"created":1547531155328,"version":0},"$loki":149},{"_id":"5c3d65bd3525a329e0c0e650","address":"1 S Poplar","location":{"type":"Point","coordinates":[-89.2953708,39.5519143]},"isApproved":true,"items":[],"keys":["Fast Food","Burgers","Coffee & Tea"],"lastUpdated":1547527612574,"name":"McDonald’s","phone":"(217) 562-5087","price":"$","reviewCount":3,"reviewScore":4,"meta":{"revision":0,"created":1547531155328,"version":0},"$loki":150},{"_id":"5c3d65bd3525a329e0c03f68","address":"1045 Jason Pl","location":{"type":"Point","coordinates":[-89.2954449,39.5515916]},"isApproved":true,"items":[],"keys":["Chinese","Vietnamese"],"lastUpdated":1547527612319,"name":"Great Wall","phone":"(217) 483-8885","price":"$","reviewCount":12,"reviewScore":3,"meta":{"revision":0,"created":1547531155328,"version":0},"$loki":151},{"_id":"5c3d65bd3525a329e0c10182","address":"14400 State Route 4","location":{"type":"Point","coordinates":[-89.2958529,39.5536537]},"isApproved":true,"items":[],"keys":["Restaurants"],"lastUpdated":1547527612610,"name":"Dairy Queen of Auburn","phone":"(217) 438-3612","price":"$","reviewCount":5,"reviewScore":3,"meta":{"revision":0,"created":1547531155328,"version":0},"$loki":152},{"_id":"5c3d65bd3525a329e0c0c355","address":"815 W Spresser St","location":{"type":"Point","coordinates":[-89.297151,39.5564479]},"isApproved":true,"items":[],"keys":["Restaurants"],"lastUpdated":1547527612518,"name":"Taco Gringo","phone":"(217) 824-3033","price":"$","reviewCount":2,"reviewScore":2,"meta":{"revision":0,"created":1547531155328,"version":0},"$loki":153},{"_id":"5c3d65bd3525a329e0c143ad","address":"510 N Webster St","location":{"type":"Point","coordinates":[-89.2987653,39.552982]},"isApproved":true,"items":[],"keys":["Fast Food","Chicken Wings","Chicken Shop"],"lastUpdated":1547527612714,"name":"KFC","phone":"(217) 824-8137","price":"$","reviewCount":6,"reviewScore":3.5,"meta":{"revision":0,"created":1547531155328,"version":0},"$loki":154},{"_id":"5c3d65bd3525a329e0c0ee60","address":"2841 Mansion Rd","location":{"type":"Point","coordinates":[-89.2972,39.554]},"isApproved":true,"items":[],"keys":["Italian","Pizza","Buffets"],"lastUpdated":1547527612583,"name":"Mario’s Pizza","phone":"(217) 483-6888","price":"$$","reviewCount":13,"reviewScore":3.5,"meta":{"revision":0,"created":1547531155328,"version":0},"$loki":155},{"_id":"5c3d65bd3525a329e0c06a7d","address":"401 S Webster St","location":{"type":"Point","coordinates":[-89.2972251,39.552087]},"isApproved":true,"items":[],"keys":["Ice Cream & Frozen Yogurt","Fast Food"],"lastUpdated":1547527612379,"name":"Dairy Queen","phone":"(217) 824-8322","price":"$$","reviewCount":2,"reviewScore":1,"meta":{"revision":0,"created":1547531155328,"version":0},"$loki":156},{"_id":"5c3d65bd3525a329e0c10c78","address":"214 W Chestnut St","location":{"type":"Point","coordinates":[-89.2995986,39.5524243]},"isApproved":true,"items":[],"keys":["Italian"],"lastUpdated":1547527612633,"name":"Fulgenzi’s Trattoria","phone":"(217) 483-6133","price":"$$","reviewCount":4,"reviewScore":3,"meta":{"revision":0,"created":1547531155328,"version":0},"$loki":157},{"_id":"5c3d65bd3525a329e0c0872f","address":"654 N Main St","location":{"type":"Point","coordinates":[-89.3002661,39.5530745]},"isApproved":true,"items":[],"keys":["Sandwiches"],"lastUpdated":1547527612428,"name":"Blimpie","phone":"(217) 374-6016","price":"","reviewCount":1,"reviewScore":4,"meta":{"revision":0,"created":1547531155328,"version":0},"$loki":158},{"_id":"5c3d65bd3525a329e0c10db5","address":"1800 Lincoln Trl","location":{"type":"Point","coordinates":[-89.273594,39.552479]},"isApproved":true,"items":[],"keys":["American (New)"],"lastUpdated":1547527612633,"name":"Whit’s End 48","phone":"(217) 713-2310","price":"","reviewCount":10,"reviewScore":3,"meta":{"revision":0,"created":1547531155328,"version":0},"$loki":159},{"_id":"5c3d65bd3525a329e0c166ca","address":"401 W Spresser St","location":{"type":"Point","coordinates":[-89.3148373,39.5692718]},"isApproved":true,"items":[],"keys":["Fast Food","Burgers","Coffee & Tea"],"lastUpdated":1547527612765,"name":"McDonald’s","phone":"(217) 824-4976","price":"","reviewCount":2,"reviewScore":5,"meta":{"revision":0,"created":1547531155328,"version":0},"$loki":160},{"_id":"5c3d65bd3525a329e0c10f21","address":"226 N Springfield St","location":{"type":"Point","coordinates":[-89.3139123916626,39.5684645065765]},"isApproved":true,"items":[],"keys":["Fast Food","Sandwiches"],"lastUpdated":1547527612640,"name":"Subway","phone":"(217) 965-3180","price":"","reviewCount":1,"reviewScore":1,"meta":{"revision":0,"created":1547531155328,"version":0},"$loki":161},{"_id":"5c3d65bd3525a329e0c07740","address":"300 S Spresser St","location":{"type":"Point","coordinates":[-89.195403,39.633919]},"isApproved":true,"items":[],"keys":["Bowling","Lounges","American (Traditional)"],"lastUpdated":1547527612402,"name":"Olde Bowling Alley","phone":"(217) 824-5737","price":"","reviewCount":2,"reviewScore":3.5,"meta":{"revision":0,"created":1547531155328,"version":0},"$loki":162}],"idIndex":[1,2,3,4,5,6,7,8,9,10,11,12,13,14,15,16,17,18,19,20,21,22,23,24,25,26,27,28,29,30,31,32,33,34,35,36,37,38,39,40,41,42,43,44,45,46,47,48,49,50,51,52,53,54,55,56,57,58,59,60,61,62,63,64,65,66,67,68,69,70,71,72,73,74,75,76,77,78,79,80,81,82,83,84,85,86,87,88,89,90,91,92,93,94,95,96,97,98,99,100,101,102,103,104,105,106,107,108,109,110,111,112,113,114,115,116,117,118,119,120,121,122,123,124,125,126,127,128,129,130,131,132,133,134,135,136,137,138,139,140,141,142,143,144,145,146,147,148,149,150,151,152,153,154,155,156,157,158,159,160,161,162],"binaryIndices":{},"constraints":null,"uniqueNames":[],"transforms":{},"objType":"restaurants","dirty":true,"cachedIndex":null,"cachedBinaryIndex":null,"cachedData":null,"adaptiveBinaryIndices":true,"transactional":false,"cloneObjects":false,"cloneMethod":"parse-stringify","asyncListeners":false,"disableMeta":false,"disableChangesApi":true,"disableDeltaChangesApi":true,"autoupdate":false,"serializableIndices":true,"ttl":null,"maxId":162,"DynamicViews":[],"events":{"insert":[],"update":[],"pre-insert":[],"pre-update":[],"close":[],"flushbuffer":[],"error":[],"delete":[null],"warning":[null]},"changes":[]}],"databaseVersion":1.5,"engineVersion":1.5,"autosave":false,"autosaveInterval":5000,"autosaveHandle":null,"throttledSaves":true,"options":{"serializationMethod":"normal","destructureDelimiter":"$<\n"},"persistenceMethod":"fs","persistenceAdapter":null,"verbose":false,"events":{"init":[null],"loaded":[],"flushChanges":[],"close":[],"changes":[],"warning":[]},"ENV":"NODEJS"}