{"filename":"-89-30.75","collections":[{"name":"restaurants","data":[{"_id":"5c3d65bd3525a329e0c024f4","address":"8007 Tucker Rd","location":{"type":"Point","coordinates":[-88.843985,30.4581871]},"isApproved":true,"items":[],"keys":["American (Traditional)","Diners","Breakfast & Brunch"],"lastUpdated":1547527612277,"name":"Waffle House","phone":"(228) 872-6128","price":"$","reviewCount":6,"reviewScore":3.5,"meta":{"revision":0,"created":1547531149823,"version":0},"$loki":1},{"_id":"5c3d65bd3525a329e0c0e3b7","address":"4110 Government Blvd","location":{"type":"Point","coordinates":[-88.8838459,30.4475306]},"isApproved":true,"items":[],"keys":["Fast Food","Burgers"],"lastUpdated":1547527612572,"name":"Krystal","phone":"(251) 661-5082","price":"$","reviewCount":3,"reviewScore":3,"meta":{"revision":0,"created":1547531149823,"version":0},"$loki":2},{"_id":"5c3d65bd3525a329e0c09d6d","address":"1506 Main St","location":{"type":"Point","coordinates":[-88.90197,30.44015]},"isApproved":true,"items":[],"keys":["Breakfast & Brunch","American (Traditional)"],"lastUpdated":1547527612471,"name":"East Shore Cafe","phone":"(251) 625-0055","price":"$","reviewCount":86,"reviewScore":4.5,"meta":{"revision":0,"created":1547531149823,"version":0},"$loki":3},{"_id":"5c3d65bd3525a329e0c186f9","address":"4356 Old Shell Rd","location":{"type":"Point","coordinates":[-88.8982854,30.4419745]},"isApproved":true,"items":[],"keys":["Pizza","Pubs"],"lastUpdated":1547527612821,"name":"Cortlandt’s Pizza Pub","phone":"(251) 342-0024","price":"$$","reviewCount":42,"reviewScore":4,"meta":{"revision":0,"created":1547531149823,"version":0},"$loki":4},{"_id":"5c3d65bd3525a329e0c085d3","address":"3887 Promenade Pkwy","location":{"type":"Point","coordinates":[-88.9001212,30.4536174]},"isApproved":true,"items":[],"keys":["Sushi Bars","Japanese","Asian Fusion"],"lastUpdated":1547527612427,"name":"Osaka Japanese Hibachi & Sushi Restaurant","phone":"(228) 396-3800","price":"$$","reviewCount":52,"reviewScore":3,"meta":{"revision":0,"created":1547531149823,"version":0},"$loki":5},{"_id":"5c3d65bd3525a329e0c01289","address":"2415 Schillinger Rd S","location":{"type":"Point","coordinates":[-88.8979339599609,30.4498575635874]},"isApproved":true,"items":[],"keys":["Fast Food","Burgers","Coffee & Tea"],"lastUpdated":1547527612240,"name":"McDonald’s","phone":"(251) 634-1378","price":"$","reviewCount":7,"reviewScore":2,"meta":{"revision":0,"created":1547531149823,"version":0},"$loki":6},{"_id":"5c3d65bd3525a329e0c092b3","address":"11026 Lamey Bridge Rd","location":{"type":"Point","coordinates":[-88.8910382,30.4437119]},"isApproved":true,"items":[],"keys":["Barbeque","Soul Food"],"lastUpdated":1547527612452,"name":"The Fried Green Tomato","phone":"(228) 396-2979","price":"$","reviewCount":13,"reviewScore":4,"meta":{"revision":0,"created":1547531149823,"version":0},"$loki":7},{"_id":"5c3d65bd3525a329e0c088c0","address":"11014 Lamey Bridge Rd","location":{"type":"Point","coordinates":[-88.8909633,30.4431809]},"isApproved":true,"items":[],"keys":["Cajun/Creole"],"lastUpdated":1547527612428,"name":"Cafe New Orleans D’iberville","phone":"(228) 396-6031","price":"$$","reviewCount":92,"reviewScore":3.5,"meta":{"revision":0,"created":1547531149823,"version":0},"$loki":8},{"_id":"5c3d65bd3525a329e0c1a73f","address":"3586 Sangani Blvd","location":{"type":"Point","coordinates":[-88.8867528364062,30.4550149230086]},"isApproved":true,"items":[],"keys":["Donuts","Coffee & Tea","Breakfast & Brunch"],"lastUpdated":1547527612866,"name":"Glazed Doughnuts","phone":"(228) 396-7006","price":"","reviewCount":3,"reviewScore":3.5,"meta":{"revision":0,"created":1547531149823,"version":0},"$loki":9},{"_id":"5c3d65bd3525a329e0c1184b","address":"3920 Promenade Pkwy","location":{"type":"Point","coordinates":[-88.8914877,30.4591148]},"isApproved":true,"items":[],"keys":["Sushi Bars","Japanese","Asian Fusion"],"lastUpdated":1547527612650,"name":"Rock N Roll Sushi","phone":"(228) 967-7919","price":"$$","reviewCount":27,"reviewScore":3.5,"meta":{"revision":0,"created":1547531149823,"version":0},"$loki":10},{"_id":"5c3d65bd3525a329e0c0329f","address":"3516 Sangani Blvd","location":{"type":"Point","coordinates":[-88.8922574898367,30.4590968514376]},"isApproved":true,"items":[],"keys":["Sports Bars","American (Traditional)"],"lastUpdated":1547527612302,"name":"Twin Peaks","phone":"(228) 207-3874","price":"$$","reviewCount":69,"reviewScore":3.5,"meta":{"revision":0,"created":1547531149823,"version":0},"$loki":11},{"_id":"5c3d65bd3525a329e0c04c5b","address":"3921 Bienville Blvd","location":{"type":"Point","coordinates":[-88.8922088949904,30.4595246076837]},"isApproved":true,"items":[],"keys":["Japanese"],"lastUpdated":1547527612337,"name":"J Hibachi","phone":"(228) 875-6999","price":"$","reviewCount":8,"reviewScore":2.5,"meta":{"revision":0,"created":1547531149823,"version":0},"$loki":12},{"_id":"5c3d65bd3525a329e0c19574","address":"3254 Mallet Rd","location":{"type":"Point","coordinates":[-88.8910007,30.4579858]},"isApproved":true,"items":[],"keys":["Sports Bars","Burgers","Karaoke"],"lastUpdated":1547527612840,"name":"The Pub Sports bar","phone":"(228) 396-8855","price":"$","reviewCount":1,"reviewScore":4,"meta":{"revision":0,"created":1547531149823,"version":0},"$loki":13},{"_id":"5c3d65bd3525a329e0c1505e","address":"3500 14th St","location":{"type":"Point","coordinates":[-88.8910007,30.4565459]},"isApproved":true,"items":[],"keys":["Barbeque","Chicken Wings"],"lastUpdated":1547527612736,"name":"Hardy’s Wings and More","phone":"(228) 313-0716","price":"$","reviewCount":1,"reviewScore":4,"meta":{"revision":0,"created":1547531149823,"version":0},"$loki":14},{"_id":"5c3d65bd3525a329e0c04fde","address":"4725 Main St","location":{"type":"Point","coordinates":[-88.8953031,30.4565186]},"isApproved":true,"items":[],"keys":["Fast Food","Burgers","Ice Cream & Frozen Yogurt"],"lastUpdated":1547527612339,"name":"Sonic Drive-In","phone":"(228) 475-6725","price":"","reviewCount":4,"reviewScore":3,"meta":{"revision":0,"created":1547531149823,"version":0},"$loki":15},{"_id":"5c3d65bd3525a329e0c1a091","address":"3840 Promenade Pkwy","location":{"type":"Point","coordinates":[-88.8939971,30.459271]},"isApproved":true,"items":[],"keys":["Burgers","Fast Food"],"lastUpdated":1547527612857,"name":"Five Guys","phone":"(228) 392-3390","price":"$","reviewCount":48,"reviewScore":3.5,"meta":{"revision":0,"created":1547531149823,"version":0},"$loki":16},{"_id":"5c3d65bd3525a329e0c1674d","address":"3821 Promenade Parkway","location":{"type":"Point","coordinates":[-88.8947689533234,30.4589761122607]},"isApproved":true,"items":[],"keys":["Barbeque","American (Traditional)","Southern"],"lastUpdated":1547527612766,"name":"Dickey’s Barbecue Pit","phone":"(228) 396-1819","price":"$$","reviewCount":37,"reviewScore":3.5,"meta":{"revision":0,"created":1547531149823,"version":0},"$loki":17},{"_id":"5c3d65bd3525a329e0bffc36","address":"3611 Sangani Blvd","location":{"type":"Point","coordinates":[-88.895246386528,30.4583917414833]},"isApproved":true,"items":[],"keys":["Burgers","Fast Food"],"lastUpdated":1547527612221,"name":"Whataburger","phone":"(228) 392-1942","price":"$","reviewCount":45,"reviewScore":4,"meta":{"revision":0,"created":1547531149823,"version":0},"$loki":18},{"_id":"5c3d65bd3525a329e0c0ee65","address":"12037 Indian River Road","location":{"type":"Point","coordinates":[-88.8978547,30.4579986]},"isApproved":true,"items":[],"keys":["Burgers","American (Traditional)"],"lastUpdated":1547527612583,"name":"Ruby Tuesday","phone":"(228) 392-0881","price":"$$","reviewCount":20,"reviewScore":3.5,"meta":{"revision":0,"created":1547531149823,"version":0},"$loki":19},{"_id":"5c3d65bd3525a329e0c12a5e","address":"6860 Hwy 90","location":{"type":"Point","coordinates":[-88.897496,30.457456]},"isApproved":true,"items":[],"keys":["Burgers","Fast Food"],"lastUpdated":1547527612679,"name":"Five Guys","phone":"(251) 626-4278","price":"$$","reviewCount":21,"reviewScore":3.5,"meta":{"revision":0,"created":1547531149823,"version":0},"$loki":20},{"_id":"5c3d65bd3525a329e0c0c6d0","address":"6627 Hwy 63","location":{"type":"Point","coordinates":[-88.9000571812849,30.4561310733163]},"isApproved":true,"items":[],"keys":["Sandwiches","Fast Food"],"lastUpdated":1547527612525,"name":"Subway","phone":"(228) 475-1063","price":"","reviewCount":2,"reviewScore":2.5,"meta":{"revision":0,"created":1547531149823,"version":0},"$loki":21},{"_id":"5c3d65bd3525a329e0c127dc","address":"790 Schillinger Rd S","location":{"type":"Point","coordinates":[-88.9005885,30.4562667]},"isApproved":true,"items":[],"keys":["American (Traditional)","Bars","Tex-Mex"],"lastUpdated":1547527612672,"name":"Chili’s","phone":"(251) 776-7006","price":"$$","reviewCount":46,"reviewScore":2,"meta":{"revision":0,"created":1547531149823,"version":0},"$loki":22},{"_id":"5c3d65bd3525a329e0c0d73d","address":"6732 Highway 63","location":{"type":"Point","coordinates":[-88.9016402529162,30.4552796643261]},"isApproved":true,"items":[],"keys":["Tex-Mex","Fast Food"],"lastUpdated":1547527612554,"name":"Taco Bell","phone":"(228) 474-8873","price":"$","reviewCount":5,"reviewScore":3,"meta":{"revision":0,"created":1547531149823,"version":0},"$loki":23},{"_id":"5c3d65bd3525a329e0c006b9","address":"426 Fairhope Ave","location":{"type":"Point","coordinates":[-88.902648,30.455609]},"isApproved":true,"items":[],"keys":["Meat Shops","Sandwiches","Delis"],"lastUpdated":1547527612227,"name":"Honey Baked Ham Company","phone":"(251) 928-7262","price":"$","reviewCount":5,"reviewScore":4,"meta":{"revision":0,"created":1547531149823,"version":0},"$loki":24},{"_id":"5c3d65bd3525a329e0c0e14e","address":"1539 Hwy 98","location":{"type":"Point","coordinates":[-88.9020490325409,30.4561148515544]},"isApproved":true,"items":[],"keys":["Tex-Mex","Mexican"],"lastUpdated":1547527612565,"name":"Moe’s Southwest Grill","phone":"(251) 626-3334","price":"","reviewCount":2,"reviewScore":4.5,"meta":{"revision":0,"created":1547531149823,"version":0},"$loki":25},{"_id":"5c3d65bd3525a329e0c19cdf","address":"3842 Promenade Pkwy","location":{"type":"Point","coordinates":[-88.902007,30.456783]},"isApproved":true,"items":[],"keys":["Fast Food"],"lastUpdated":1547527612850,"name":"Chick-fil-A","phone":"(228) 392-1892","price":"$","reviewCount":24,"reviewScore":3.5,"meta":{"revision":0,"created":1547531149823,"version":0},"$loki":26},{"_id":"5c3d65bd3525a329e0c0c8f3","address":"411 Fairhope Ave","location":{"type":"Point","coordinates":[-88.902287,30.457492]},"isApproved":true,"items":[],"keys":["Breakfast & Brunch","American (New)"],"lastUpdated":1547527612526,"name":"Julwin’s Restaurant","phone":"(251) 990-9372","price":"$","reviewCount":69,"reviewScore":4.5,"meta":{"revision":0,"created":1547531149823,"version":0},"$loki":27},{"_id":"5c3d65bd3525a329e0c14272","address":"5055 Cottage Hill Rd","location":{"type":"Point","coordinates":[-88.902287,30.457492]},"isApproved":true,"items":[],"keys":["Pizza"],"lastUpdated":1547527612713,"name":"Marco’s Pizza","phone":"(251) 308-4888","price":"$$","reviewCount":3,"reviewScore":2.5,"meta":{"revision":0,"created":1547531149823,"version":0},"$loki":28},{"_id":"5c3d65bd3525a329e0c1716b","address":"10184 Eastern Shore Blvd","location":{"type":"Point","coordinates":[-88.9030014,30.4572612]},"isApproved":true,"items":[],"keys":["Wraps","Juice Bars & Smoothies","Acai Bowls"],"lastUpdated":1547527612782,"name":"Fresh Healthy Cafe","phone":"(251) 444-7170","price":"$$","reviewCount":2,"reviewScore":3.5,"meta":{"revision":0,"created":1547531149823,"version":0},"$loki":29},{"_id":"5c3d65bd3525a329e0c11b6a","address":"3920 Promenade Pkwy","location":{"type":"Point","coordinates":[-88.9029488285557,30.4572981846796]},"isApproved":true,"items":[],"keys":["Tex-Mex","Mexican"],"lastUpdated":1547527612659,"name":"Moe’s Southwest Grill","phone":"(228) 392-4483","price":"$","reviewCount":36,"reviewScore":3.5,"meta":{"revision":0,"created":1547531149823,"version":0},"$loki":30},{"_id":"5c3d65bd3525a329e0c04f3b","address":"2590 Beach Blvd","location":{"type":"Point","coordinates":[-88.8999445634765,30.4598520330116]},"isApproved":true,"items":[],"keys":["Fast Food","Chicken Wings"],"lastUpdated":1547527612339,"name":"Raising Cane’s Chicken Fingers","phone":"(228) 594-6667","price":"$","reviewCount":34,"reviewScore":4.5,"meta":{"revision":0,"created":1547531149823,"version":0},"$loki":31},{"_id":"5c3d65bd3525a329e0c10569","address":"2502 Schillinger Rd S","location":{"type":"Point","coordinates":[-88.938616,30.458936]},"isApproved":true,"items":[],"keys":["Chinese"],"lastUpdated":1547527612618,"name":"China One","phone":"(251) 445-2538","price":"$$","reviewCount":8,"reviewScore":3.5,"meta":{"revision":0,"created":1547531149823,"version":0},"$loki":32},{"_id":"5c3d65bd3525a329e0c0a7e6","address":"3920 Promenade Pkwy","location":{"type":"Point","coordinates":[-88.9037811,30.4548827]},"isApproved":true,"items":[],"keys":["Chinese","Sushi Bars","Seafood"],"lastUpdated":1547527612482,"name":"Panda Palace Buffet","phone":"(228) 396-8585","price":"$$","reviewCount":39,"reviewScore":3,"meta":{"revision":0,"created":1547531149823,"version":0},"$loki":33},{"_id":"5c3d65bd3525a329e0c03d46","address":"435 Schillinger Rd S","location":{"type":"Point","coordinates":[-88.904872,30.454394]},"isApproved":true,"items":[],"keys":["Fast Food"],"lastUpdated":1547527612313,"name":"Chick-fil-A","phone":"(251) 639-1163","price":"$","reviewCount":17,"reviewScore":4.5,"meta":{"revision":0,"created":1547531149823,"version":0},"$loki":34},{"_id":"5c3d65bd3525a329e0c02d38","address":"7050 Theodore Dawes Rd","location":{"type":"Point","coordinates":[-88.932396,30.44435]},"isApproved":true,"items":[],"keys":["Burgers"],"lastUpdated":1547527612294,"name":"Burger King","phone":"(251) 653-8489","price":"$","reviewCount":4,"reviewScore":1,"meta":{"revision":0,"created":1547531149823,"version":0},"$loki":35},{"_id":"5c3d65bd3525a329e0c16763","address":"934 Cedar Lake Rd","location":{"type":"Point","coordinates":[-88.9337166,30.4447955]},"isApproved":true,"items":[],"keys":["Breakfast & Brunch","Coffee & Tea","Sandwiches"],"lastUpdated":1547527612771,"name":"The Grind Coffee and Nosh","phone":"(228) 392-3305","price":"$","reviewCount":200,"reviewScore":4.5,"meta":{"revision":0,"created":1547531149823,"version":0},"$loki":36},{"_id":"5c3d65bd3525a329e0c16a0a","address":"6781 US Hwy 90","location":{"type":"Point","coordinates":[-88.9354752,30.4432347]},"isApproved":true,"items":[],"keys":["Diners","Breakfast & Brunch","American (Traditional)"],"lastUpdated":1547527612773,"name":"Waffle House","phone":"(251) 626-0431","price":"$","reviewCount":7,"reviewScore":4,"meta":{"revision":0,"created":1547531149823,"version":0},"$loki":37},{"_id":"5c3d65bd3525a329e0c008ea","address":"15804 Lemoyne Blvd","location":{"type":"Point","coordinates":[-88.934482,30.445606]},"isApproved":true,"items":[],"keys":["Pizza","Italian","Buffets"],"lastUpdated":1547527612229,"name":"Sicily’s Pizza","phone":"(228) 392-1991","price":"$","reviewCount":27,"reviewScore":3.5,"meta":{"revision":0,"created":1547531149823,"version":0},"$loki":38},{"_id":"5c3d65bd3525a329e0c001ce","address":"3428 SpringHill Ave","location":{"type":"Point","coordinates":[-88.934161746533,30.4474684353245]},"isApproved":true,"items":[],"keys":["American (Traditional)","Breakfast & Brunch","Diners"],"lastUpdated":1547527612224,"name":"Waffle House","phone":"(251) 342-3856","price":"$","reviewCount":3,"reviewScore":2.5,"meta":{"revision":0,"created":1547531149823,"version":0},"$loki":39},{"_id":"5c3d65bd3525a329e0c02e1b","address":"210 Eastern Shore Shopping Ctr","location":{"type":"Point","coordinates":[-88.9396282,30.4421433]},"isApproved":true,"items":[],"keys":["Bars","American (Traditional)"],"lastUpdated":1547527612294,"name":"Fairhope’s Grill & Bar","phone":"(251) 929-0002","price":"$$","reviewCount":44,"reviewScore":3.5,"meta":{"revision":0,"created":1547531149823,"version":0},"$loki":40},{"_id":"5c3d65bd3525a329e0c04e7d","address":"1757 Popps Ferry Rd","location":{"type":"Point","coordinates":[-88.9387677,30.4421814]},"isApproved":true,"items":[],"keys":["Buffets","Steakhouses"],"lastUpdated":1547527612339,"name":"Fat Baby & Alise’s Buffet","phone":"(228) 388-1021","price":"$","reviewCount":3,"reviewScore":3.5,"meta":{"revision":0,"created":1547531149823,"version":0},"$loki":41},{"_id":"5c3d65bd3525a329e0c096d4","address":"2125 Popps Ferry Rd","location":{"type":"Point","coordinates":[-88.9648402830049,30.4373546998047]},"isApproved":true,"items":[],"keys":["Mexican"],"lastUpdated":1547527612454,"name":"El Tarasco Taqueria & Restaurant","phone":"(228) 967-7795","price":"","reviewCount":10,"reviewScore":5,"meta":{"revision":0,"created":1547531149823,"version":0},"$loki":42},{"_id":"5c3d65bd3525a329e0c0faf4","address":"1765 Popps Ferry Rd","location":{"type":"Point","coordinates":[-88.9749258571835,30.4699887224019]},"isApproved":true,"items":[],"keys":["Pizza"],"lastUpdated":1547527612601,"name":"Marco’s Pizza","phone":"(228) 325-1515","price":"","reviewCount":1,"reviewScore":5,"meta":{"revision":0,"created":1547531149823,"version":0},"$loki":43},{"_id":"5c3d65bd3525a329e0c14ae8","address":"13063 Old Hwy 67","location":{"type":"Point","coordinates":[-88.9713307120932,30.4732347728169]},"isApproved":true,"items":[],"keys":["Donuts","Breakfast & Brunch"],"lastUpdated":1547527612728,"name":"Angkor Donuts","phone":"(228) 280-8222","price":"$$","reviewCount":1,"reviewScore":5,"meta":{"revision":0,"created":1547531149823,"version":0},"$loki":44},{"_id":"5c3d65bd3525a329e0c15071","address":"3704 Airport Blvd","location":{"type":"Point","coordinates":[-88.9972781,30.4684256]},"isApproved":true,"items":[],"keys":["Seafood"],"lastUpdated":1547527612736,"name":"The Boiling Pot","phone":"(251) 345-0749","price":"$$","reviewCount":84,"reviewScore":3.5,"meta":{"revision":0,"created":1547531149823,"version":0},"$loki":45},{"_id":"5c3d65bd3525a329e0c15519","address":"23430 Saucier Lizana Rd","location":{"type":"Point","coordinates":[-89.1515461,30.6224649]},"isApproved":true,"items":[],"keys":["Restaurants"],"lastUpdated":1547527612745,"name":"Herrin’s Short Stop","phone":"(228) 832-6208","price":"$$","reviewCount":4,"reviewScore":5,"meta":{"revision":0,"created":1547531149823,"version":0},"$loki":46},{"_id":"5c3d65bd3525a329e0c18014","address":"207 Central Ave W","location":{"type":"Point","coordinates":[-89.1357472,30.7115843]},"isApproved":true,"items":[],"keys":["Asian Fusion"],"lastUpdated":1547527612802,"name":"Asian Garden","phone":"(601) 928-9922","price":"$","reviewCount":1,"reviewScore":4,"meta":{"revision":0,"created":1547531149823,"version":0},"$loki":47},{"_id":"5c3d65bd3525a329e0c0724c","address":"2205 Highway 49","location":{"type":"Point","coordinates":[-89.137165,30.821967]},"isApproved":true,"items":[],"keys":["American (Traditional)","Seafood","Breakfast & Brunch"],"lastUpdated":1547527612398,"name":"Sawmill Family Restaurant","phone":"(601) 928-9410","price":"","reviewCount":9,"reviewScore":4,"meta":{"revision":0,"created":1547531149823,"version":0},"$loki":48},{"_id":"5c3d65bd3525a329e0c15fd8","address":"720 Hwy 26 E","location":{"type":"Point","coordinates":[-89.1532677,30.8469056]},"isApproved":true,"items":[],"keys":["Fast Food","Sandwiches"],"lastUpdated":1547527612756,"name":"Arby’s","phone":"(601) 403-9850","price":"$","reviewCount":4,"reviewScore":2.5,"meta":{"revision":0,"created":1547531149823,"version":0},"$loki":49},{"_id":"5c3d65bd3525a329e0c0f391","address":"100 Richmond St","location":{"type":"Point","coordinates":[-89.149668,30.8462866]},"isApproved":true,"items":[],"keys":["Burgers","Fast Food","Sandwiches"],"lastUpdated":1547527612592,"name":"Zesto of Bogalusa","phone":"(985) 735-5761","price":"$","reviewCount":6,"reviewScore":4,"meta":{"revision":0,"created":1547531149823,"version":0},"$loki":50},{"_id":"5c3d65bd3525a329e0c0ac31","address":"945 Avenue F","location":{"type":"Point","coordinates":[-89.1458381,30.8442643]},"isApproved":true,"items":[],"keys":["American (Traditional)"],"lastUpdated":1547527612490,"name":"Glynn’s Drive-In - Bogalusa","phone":"(985) 735-1212","price":"$","reviewCount":7,"reviewScore":3.5,"meta":{"revision":0,"created":1547531149823,"version":0},"$loki":51},{"_id":"5c3d65bd3525a329e0c05c44","address":"3653 Hwy 26","location":{"type":"Point","coordinates":[-89.1429755,30.8426134]},"isApproved":true,"items":[],"keys":["Barbeque"],"lastUpdated":1547527612356,"name":"Crossroads Seafood & Grill","phone":"(601) 958-0067","price":"","reviewCount":5,"reviewScore":2.5,"meta":{"revision":0,"created":1547531149823,"version":0},"$loki":52},{"_id":"5c3d65bd3525a329e0c07bc0","address":"81790 Hwy 21","location":{"type":"Point","coordinates":[-89.1421625,30.8421295]},"isApproved":true,"items":[],"keys":["Seafood"],"lastUpdated":1547527612410,"name":"House of Seafood Buffet","phone":"(985) 886-2231","price":"$$","reviewCount":42,"reviewScore":3.5,"meta":{"revision":0,"created":1547531149823,"version":0},"$loki":53},{"_id":"5c3d65bd3525a329e0c00436","address":"1085 E Frontage Dr","location":{"type":"Point","coordinates":[-89.144591242075,30.8438656004856]},"isApproved":true,"items":[],"keys":["Sushi Bars","Teppanyaki"],"lastUpdated":1547527612226,"name":"Hibachi Express","phone":"(601) 723-6434","price":"","reviewCount":4,"reviewScore":4,"meta":{"revision":0,"created":1547531149823,"version":0},"$loki":54},{"_id":"5c3d65bd3525a329e0c1afb9","address":"1117 E Frontage Dr","location":{"type":"Point","coordinates":[-89.140442,30.8414708]},"isApproved":true,"items":[],"keys":["Chinese"],"lastUpdated":1547527612876,"name":"Best Wok","phone":"(601) 928-3900","price":"","reviewCount":1,"reviewScore":5,"meta":{"revision":0,"created":1547531149823,"version":0},"$loki":55},{"_id":"5c3d65bd3525a329e0c11830","address":"129 Cumberland St","location":{"type":"Point","coordinates":[-89.1404867917299,30.841405828942]},"isApproved":true,"items":[],"keys":["Fast Food","Burgers"],"lastUpdated":1547527612650,"name":"Wendy’s","phone":"(985) 735-6185","price":"","reviewCount":1,"reviewScore":3,"meta":{"revision":0,"created":1547531149823,"version":0},"$loki":56},{"_id":"5c3d65bd3525a329e0c1647f","address":"104 N Main St","location":{"type":"Point","coordinates":[-89.139959791568,30.8519583401599]},"isApproved":true,"items":[],"keys":["Restaurants"],"lastUpdated":1547527612764,"name":"Ward’s Fastfood of Poplarville","phone":"(601) 795-2900","price":"","reviewCount":1,"reviewScore":3,"meta":{"revision":0,"created":1547531149823,"version":0},"$loki":57},{"_id":"5c3d65bd3525a329e0c0d7f1","address":"400-598 Masonic Dr","location":{"type":"Point","coordinates":[-89.139952,30.852189]},"isApproved":true,"items":[],"keys":["American (Traditional)"],"lastUpdated":1547527612554,"name":"Coach’s Po-Boy’s","phone":"(985) 735-3001","price":"$","reviewCount":6,"reviewScore":4.5,"meta":{"revision":0,"created":1547531149823,"version":0},"$loki":58},{"_id":"5c3d65bd3525a329e0c05c39","address":"514 Magnolia Dr S","location":{"type":"Point","coordinates":[-89.138594,30.853497]},"isApproved":true,"items":[],"keys":["Burgers","Sandwiches"],"lastUpdated":1547527612356,"name":"Frosty Mug","phone":"(601) 928-3944","price":"$","reviewCount":7,"reviewScore":4.5,"meta":{"revision":0,"created":1547531149823,"version":0},"$loki":59},{"_id":"5c3d65bd3525a329e0c157db","address":"251 First St S","location":{"type":"Point","coordinates":[-89.1374947,30.8568826]},"isApproved":true,"items":[],"keys":["Restaurants"],"lastUpdated":1547527612747,"name":"Ward’s of Wiggins","phone":"(601) 928-5947","price":"","reviewCount":3,"reviewScore":3.5,"meta":{"revision":0,"created":1547531149823,"version":0},"$loki":60},{"_id":"5c3d65bd3525a329e0c1a43c","address":"127 Magnolia Dr S","location":{"type":"Point","coordinates":[-89.1382091,30.8587263]},"isApproved":true,"items":[],"keys":["Cafes"],"lastUpdated":1547527612859,"name":"Whistle Stop Cafe","phone":"(601) 528-5588","price":"$$","reviewCount":26,"reviewScore":4,"meta":{"revision":0,"created":1547531149823,"version":0},"$loki":61},{"_id":"5c3d65bd3525a329e0c0b1cf","address":"207 Central Ave W","location":{"type":"Point","coordinates":[-89.1432541,30.8506433]},"isApproved":true,"items":[],"keys":["Buffets","Chinese"],"lastUpdated":1547527612497,"name":"China Inn","phone":"(601) 928-4566","price":"$","reviewCount":4,"reviewScore":2.5,"meta":{"revision":0,"created":1547531149823,"version":0},"$loki":62},{"_id":"5c3d65bd3525a329e0c095f1","address":"547 E Frontage Dr","location":{"type":"Point","coordinates":[-89.1538406,30.8526422]},"isApproved":true,"items":[],"keys":["Salad","Barbeque","Tacos"],"lastUpdated":1547527612454,"name":"Pericos Mexican Grill","phone":"(601) 528-5101","price":"$","reviewCount":10,"reviewScore":3.5,"meta":{"revision":0,"created":1547531149823,"version":0},"$loki":63},{"_id":"5c3d65bd3525a329e0c02812","address":"1220 W Central Ave","location":{"type":"Point","coordinates":[-89.1533668,30.8524745]},"isApproved":true,"items":[],"keys":["Fast Food","Burgers","Coffee & Tea"],"lastUpdated":1547527612285,"name":"McDonald’s","phone":"(601) 928-5362","price":"$","reviewCount":6,"reviewScore":2.5,"meta":{"revision":0,"created":1547531149823,"version":0},"$loki":64},{"_id":"5c3d65bd3525a329e0c059b5","address":"5255 Hwy 26 W","location":{"type":"Point","coordinates":[-89.1524031758308,30.8510957258968]},"isApproved":true,"items":[],"keys":["Barbeque"],"lastUpdated":1547527612355,"name":"Boondocks Barbeque","phone":"(601) 945-2626","price":"$$","reviewCount":1,"reviewScore":5,"meta":{"revision":0,"created":1547531149823,"version":0},"$loki":65},{"_id":"5c3d65bd3525a329e0c0c16a","address":"B 620 W Frontage Dr","location":{"type":"Point","coordinates":[-89.1577756803019,30.8508469139059]},"isApproved":true,"items":[],"keys":["Tex-Mex","Mexican"],"lastUpdated":1547527612517,"name":"Las Fajitas Mexican Grill","phone":"(601) 928-2022","price":"$$","reviewCount":4,"reviewScore":4,"meta":{"revision":0,"created":1547531149823,"version":0},"$loki":66}],"idIndex":[1,2,3,4,5,6,7,8,9,10,11,12,13,14,15,16,17,18,19,20,21,22,23,24,25,26,27,28,29,30,31,32,33,34,35,36,37,38,39,40,41,42,43,44,45,46,47,48,49,50,51,52,53,54,55,56,57,58,59,60,61,62,63,64,65,66],"binaryIndices":{},"constraints":null,"uniqueNames":[],"transforms":{},"objType":"restaurants","dirty":true,"cachedIndex":null,"cachedBinaryIndex":null,"cachedData":null,"adaptiveBinaryIndices":true,"transactional":false,"cloneObjects":false,"cloneMethod":"parse-stringify","asyncListeners":false,"disableMeta":false,"disableChangesApi":true,"disableDeltaChangesApi":true,"autoupdate":false,"serializableIndices":true,"ttl":null,"maxId":66,"DynamicViews":[],"events":{"insert":[],"update":[],"pre-insert":[],"pre-update":[],"close":[],"flushbuffer":[],"error":[],"delete":[null],"warning":[null]},"changes":[]}],"databaseVersion":1.5,"engineVersion":1.5,"autosave":false,"autosaveInterval":5000,"autosaveHandle":null,"throttledSaves":true,"options":{"serializationMethod":"normal","destructureDelimiter":"$<\n"},"persistenceMethod":"fs","persistenceAdapter":null,"verbose":false,"events":{"init":[null],"loaded":[],"flushChanges":[],"close":[],"changes":[],"warning":[]},"ENV":"NODEJS"}