{"filename":"-89-33.75","collections":[{"name":"restaurants","data":[{"_id":"5c3d65bd3525a329e0c0a2b7","address":"910 N Jackson St","location":{"type":"Point","coordinates":[-89.0040669590235,33.9106759186437]},"isApproved":true,"items":[],"keys":["Breakfast & Brunch","American (Traditional)"],"lastUpdated":1547527612473,"name":"Moore’s Restaurant","phone":"(901) 456-9036","price":"$$","reviewCount":3,"reviewScore":3.5,"meta":{"revision":0,"created":1547531149756,"version":0},"$loki":1},{"_id":"5c3d65bd3525a329e0c179ac","address":"436 N Jackson St","location":{"type":"Point","coordinates":[-89.001935,33.9056649]},"isApproved":true,"items":[],"keys":["Pizza","Italian","Chicken Wings"],"lastUpdated":1547527612792,"name":"Pizza Hut","phone":"(662) 456-2001","price":"","reviewCount":1,"reviewScore":5,"meta":{"revision":0,"created":1547531149756,"version":0},"$loki":2},{"_id":"5c3d65bd3525a329e0c004f7","address":"110 N Jefferson St","location":{"type":"Point","coordinates":[-88.9987538,33.8972192]},"isApproved":true,"items":[],"keys":["Pizza"],"lastUpdated":1547527612226,"name":"Pappas Pizza & Steak House","phone":"(662) 456-1321","price":"","reviewCount":2,"reviewScore":2,"meta":{"revision":0,"created":1547531149756,"version":0},"$loki":3},{"_id":"5c3d65bd3525a329e0c0a7ac","address":"117 W Washington St","location":{"type":"Point","coordinates":[-89.001104,33.897444]},"isApproved":true,"items":[],"keys":["Tex-Mex"],"lastUpdated":1547527612481,"name":"No Way Jose","phone":"(662) 456-9021","price":"$$","reviewCount":9,"reviewScore":3.5,"meta":{"revision":0,"created":1547531149756,"version":0},"$loki":4},{"_id":"5c3d65bd3525a329e0c017ea","address":"441 W Madison St","location":{"type":"Point","coordinates":[-89.0055713,33.8960242]},"isApproved":true,"items":[],"keys":["Restaurants"],"lastUpdated":1547527612251,"name":"My Friends Place","phone":"(662) 456-5576","price":"$","reviewCount":5,"reviewScore":4,"meta":{"revision":0,"created":1547531149756,"version":0},"$loki":5},{"_id":"5c3d65bd3525a329e0c062bc","address":"601 W Madison St","location":{"type":"Point","coordinates":[-89.0107817,33.8959214]},"isApproved":true,"items":[],"keys":["American (Traditional)"],"lastUpdated":1547527612369,"name":"Saxon’s Drive In","phone":"(662) 456-2419","price":"","reviewCount":2,"reviewScore":5,"meta":{"revision":0,"created":1547531149756,"version":0},"$loki":6},{"_id":"5c3d65bd3525a329e0c144fb","address":"805 S Chestnut","location":{"type":"Point","coordinates":[-88.658567,33.609551]},"isApproved":true,"items":[],"keys":["Fast Food","Burgers","Ice Cream & Frozen Yogurt"],"lastUpdated":1547527612715,"name":"Sonic Drive-In","phone":"(662) 369-8181","price":"","reviewCount":3,"reviewScore":1,"meta":{"revision":0,"created":1547531149756,"version":0},"$loki":7},{"_id":"5c3d65bd3525a329e0c0e235","address":"119 Highway 145 N","location":{"type":"Point","coordinates":[-88.659654557705,33.6058918234702]},"isApproved":true,"items":[],"keys":["Italian","Chicken Wings","Pizza"],"lastUpdated":1547527612565,"name":"Pizza Hut","phone":"(662) 319-8700","price":"$$$$","reviewCount":2,"reviewScore":1,"meta":{"revision":0,"created":1547531149756,"version":0},"$loki":8},{"_id":"5c3d65bd3525a329e0c19236","address":"1 Columbus Air Force Base","location":{"type":"Point","coordinates":[-88.659691,33.60294]},"isApproved":true,"items":[],"keys":["Fast Food","Sandwiches"],"lastUpdated":1547527612833,"name":"Subway","phone":"(662) 434-5491","price":"","reviewCount":2,"reviewScore":4.5,"meta":{"revision":0,"created":1547531149756,"version":0},"$loki":9},{"_id":"5c3d65bd3525a329e0c04fc3","address":"115 S Meridian St","location":{"type":"Point","coordinates":[-88.659592,33.6037977]},"isApproved":true,"items":[],"keys":["Chinese"],"lastUpdated":1547527612339,"name":"Jin Jin Chinese Restaurant","phone":"(662) 369-8999","price":"$","reviewCount":2,"reviewScore":3,"meta":{"revision":0,"created":1547531149756,"version":0},"$loki":10},{"_id":"5c3d65bd3525a329e0c17d7a","address":"327 Highway 45 S","location":{"type":"Point","coordinates":[-88.658517,33.604064]},"isApproved":true,"items":[],"keys":["Pizza","Chicken Wings","Sandwiches"],"lastUpdated":1547527612801,"name":"Domino’s Pizza","phone":"(662) 494-2000","price":"","reviewCount":1,"reviewScore":4,"meta":{"revision":0,"created":1547531149756,"version":0},"$loki":11},{"_id":"5c3d65bd3525a329e0c0f09e","address":"7223 Highway 45 N","location":{"type":"Point","coordinates":[-88.658596,33.603607]},"isApproved":true,"items":[],"keys":["Mexican"],"lastUpdated":1547527612590,"name":"Lafiesta Brava","phone":"(662) 495-2484","price":"","reviewCount":6,"reviewScore":3,"meta":{"revision":0,"created":1547531149756,"version":0},"$loki":12},{"_id":"5c3d65bd3525a329e0c02cd9","address":"1035 Hwy 45 Alt N","location":{"type":"Point","coordinates":[-88.6591100692749,33.621105684163]},"isApproved":true,"items":[],"keys":["Tex-Mex"],"lastUpdated":1547527612293,"name":"No Way Jose","phone":"(662) 494-1988","price":"$$","reviewCount":13,"reviewScore":4,"meta":{"revision":0,"created":1547531149756,"version":0},"$loki":13},{"_id":"5c3d65bd3525a329e0c16abb","address":"7352 Hwy 45 Alt N","location":{"type":"Point","coordinates":[-88.658446,33.615618]},"isApproved":true,"items":[],"keys":["Steakhouses"],"lastUpdated":1547527612773,"name":"Yamato","phone":"(662) 605-5111","price":"","reviewCount":7,"reviewScore":4.5,"meta":{"revision":0,"created":1547531149756,"version":0},"$loki":14},{"_id":"5c3d65bd3525a329e0c053fc","address":"7430 Hwy 45 Alt N","location":{"type":"Point","coordinates":[-88.6586660264368,33.6142897212734]},"isApproved":true,"items":[],"keys":["Barbeque","Burgers"],"lastUpdated":1547527612346,"name":"Daniel’s Done Right BBQ","phone":"(662) 524-4489","price":"","reviewCount":2,"reviewScore":5,"meta":{"revision":0,"created":1547531149756,"version":0},"$loki":15},{"_id":"5c3d65bd3525a329e0c16f03","address":"1624 Temple Ave N","location":{"type":"Point","coordinates":[-88.659439,33.6111331808653]},"isApproved":true,"items":[],"keys":["Italian","Pizza","Chicken Wings"],"lastUpdated":1547527612781,"name":"Pizza Hut","phone":"(205) 932-8621","price":"","reviewCount":1,"reviewScore":3,"meta":{"revision":0,"created":1547531149756,"version":0},"$loki":16},{"_id":"5c3d65bd3525a329e0c078f8","address":"8041 Hwy 45 N","location":{"type":"Point","coordinates":[-88.65936,33.623157]},"isApproved":true,"items":[],"keys":["Southern"],"lastUpdated":1547527612409,"name":"Tin Lizzie Cafe","phone":"(662) 494-0006","price":"$","reviewCount":17,"reviewScore":3.5,"meta":{"revision":0,"created":1547531149756,"version":0},"$loki":17},{"_id":"5c3d65bd3525a329e0c18d54","address":"310 Fayette Sq","location":{"type":"Point","coordinates":[-88.6595352,33.6261471]},"isApproved":true,"items":[],"keys":["Chinese"],"lastUpdated":1547527612830,"name":"China Dragon","phone":"(205) 932-2868","price":"","reviewCount":3,"reviewScore":4,"meta":{"revision":0,"created":1547531149756,"version":0},"$loki":18},{"_id":"5c3d65bd3525a329e0c086ad","address":"6984 Highway 45","location":{"type":"Point","coordinates":[-88.6651625,33.6437458]},"isApproved":true,"items":[],"keys":["Chicken Wings"],"lastUpdated":1547527612427,"name":"Wing King","phone":"(662) 295-0404","price":"","reviewCount":4,"reviewScore":5,"meta":{"revision":0,"created":1547531149756,"version":0},"$loki":19}],"idIndex":[1,2,3,4,5,6,7,8,9,10,11,12,13,14,15,16,17,18,19],"binaryIndices":{},"constraints":null,"uniqueNames":[],"transforms":{},"objType":"restaurants","dirty":true,"cachedIndex":null,"cachedBinaryIndex":null,"cachedData":null,"adaptiveBinaryIndices":true,"transactional":false,"cloneObjects":false,"cloneMethod":"parse-stringify","asyncListeners":false,"disableMeta":false,"disableChangesApi":true,"disableDeltaChangesApi":true,"autoupdate":false,"serializableIndices":true,"ttl":null,"maxId":19,"DynamicViews":[],"events":{"insert":[],"update":[],"pre-insert":[],"pre-update":[],"close":[],"flushbuffer":[],"error":[],"delete":[null],"warning":[null]},"changes":[]}],"databaseVersion":1.5,"engineVersion":1.5,"autosave":false,"autosaveInterval":5000,"autosaveHandle":null,"throttledSaves":true,"options":{"serializationMethod":"normal","destructureDelimiter":"$<\n"},"persistenceMethod":"fs","persistenceAdapter":null,"verbose":false,"events":{"init":[null],"loaded":[],"flushChanges":[],"close":[],"changes":[],"warning":[]},"ENV":"NODEJS"}