{"filename":"-90-30.75","collections":[{"name":"restaurants","data":[{"_id":"5c3d65bd3525a329e0c06614","address":"30184 Hwy 25","location":{"type":"Point","coordinates":[-90.1788755,30.9572576]},"isApproved":true,"items":[],"keys":["Steakhouses"],"lastUpdated":1547527612377,"name":"Gerald Steak House","phone":"(985) 839-3330","price":"","reviewCount":1,"reviewScore":4,"meta":{"revision":0,"created":1547531152925,"version":0},"$loki":1},{"_id":"5c3d65bd3525a329e0c1387b","address":"3116 Hwy 24 W","location":{"type":"Point","coordinates":[-90.1776463910937,30.9609487488077]},"isApproved":true,"items":[],"keys":["Barbeque"],"lastUpdated":1547527612698,"name":"Sunny Hill BBQ","phone":"(601) 249-7427","price":"$$","reviewCount":3,"reviewScore":5,"meta":{"revision":0,"created":1547531152925,"version":0},"$loki":2},{"_id":"5c3d65bd3525a329e0c0f308","address":"7921 Hwy 11","location":{"type":"Point","coordinates":[-89.8107111,30.9634058]},"isApproved":true,"items":[],"keys":["Seafood"],"lastUpdated":1547527612591,"name":"Jack’s Fish House","phone":"(601) 749-9200","price":"$","reviewCount":2,"reviewScore":3,"meta":{"revision":0,"created":1547531152925,"version":0},"$loki":3},{"_id":"5c3d65bd3525a329e0c04a4c","address":"305 W Main Ave","location":{"type":"Point","coordinates":[-89.871352,30.790823]},"isApproved":true,"items":[],"keys":["Fast Food"],"lastUpdated":1547527612331,"name":"Ward’s Fast Foods of Lumberton","phone":"(601) 796-2328","price":"$","reviewCount":1,"reviewScore":1,"meta":{"revision":0,"created":1547531152925,"version":0},"$loki":4},{"_id":"5c3d65bd3525a329e0c09e33","address":"971 E Frontage Rd","location":{"type":"Point","coordinates":[-89.8653940111399,30.7935476396097]},"isApproved":true,"items":[],"keys":["Burgers","Fast Food","Ice Cream & Frozen Yogurt"],"lastUpdated":1547527612471,"name":"Sonic Drive-In","phone":"(601) 928-5994","price":"$","reviewCount":3,"reviewScore":1.5,"meta":{"revision":0,"created":1547531152925,"version":0},"$loki":5},{"_id":"5c3d65bd3525a329e0c16acc","address":"220 Cumberland St","location":{"type":"Point","coordinates":[-89.8589478,30.7900926]},"isApproved":true,"items":[],"keys":["Japanese","Steakhouses","Asian Fusion"],"lastUpdated":1547527612773,"name":"Yomato","phone":"(985) 735-3008","price":"$$","reviewCount":2,"reviewScore":4.5,"meta":{"revision":0,"created":1547531152925,"version":0},"$loki":6},{"_id":"5c3d65bd3525a329e0c12df3","address":"225 Louisiana Ave","location":{"type":"Point","coordinates":[-89.859655,30.789577]},"isApproved":true,"items":[],"keys":["American (Traditional)","Comfort Food"],"lastUpdated":1547527612681,"name":"Golden Pear","phone":"(985) 735-1199","price":"$$","reviewCount":11,"reviewScore":4.5,"meta":{"revision":0,"created":1547531152925,"version":0},"$loki":7},{"_id":"5c3d65bd3525a329e0c0d9ad","address":"551 Frontage Dr S","location":{"type":"Point","coordinates":[-89.859314,30.789286]},"isApproved":true,"items":[],"keys":["Pizza","Italian","Chicken Wings"],"lastUpdated":1547527612555,"name":"Pizza Hut","phone":"(601) 528-9090","price":"$$","reviewCount":9,"reviewScore":2,"meta":{"revision":0,"created":1547531152925,"version":0},"$loki":8},{"_id":"5c3d65bd3525a329e0c0bc80","address":"1249 S Main St","location":{"type":"Point","coordinates":[-89.8590512,30.789216]},"isApproved":true,"items":[],"keys":["Sandwiches","Fast Food"],"lastUpdated":1547527612509,"name":"Subway","phone":"(601) 795-6777","price":"","reviewCount":1,"reviewScore":3,"meta":{"revision":0,"created":1547531152925,"version":0},"$loki":9},{"_id":"5c3d65bd3525a329e0c056dc","address":"530 Central Ave W","location":{"type":"Point","coordinates":[-89.8585102592785,30.7893505957147]},"isApproved":true,"items":[],"keys":["Pizza","Sandwiches","Buffets"],"lastUpdated":1547527612348,"name":"Pizza Inn","phone":"(601) 928-9000","price":"$$","reviewCount":7,"reviewScore":4,"meta":{"revision":0,"created":1547531152925,"version":0},"$loki":10},{"_id":"5c3d65bd3525a329e0c0d302","address":"200 Austin St","location":{"type":"Point","coordinates":[-89.8545211940358,30.7845304715826]},"isApproved":true,"items":[],"keys":["Mexican"],"lastUpdated":1547527612546,"name":"Maria’s Mexican Restaurant","phone":"(985) 732-3013","price":"$$","reviewCount":6,"reviewScore":3.5,"meta":{"revision":0,"created":1547531152925,"version":0},"$loki":11},{"_id":"5c3d65bd3525a329e0c04f33","address":"205 B Superior Ave","location":{"type":"Point","coordinates":[-89.8612877,30.7869533]},"isApproved":true,"items":[],"keys":["Mexican","Tex-Mex","Fast Food"],"lastUpdated":1547527612339,"name":"Taco Bell","phone":"(985) 732-7882","price":"$","reviewCount":1,"reviewScore":1,"meta":{"revision":0,"created":1547531152925,"version":0},"$loki":12},{"_id":"5c3d65bd3525a329e0c164fd","address":"300 Cumberland St","location":{"type":"Point","coordinates":[-89.8604377,30.7912949]},"isApproved":true,"items":[],"keys":["Fast Food"],"lastUpdated":1547527612764,"name":"Hardee’s","phone":"(985) 732-2900","price":"$","reviewCount":2,"reviewScore":4.5,"meta":{"revision":0,"created":1547531152925,"version":0},"$loki":13},{"_id":"5c3d65bd3525a329e0c00806","address":"206 Superior Ave","location":{"type":"Point","coordinates":[-89.861426,30.791292]},"isApproved":true,"items":[],"keys":["Fast Food","Chicken Wings"],"lastUpdated":1547527612228,"name":"Popeyes Louisiana Kitchen","phone":"(985) 732-4200","price":"$","reviewCount":3,"reviewScore":2,"meta":{"revision":0,"created":1547531152925,"version":0},"$loki":14},{"_id":"5c3d65bd3525a329e0c01392","address":"401 Ontario Ave","location":{"type":"Point","coordinates":[-89.8611592,30.7906561]},"isApproved":true,"items":[],"keys":["Sandwiches"],"lastUpdated":1547527612248,"name":"Subway","phone":"(985) 735-9622","price":"","reviewCount":1,"reviewScore":1,"meta":{"revision":0,"created":1547531152925,"version":0},"$loki":15},{"_id":"5c3d65bd3525a329e0c169d8","address":"215 Louisiana Ave","location":{"type":"Point","coordinates":[-89.8634629,30.7902486]},"isApproved":true,"items":[],"keys":["Buffets","Diners","Sandwiches"],"lastUpdated":1547527612773,"name":"Chrissy’s","phone":"(985) 732-9067","price":"","reviewCount":2,"reviewScore":2.5,"meta":{"revision":0,"created":1547531152925,"version":0},"$loki":16},{"_id":"5c3d65bd3525a329e0c136e4","address":"1117 Frontage Dr E","location":{"type":"Point","coordinates":[-89.8639604,30.7892511]},"isApproved":true,"items":[],"keys":["Sushi Bars","Japanese"],"lastUpdated":1547527612697,"name":"Yamato","phone":"(601) 928-6155","price":"","reviewCount":2,"reviewScore":1.5,"meta":{"revision":0,"created":1547531152925,"version":0},"$loki":17},{"_id":"5c3d65bd3525a329e0c0ebbb","address":"221 Hwy 26 W","location":{"type":"Point","coordinates":[-89.8650532,30.7869069]},"isApproved":true,"items":[],"keys":["Chicken Wings","Pizza","Sandwiches"],"lastUpdated":1547527612581,"name":"Domino’s Pizza","phone":"(601) 403-8500","price":"","reviewCount":2,"reviewScore":3,"meta":{"revision":0,"created":1547531152925,"version":0},"$loki":18},{"_id":"5c3d65bd3525a329e0c0ce2a","address":"201 Superior Ave","location":{"type":"Point","coordinates":[-89.8651811,30.7872965]},"isApproved":true,"items":[],"keys":["Pizza","Chicken Wings","Sandwiches"],"lastUpdated":1547527612534,"name":"Domino’s Pizza","phone":"(985) 732-5551","price":"","reviewCount":1,"reviewScore":5,"meta":{"revision":0,"created":1547531152925,"version":0},"$loki":19},{"_id":"5c3d65bd3525a329e0c083b3","address":"210 Louisiana Ave","location":{"type":"Point","coordinates":[-89.86523,30.7863515]},"isApproved":true,"items":[],"keys":["Bars","Mexican"],"lastUpdated":1547527612421,"name":"Yoyo’s Bar and Grille","phone":"(985) 735-1055","price":"","reviewCount":3,"reviewScore":2.5,"meta":{"revision":0,"created":1547531152925,"version":0},"$loki":20},{"_id":"5c3d65bd3525a329e0c0d6ff","address":"1101 S Columbia St","location":{"type":"Point","coordinates":[-89.8520736,30.7667435]},"isApproved":true,"items":[],"keys":["Seafood"],"lastUpdated":1547527612554,"name":"Bino’s Seafood Restaurant","phone":"(985) 735-7132","price":"$$","reviewCount":10,"reviewScore":4.5,"meta":{"revision":0,"created":1547531152925,"version":0},"$loki":21},{"_id":"5c3d65bd3525a329e0c1577a","address":"113 Cumberland St","location":{"type":"Point","coordinates":[-89.8735,30.769628]},"isApproved":true,"items":[],"keys":["Chinese"],"lastUpdated":1547527612746,"name":"China Star","phone":"(985) 735-8886","price":"$","reviewCount":4,"reviewScore":4.5,"meta":{"revision":0,"created":1547531152925,"version":0},"$loki":22},{"_id":"5c3d65bd3525a329e0c16bb5","address":"701 Superior Ave","location":{"type":"Point","coordinates":[-89.872457,30.7720247]},"isApproved":true,"items":[],"keys":["Mexican"],"lastUpdated":1547527612773,"name":"YoYo’s Mexican Restaurant","phone":"(985) 735-7374","price":"$$","reviewCount":12,"reviewScore":4.5,"meta":{"revision":0,"created":1547531152925,"version":0},"$loki":23},{"_id":"5c3d65bd3525a329e0c0e976","address":"847 Ave F","location":{"type":"Point","coordinates":[-89.8746515188534,30.7457842206692]},"isApproved":true,"items":[],"keys":["Southern","Seafood"],"lastUpdated":1547527612580,"name":"Long Branch Cafe","phone":"(985) 735-8711","price":"$$","reviewCount":2,"reviewScore":5,"meta":{"revision":0,"created":1547531152925,"version":0},"$loki":24},{"_id":"5c3d65bd3525a329e0c02643","address":"220 Louisiana Ave","location":{"type":"Point","coordinates":[-89.910987,30.61589]},"isApproved":true,"items":[],"keys":["Chinese"],"lastUpdated":1547527612284,"name":"Dragon Palace Restaurant","phone":"(985) 735-1531","price":"","reviewCount":2,"reviewScore":4.5,"meta":{"revision":0,"created":1547531152925,"version":0},"$loki":25},{"_id":"5c3d65bd3525a329e0c1386a","address":"1016 S Main St","location":{"type":"Point","coordinates":[-89.776269657913,30.78742831745]},"isApproved":true,"items":[],"keys":["Fast Food"],"lastUpdated":1547527612697,"name":"Hardee’s","phone":"(601) 795-4057","price":"$","reviewCount":4,"reviewScore":2,"meta":{"revision":0,"created":1547531152925,"version":0},"$loki":26}],"idIndex":[1,2,3,4,5,6,7,8,9,10,11,12,13,14,15,16,17,18,19,20,21,22,23,24,25,26],"binaryIndices":{},"constraints":null,"uniqueNames":[],"transforms":{},"objType":"restaurants","dirty":true,"cachedIndex":null,"cachedBinaryIndex":null,"cachedData":null,"adaptiveBinaryIndices":true,"transactional":false,"cloneObjects":false,"cloneMethod":"parse-stringify","asyncListeners":false,"disableMeta":false,"disableChangesApi":true,"disableDeltaChangesApi":true,"autoupdate":false,"serializableIndices":true,"ttl":null,"maxId":26,"DynamicViews":[],"events":{"insert":[],"update":[],"pre-insert":[],"pre-update":[],"close":[],"flushbuffer":[],"error":[],"delete":[null],"warning":[null]},"changes":[]}],"databaseVersion":1.5,"engineVersion":1.5,"autosave":false,"autosaveInterval":5000,"autosaveHandle":null,"throttledSaves":true,"options":{"serializationMethod":"normal","destructureDelimiter":"$<\n"},"persistenceMethod":"fs","persistenceAdapter":null,"verbose":false,"events":{"init":[null],"loaded":[],"flushChanges":[],"close":[],"changes":[],"warning":[]},"ENV":"NODEJS"}