{"filename":"-90.25-29.25","collections":[{"name":"restaurants","data":[{"_id":"5c3d65bd3525a329e0c13c2a","address":"2606 N Alex Plaisance Blvd","location":{"type":"Point","coordinates":[-90.282847,29.405407]},"isApproved":true,"items":[],"keys":["Cajun/Creole","Armenian","Barbeque"],"lastUpdated":1547527612705,"name":"Me-Maws Cajun Cuisine","phone":"(985) 475-6353","price":"$$","reviewCount":18,"reviewScore":4.5,"meta":{"revision":0,"created":1547531149929,"version":0},"$loki":1},{"_id":"5c3d65bd3525a329e0c16d3e","address":"18629 Hwy 3235","location":{"type":"Point","coordinates":[-90.2900108322501,29.4148291005572]},"isApproved":true,"items":[],"keys":["Cajun/Creole","American (New)","Breakfast & Brunch"],"lastUpdated":1547527612774,"name":"Rose’s Cafe & Lounge","phone":"(985) 475-5474","price":"$$","reviewCount":12,"reviewScore":4,"meta":{"revision":0,"created":1547531149929,"version":0},"$loki":2},{"_id":"5c3d65bd3525a329e0bffb6e","address":"409 N Alex Plaisance Blvd","location":{"type":"Point","coordinates":[-90.273489,29.391308]},"isApproved":true,"items":[],"keys":["Seafood"],"lastUpdated":1547527612220,"name":"Barrios Seafood Restaurant","phone":"(985) 475-3027","price":"$$$","reviewCount":18,"reviewScore":3,"meta":{"revision":0,"created":1547531149929,"version":0},"$loki":3},{"_id":"5c3d65bd3525a329e0c11134","address":"28587 Highway 23","location":{"type":"Point","coordinates":[-90.263821,29.376066]},"isApproved":true,"items":[],"keys":["Pizza"],"lastUpdated":1547527612641,"name":"Kristy’s Restaurant & Pizza Parlor","phone":"(504) 564-2187","price":"","reviewCount":1,"reviewScore":3,"meta":{"revision":0,"created":1547531149929,"version":0},"$loki":4},{"_id":"5c3d65bd3525a329e0c01555","address":"21487 Highway 1","location":{"type":"Point","coordinates":[-90.2440262,29.3376705]},"isApproved":true,"items":[],"keys":["Seafood"],"lastUpdated":1547527612249,"name":"Seafood Shed Inc","phone":"(985) 475-6252","price":"","reviewCount":4,"reviewScore":3.5,"meta":{"revision":0,"created":1547531149929,"version":0},"$loki":5},{"_id":"5c3d65bd3525a329e0c04067","address":"24203 Highway 1","location":{"type":"Point","coordinates":[-90.2142381576304,29.2576074131875]},"isApproved":true,"items":[],"keys":["Seafood"],"lastUpdated":1547527612320,"name":"Leeville Seafood Restaurant","phone":"(985) 396-2770","price":"$$","reviewCount":14,"reviewScore":4,"meta":{"revision":0,"created":1547531149929,"version":0},"$loki":6},{"_id":"5c3d65bd3525a329e0c0e693","address":"27900 Hwy 1","location":{"type":"Point","coordinates":[-90.1797382,29.1579607]},"isApproved":true,"items":[],"keys":["Seafood","Steakhouses"],"lastUpdated":1547527612574,"name":"C. Moran’s Marina","phone":"(985) 396-2729","price":"$$","reviewCount":9,"reviewScore":3,"meta":{"revision":0,"created":1547531149929,"version":0},"$loki":7},{"_id":"5c3d65bd3525a329e0c0cbd8","address":"1018 Highway 1","location":{"type":"Point","coordinates":[-90.0540424,29.2088025]},"isApproved":true,"items":[],"keys":["Seafood","Seafood Markets"],"lastUpdated":1547527612533,"name":"Camardelle’s Seafood","phone":"(985) 787-3222","price":"$$","reviewCount":2,"reviewScore":4.5,"meta":{"revision":0,"created":1547531149929,"version":0},"$loki":8},{"_id":"5c3d65bd3525a329e0c17664","address":"1865 Hwy 1","location":{"type":"Point","coordinates":[-90.032575,29.209773]},"isApproved":true,"items":[],"keys":["Seafood"],"lastUpdated":1547527612791,"name":"Hurricane Hole","phone":"(985) 787-3663","price":"$$","reviewCount":9,"reviewScore":3,"meta":{"revision":0,"created":1547531149929,"version":0},"$loki":9},{"_id":"5c3d65bd3525a329e0c119fa","address":"2377 Hwy 1","location":{"type":"Point","coordinates":[-90.0184494892935,29.2193928464733]},"isApproved":true,"items":[],"keys":["Cajun/Creole"],"lastUpdated":1547527612651,"name":"Cisco’s Cajun Cantina","phone":"(985) 787-2751","price":"$","reviewCount":2,"reviewScore":5,"meta":{"revision":0,"created":1547531149929,"version":0},"$loki":10},{"_id":"5c3d65bd3525a329e0c0b8e6","address":"17972 W Main St","location":{"type":"Point","coordinates":[-90.2983034,29.4343739]},"isApproved":true,"items":[],"keys":["Southern","Ice Cream & Frozen Yogurt","Cajun/Creole"],"lastUpdated":1547527612507,"name":"Kajun Twist","phone":"(985) 632-7272","price":"","reviewCount":1,"reviewScore":4,"meta":{"revision":0,"created":1547531149929,"version":0},"$loki":11},{"_id":"5c3d65bd3525a329e0c0f971","address":"13550 W Main St","location":{"type":"Point","coordinates":[-90.354651,29.558067]},"isApproved":true,"items":[],"keys":["American (Traditional)","Cajun/Creole"],"lastUpdated":1547527612600,"name":"The Balcony","phone":"(985) 693-3368","price":"$","reviewCount":9,"reviewScore":3.5,"meta":{"revision":0,"created":1547531149929,"version":0},"$loki":12},{"_id":"5c3d65bd3525a329e0c1adbc","address":"800 N Canal Blvd","location":{"type":"Point","coordinates":[-90.354651,29.558067]},"isApproved":true,"items":[],"keys":["Fast Food","Ice Cream & Frozen Yogurt","Burgers"],"lastUpdated":1547527612875,"name":"Sonic Drive-In","phone":"(985) 447-7000","price":"$","reviewCount":1,"reviewScore":5,"meta":{"revision":0,"created":1547531149929,"version":0},"$loki":13},{"_id":"5c3d65bd3525a329e0c00f4a","address":"140 Tante Phine Rd","location":{"type":"Point","coordinates":[-90.354576,29.557108]},"isApproved":true,"items":[],"keys":["Seafood"],"lastUpdated":1547527612237,"name":"Venice’s Seafood","phone":"(985) 534-9833","price":"","reviewCount":1,"reviewScore":5,"meta":{"revision":0,"created":1547531149929,"version":0},"$loki":14},{"_id":"5c3d65bd3525a329e0c0e510","address":"13952 W Main St","location":{"type":"Point","coordinates":[-90.3360529,29.5283535]},"isApproved":true,"items":[],"keys":["Chicken Wings","Fast Food"],"lastUpdated":1547527612573,"name":"Popeyes Louisiana Kitchen","phone":"(985) 693-4616","price":"","reviewCount":2,"reviewScore":1,"meta":{"revision":0,"created":1547531149929,"version":0},"$loki":15},{"_id":"5c3d65bd3525a329e0c13c77","address":"5020 Hwy 56","location":{"type":"Point","coordinates":[-90.3319352742992,29.5107138339765]},"isApproved":true,"items":[],"keys":["Seafood","Burgers","Sandwiches"],"lastUpdated":1547527612705,"name":"Paul’s Burgers & Seafood","phone":"(985) 594-3160","price":"","reviewCount":5,"reviewScore":4,"meta":{"revision":0,"created":1547531149929,"version":0},"$loki":16},{"_id":"5c3d65bd3525a329e0c0688c","address":"13938 W Main St","location":{"type":"Point","coordinates":[-90.3459382,29.5485463]},"isApproved":true,"items":[],"keys":["Cajun/Creole","Seafood","Steakhouses"],"lastUpdated":1547527612379,"name":"Barrios’ Rockin Gator","phone":"(985) 693-7130","price":"","reviewCount":3,"reviewScore":1.5,"meta":{"revision":0,"created":1547531149929,"version":0},"$loki":17},{"_id":"5c3d65bd3525a329e0c0b644","address":"14018 W Main St","location":{"type":"Point","coordinates":[-90.344355404377,29.5483882342112]},"isApproved":true,"items":[],"keys":["Burgers","Fast Food","Coffee & Tea"],"lastUpdated":1547527612499,"name":"McDonald’s","phone":"(985) 798-7702","price":"$$","reviewCount":2,"reviewScore":2,"meta":{"revision":0,"created":1547531149929,"version":0},"$loki":18},{"_id":"5c3d65bd3525a329e0c0274a","address":"14046 W Main St","location":{"type":"Point","coordinates":[-90.342885,29.5471685]},"isApproved":true,"items":[],"keys":["Sandwiches","Fast Food"],"lastUpdated":1547527612284,"name":"Subway","phone":"(985) 693-5555","price":"","reviewCount":1,"reviewScore":2,"meta":{"revision":0,"created":1547531149929,"version":0},"$loki":19},{"_id":"5c3d65bd3525a329e0c0993a","address":"16237 E Main St","location":{"type":"Point","coordinates":[-90.3477366,29.5505084]},"isApproved":true,"items":[],"keys":["Burgers"],"lastUpdated":1547527612463,"name":"Burger King","phone":"(504) 632-8585","price":"$","reviewCount":1,"reviewScore":5,"meta":{"revision":0,"created":1547531149929,"version":0},"$loki":20},{"_id":"5c3d65bd3525a329e0c18cbb","address":"16261 East Main St","location":{"type":"Point","coordinates":[-90.3293509866908,29.4949659860504]},"isApproved":true,"items":[],"keys":["Sushi Bars"],"lastUpdated":1547527612825,"name":"Geaux Fish Cut Off","phone":"","price":"$$","reviewCount":2,"reviewScore":3,"meta":{"revision":0,"created":1547531149929,"version":0},"$loki":21},{"_id":"5c3d65bd3525a329e0c10820","address":"15628 W Main St","location":{"type":"Point","coordinates":[-90.3294304947748,29.4942307158307]},"isApproved":true,"items":[],"keys":["Seafood","Wraps","Sandwiches"],"lastUpdated":1547527612619,"name":"Cher Amie’s Seafood","phone":"(985) 325-3333","price":"$$","reviewCount":21,"reviewScore":4.5,"meta":{"revision":0,"created":1547531149929,"version":0},"$loki":22},{"_id":"5c3d65bd3525a329e0c104e8","address":"107 E 93rd St","location":{"type":"Point","coordinates":[-90.3121269724841,29.4683049337266]},"isApproved":true,"items":[],"keys":["Soul Food"],"lastUpdated":1547527612618,"name":"Mama’s Kitchen","phone":"(985) 325-3303","price":"","reviewCount":6,"reviewScore":3.5,"meta":{"revision":0,"created":1547531149929,"version":0},"$loki":23},{"_id":"5c3d65bd3525a329e0c15925","address":"12410 W Main","location":{"type":"Point","coordinates":[-90.3136741416765,29.4738539501016]},"isApproved":true,"items":[],"keys":["Fast Food"],"lastUpdated":1547527612747,"name":"D & D Drive","phone":"(985) 693-3136","price":"","reviewCount":5,"reviewScore":3,"meta":{"revision":0,"created":1547531149929,"version":0},"$loki":24},{"_id":"5c3d65bd3525a329e0c174d5","address":"16273 E Main St","location":{"type":"Point","coordinates":[-90.3133622040275,29.472824307111]},"isApproved":true,"items":[],"keys":["Mexican"],"lastUpdated":1547527612790,"name":"El Paso","phone":"(985) 325-7276","price":"$$","reviewCount":18,"reviewScore":4,"meta":{"revision":0,"created":1547531149929,"version":0},"$loki":25},{"_id":"5c3d65bd3525a329e0bffe63","address":"27925 LA-23","location":{"type":"Point","coordinates":[-90.3157572505262,29.4721221308684]},"isApproved":true,"items":[],"keys":["Fast Food","Sandwiches"],"lastUpdated":1547527612222,"name":"Subway","phone":"(504) 564-0715","price":"","reviewCount":1,"reviewScore":4,"meta":{"revision":0,"created":1547531149929,"version":0},"$loki":26},{"_id":"5c3d65bd3525a329e0c154f2","address":"41245 Highway 23","location":{"type":"Point","coordinates":[-90.315036270776,29.4742038185937]},"isApproved":true,"items":[],"keys":["Grocery","Delis","Convenience Stores"],"lastUpdated":1547527612745,"name":"Adams Grocery of Boothville","phone":"(985) 534-7594","price":"","reviewCount":2,"reviewScore":3,"meta":{"revision":0,"created":1547531149929,"version":0},"$loki":27},{"_id":"5c3d65bd3525a329e0c00b59","address":"291 Hwy 3162","location":{"type":"Point","coordinates":[-90.321622,29.4687042]},"isApproved":true,"items":[],"keys":["American (Traditional)","Chicken Wings","Salad"],"lastUpdated":1547527612230,"name":"WOW Cafe","phone":"(985) 325-3680","price":"$$","reviewCount":14,"reviewScore":4,"meta":{"revision":0,"created":1547531149929,"version":0},"$loki":28},{"_id":"5c3d65bd3525a329e0c0517f","address":"765 Hwy 665","location":{"type":"Point","coordinates":[-90.3228954658144,29.468240106013]},"isApproved":true,"items":[],"keys":["Burgers","Ice Cream & Frozen Yogurt"],"lastUpdated":1547527612340,"name":"Sheri’s Snack Shack","phone":"(985) 466-3773","price":"$","reviewCount":1,"reviewScore":5,"meta":{"revision":0,"created":1547531149929,"version":0},"$loki":29},{"_id":"5c3d65bd3525a329e0c0aa07","address":"13932 W Main St","location":{"type":"Point","coordinates":[-90.322193,29.465399]},"isApproved":true,"items":[],"keys":["Pizza"],"lastUpdated":1547527612482,"name":"Bayouland Pizza","phone":"(985) 798-7499","price":"","reviewCount":2,"reviewScore":1.5,"meta":{"revision":0,"created":1547531149929,"version":0},"$loki":30},{"_id":"5c3d65bd3525a329e0bff92b","address":"16816 Hwy 3235","location":{"type":"Point","coordinates":[-90.3252947936329,29.4680927495789]},"isApproved":true,"items":[],"keys":["Seafood","Breakfast & Brunch","Sandwiches"],"lastUpdated":1547527612219,"name":"Spahr’s At The Station","phone":"(985) 325-4450","price":"$$","reviewCount":9,"reviewScore":4.5,"meta":{"revision":0,"created":1547531149929,"version":0},"$loki":31},{"_id":"5c3d65bd3525a329e0c0c04e","address":"3365 Hwy 1","location":{"type":"Point","coordinates":[-89.9914828504706,29.2345018628831]},"isApproved":true,"items":[],"keys":["Gas Stations","Burgers"],"lastUpdated":1547527612516,"name":"Jo-Bob’s Gas & Grill","phone":"(985) 787-3707","price":"$$","reviewCount":9,"reviewScore":4,"meta":{"revision":0,"created":1547531149929,"version":0},"$loki":32},{"_id":"5c3d65bd3525a329e0c073f8","address":"3162 Hwy 1","location":{"type":"Point","coordinates":[-89.994244,29.2321691]},"isApproved":true,"items":[],"keys":["Sports Bars","Seafood","Music Venues"],"lastUpdated":1547527612400,"name":"Artie’s Sports Bar","phone":"(985) 787-3165","price":"$","reviewCount":10,"reviewScore":3.5,"meta":{"revision":0,"created":1547531149929,"version":0},"$loki":33},{"_id":"5c3d65bd3525a329e0c198eb","address":"116 Chighizola Ln","location":{"type":"Point","coordinates":[-89.9985542737003,29.2313756474464]},"isApproved":true,"items":[],"keys":["Seafood"],"lastUpdated":1547527612842,"name":"Lighthouse Restaurant","phone":"(985) 787-3331","price":"","reviewCount":3,"reviewScore":3.5,"meta":{"revision":0,"created":1547531149929,"version":0},"$loki":34},{"_id":"5c3d65bd3525a329e0c1a0e9","address":"3059 Hwy 1","location":{"type":"Point","coordinates":[-89.998335,29.230894]},"isApproved":true,"items":[],"keys":["American (Traditional)","Sandwiches","Burgers"],"lastUpdated":1547527612857,"name":"Yum’s Cafe","phone":"(985) 787-2995","price":"$$","reviewCount":22,"reviewScore":4,"meta":{"revision":0,"created":1547531149929,"version":0},"$loki":35},{"_id":"5c3d65bd3525a329e0c1107e","address":"3039 Hwy 1","location":{"type":"Point","coordinates":[-89.9990347,29.230512]},"isApproved":true,"items":[],"keys":["American (Traditional)"],"lastUpdated":1547527612640,"name":"Lighthouse Restaurant","phone":"(985) 787-2219","price":"$$","reviewCount":13,"reviewScore":3.5,"meta":{"revision":0,"created":1547531149929,"version":0},"$loki":36},{"_id":"5c3d65bd3525a329e0c0fe08","address":"3027 Hwy 1","location":{"type":"Point","coordinates":[-89.999466,29.230342]},"isApproved":true,"items":[],"keys":["Seafood","Burgers","Sandwiches"],"lastUpdated":1547527612608,"name":"Starfish Restaurant","phone":"(985) 787-2711","price":"$$","reviewCount":52,"reviewScore":4,"meta":{"revision":0,"created":1547531149929,"version":0},"$loki":37},{"_id":"5c3d65bd3525a329e0c1185b","address":"3084 LA-1","location":{"type":"Point","coordinates":[-89.9972021207213,29.2311991040833]},"isApproved":true,"items":[],"keys":["American (New)","Mexican"],"lastUpdated":1547527612650,"name":"Surfside Grill","phone":"(985) 787-2445","price":"$","reviewCount":16,"reviewScore":4,"meta":{"revision":0,"created":1547531149929,"version":0},"$loki":38},{"_id":"5c3d65bd3525a329e0c0135d","address":"42939 Highway 23","location":{"type":"Point","coordinates":[-89.9964393675327,29.2317310720682]},"isApproved":true,"items":[],"keys":["American (Traditional)","Cajun/Creole","Seafood"],"lastUpdated":1547527612248,"name":"Change’s Restaurant","phone":"(504) 534-9254","price":"","reviewCount":11,"reviewScore":4.5,"meta":{"revision":0,"created":1547531149929,"version":0},"$loki":39}],"idIndex":[1,2,3,4,5,6,7,8,9,10,11,12,13,14,15,16,17,18,19,20,21,22,23,24,25,26,27,28,29,30,31,32,33,34,35,36,37,38,39],"binaryIndices":{},"constraints":null,"uniqueNames":[],"transforms":{},"objType":"restaurants","dirty":true,"cachedIndex":null,"cachedBinaryIndex":null,"cachedData":null,"adaptiveBinaryIndices":true,"transactional":false,"cloneObjects":false,"cloneMethod":"parse-stringify","asyncListeners":false,"disableMeta":false,"disableChangesApi":true,"disableDeltaChangesApi":true,"autoupdate":false,"serializableIndices":true,"ttl":null,"maxId":39,"DynamicViews":[],"events":{"insert":[],"update":[],"pre-insert":[],"pre-update":[],"close":[],"flushbuffer":[],"error":[],"delete":[null],"warning":[null]},"changes":[]}],"databaseVersion":1.5,"engineVersion":1.5,"autosave":false,"autosaveInterval":5000,"autosaveHandle":null,"throttledSaves":true,"options":{"serializationMethod":"normal","destructureDelimiter":"$<\n"},"persistenceMethod":"fs","persistenceAdapter":null,"verbose":false,"events":{"init":[null],"loaded":[],"flushChanges":[],"close":[],"changes":[],"warning":[]},"ENV":"NODEJS"}