{"filename":"-90.75-34.5","collections":[{"name":"restaurants","data":[{"_id":"5c3d65bd3525a329e0c0aa3f","address":"5770 Moon Lake Rd","location":{"type":"Point","coordinates":[-90.497196,34.4355209]},"isApproved":true,"items":[],"keys":["Steakhouses"],"lastUpdated":1547527612488,"name":"Kathryn’s","phone":"(662) 337-0022","price":"$$","reviewCount":8,"reviewScore":5,"meta":{"revision":0,"created":1547531151428,"version":0},"$loki":1},{"_id":"5c3d65bd3525a329e0c00fe6","address":"2204 Jackson Ave W","location":{"type":"Point","coordinates":[-90.580592,34.498338]},"isApproved":true,"items":[],"keys":["Chicken Wings","Burgers","Sandwiches"],"lastUpdated":1547527612238,"name":"Bim Bam Burgers","phone":"(662) 238-7802","price":"$$","reviewCount":23,"reviewScore":2.5,"meta":{"revision":0,"created":1547531151428,"version":0},"$loki":2},{"_id":"5c3d65bd3525a329e0c1ae6a","address":"400 N Lamar Blvd","location":{"type":"Point","coordinates":[-90.5805966505352,34.4983397374263]},"isApproved":true,"items":[],"keys":["Lounges","American (Traditional)"],"lastUpdated":1547527612876,"name":"The Coop","phone":"(662) 234-3031","price":"$$","reviewCount":25,"reviewScore":3.5,"meta":{"revision":0,"created":1547531151428,"version":0},"$loki":3},{"_id":"5c3d65bd3525a329e0c03893","address":"114 Courthouse Sq","location":{"type":"Point","coordinates":[-90.5806006738487,34.4982104217473]},"isApproved":true,"items":[],"keys":["Steakhouses"],"lastUpdated":1547527612304,"name":"Oxford Grillehouse","phone":"(662) 701-8285","price":"$$$","reviewCount":49,"reviewScore":3.5,"meta":{"revision":0,"created":1547531151428,"version":0},"$loki":4},{"_id":"5c3d65bd3525a329e0c03610","address":"671 Hwy 6 E","location":{"type":"Point","coordinates":[-90.5716983809814,34.2157949700754]},"isApproved":true,"items":[],"keys":["Chicken Wings","Fast Food"],"lastUpdated":1547527612303,"name":"Popeyes Louisiana Kitchen","phone":"(662) 561-1500","price":"","reviewCount":6,"reviewScore":2,"meta":{"revision":0,"created":1547531151428,"version":0},"$loki":5},{"_id":"5c3d65bd3525a329e0c12465","address":"362 W Chestnut St","location":{"type":"Point","coordinates":[-90.767083,34.774645]},"isApproved":true,"items":[],"keys":["Mexican"],"lastUpdated":1547527612670,"name":"Ameca Mexican Restaurant","phone":"(870) 295-5900","price":"$$","reviewCount":3,"reviewScore":3.5,"meta":{"revision":0,"created":1547531151428,"version":0},"$loki":6},{"_id":"5c3d65bd3525a329e0c02464","address":"2007 North Main","location":{"type":"Point","coordinates":[-90.7714843,34.7744111]},"isApproved":true,"items":[],"keys":["Mexican","Tex-Mex","Fast Food"],"lastUpdated":1547527612277,"name":"Taco Bell","phone":"(870) 734-2818","price":"$","reviewCount":11,"reviewScore":1,"meta":{"revision":0,"created":1547531151428,"version":0},"$loki":7},{"_id":"5c3d65bd3525a329e0c0bc91","address":"378 W Chestnut St","location":{"type":"Point","coordinates":[-90.770017,34.774949]},"isApproved":true,"items":[],"keys":["Chinese"],"lastUpdated":1547527612509,"name":"Lucky Star","phone":"(870) 295-5601","price":"$","reviewCount":3,"reviewScore":2.5,"meta":{"revision":0,"created":1547531151428,"version":0},"$loki":8},{"_id":"5c3d65bd3525a329e0c0b1e3","address":"381 W chestnut street","location":{"type":"Point","coordinates":[-90.770169,34.7742171]},"isApproved":true,"items":[],"keys":["Breakfast & Brunch","Burgers","Chicken Wings"],"lastUpdated":1547527612497,"name":"MJ’s Grill","phone":"(870) 662-6525","price":"","reviewCount":1,"reviewScore":5,"meta":{"revision":0,"created":1547531151428,"version":0},"$loki":9},{"_id":"5c3d65bd3525a329e0c09190","address":"309 Hwy 1 S","location":{"type":"Point","coordinates":[-90.905589,34.557328]},"isApproved":true,"items":[],"keys":["American (Traditional)"],"lastUpdated":1547527612446,"name":"Carousel","phone":"(870) 829-2500","price":"","reviewCount":2,"reviewScore":4,"meta":{"revision":0,"created":1547531151428,"version":0},"$loki":10},{"_id":"5c3d65bd3525a329e0c00691","address":"8298 Highway 1 S","location":{"type":"Point","coordinates":[-90.7678981,34.6571422]},"isApproved":true,"items":[],"keys":["Barbeque"],"lastUpdated":1547527612227,"name":"Cypress Corner Bar-B-Q","phone":"(870) 295-6546","price":"$","reviewCount":2,"reviewScore":4,"meta":{"revision":0,"created":1547531151428,"version":0},"$loki":11},{"_id":"5c3d65bd3525a329e0c1b2b5","address":"2315 West Jackson Avenue","location":{"type":"Point","coordinates":[-90.696846,34.564387]},"isApproved":true,"items":[],"keys":["American (Traditional)","Chicken Wings","Sports Bars"],"lastUpdated":1547527612878,"name":"Buffalo Wild Wings","phone":"(662) 238-2716","price":"$$","reviewCount":30,"reviewScore":1.5,"meta":{"revision":0,"created":1547531151428,"version":0},"$loki":12},{"_id":"5c3d65bd3525a329e0c073c3","address":"1406 N Main St","location":{"type":"Point","coordinates":[-90.6470466,34.5753333]},"isApproved":true,"items":[],"keys":["Fast Food","Burgers","Coffee & Tea"],"lastUpdated":1547527612399,"name":"McDonald’s","phone":"(870) 734-1410","price":"$","reviewCount":28,"reviewScore":2,"meta":{"revision":0,"created":1547531151428,"version":0},"$loki":13},{"_id":"5c3d65bd3525a329e0c0e836","address":"1631 W Jackson Ave","location":{"type":"Point","coordinates":[-90.6470466,34.5753333]},"isApproved":true,"items":[],"keys":["Japanese","Steakhouses","Sushi Bars"],"lastUpdated":1547527612575,"name":"Kabuki Sushi & Steak House","phone":"(662) 236-7346","price":"$$","reviewCount":39,"reviewScore":4,"meta":{"revision":0,"created":1547531151428,"version":0},"$loki":14},{"_id":"5c3d65bd3525a329e0c0a5e3","address":"1741 University Ave","location":{"type":"Point","coordinates":[-90.6509561,34.5532895]},"isApproved":true,"items":[],"keys":["Burgers","Fast Food"],"lastUpdated":1547527612481,"name":"Burger King","phone":"(662) 281-0870","price":"$","reviewCount":3,"reviewScore":1,"meta":{"revision":0,"created":1547531151428,"version":0},"$loki":15},{"_id":"5c3d65bd3525a329e0c0aa6f","address":"2000 W Jackson Ave","location":{"type":"Point","coordinates":[-90.6508,34.5527]},"isApproved":true,"items":[],"keys":["Fast Food","Burgers","Ice Cream & Frozen Yogurt"],"lastUpdated":1547527612488,"name":"Sonic Drive-In","phone":"(662) 234-8005","price":"","reviewCount":10,"reviewScore":2,"meta":{"revision":0,"created":1547531151428,"version":0},"$loki":16},{"_id":"5c3d65bd3525a329e0c0e98e","address":"1150 Casino Strip Resort Blvd","location":{"type":"Point","coordinates":[-90.6508,34.5527]},"isApproved":true,"items":[],"keys":["American (Traditional)"],"lastUpdated":1547527612581,"name":"Celebrity Grill at Hollywood Casino","phone":"(800) 871-0711","price":"","reviewCount":2,"reviewScore":2.5,"meta":{"revision":0,"created":1547531151428,"version":0},"$loki":17},{"_id":"5c3d65bd3525a329e0c00ad3","address":"1477 Casino Strip Resort Blvd","location":{"type":"Point","coordinates":[-90.6533322,34.5547762]},"isApproved":true,"items":[],"keys":["American (Traditional)","Seafood","Steakhouses"],"lastUpdated":1547527612230,"name":"Twain’s Steakhouse","phone":"(800) 456-0711","price":"","reviewCount":8,"reviewScore":3,"meta":{"revision":0,"created":1547531151428,"version":0},"$loki":18},{"_id":"5c3d65bd3525a329e0c073b2","address":"770 N Sebastian","location":{"type":"Point","coordinates":[-90.6533322,34.5547762]},"isApproved":true,"items":[],"keys":["Fast Food","Sandwiches"],"lastUpdated":1547527612399,"name":"Subway","phone":"(870) 572-7700","price":"$","reviewCount":1,"reviewScore":1,"meta":{"revision":0,"created":1547531151428,"version":0},"$loki":19},{"_id":"5c3d65bd3525a329e0c15066","address":"1375 Highway 61 N","location":{"type":"Point","coordinates":[-90.6578632126935,34.554819238673]},"isApproved":true,"items":[],"keys":["Burgers","Fast Food","Coffee & Tea"],"lastUpdated":1547527612736,"name":"McDonald’s","phone":"(662) 357-0582","price":"$","reviewCount":5,"reviewScore":2,"meta":{"revision":0,"created":1547531151428,"version":0},"$loki":20},{"_id":"5c3d65bd3525a329e0c1608f","address":"218 Student Union Dr","location":{"type":"Point","coordinates":[-90.6578632126935,34.554819238673]},"isApproved":true,"items":[],"keys":["Chinese","Fast Food"],"lastUpdated":1547527612756,"name":"Panda Express","phone":"","price":"","reviewCount":1,"reviewScore":1,"meta":{"revision":0,"created":1547531151428,"version":0},"$loki":21},{"_id":"5c3d65bd3525a329e0c03feb","address":"1010 Casino Center Dr","location":{"type":"Point","coordinates":[-90.6576329453791,34.5550048132428]},"isApproved":true,"items":[],"keys":["Cafes"],"lastUpdated":1547527612320,"name":"Atrium Café at Gold Strike Casino Resort","phone":"(888) 245-7829","price":"$$$","reviewCount":14,"reviewScore":3,"meta":{"revision":0,"created":1547531151428,"version":0},"$loki":22},{"_id":"5c3d65bd3525a329e0c07ab3","address":"1101 Van Buren Ave","location":{"type":"Point","coordinates":[-90.6576329453791,34.5550048132428]},"isApproved":true,"items":[],"keys":["Pizza","Italian"],"lastUpdated":1547527612409,"name":"Square Pizza","phone":"(662) 234-9333","price":"$","reviewCount":21,"reviewScore":3,"meta":{"revision":0,"created":1547531151428,"version":0},"$loki":23},{"_id":"5c3d65bd3525a329e0c053cf","address":"1150 Casino Strip Resort Blvd","location":{"type":"Point","coordinates":[-90.6555361,34.5548293]},"isApproved":true,"items":[],"keys":["Buffets"],"lastUpdated":1547527612346,"name":"Epic Buffet at Hollywood Casino","phone":"(800) 871-0711","price":"","reviewCount":9,"reviewScore":3,"meta":{"revision":0,"created":1547531151428,"version":0},"$loki":24},{"_id":"5c3d65bd3525a329e0c18152","address":"2307 Jackson Ave W","location":{"type":"Point","coordinates":[-90.6555361,34.5548293]},"isApproved":true,"items":[],"keys":["Fast Food"],"lastUpdated":1547527612809,"name":"Chick-fil-A","phone":"(662) 232-8787","price":"$","reviewCount":6,"reviewScore":3.5,"meta":{"revision":0,"created":1547531151428,"version":0},"$loki":25},{"_id":"5c3d65bd3525a329e0c11749","address":"836 N Sebastian St","location":{"type":"Point","coordinates":[-90.6591655,34.554013]},"isApproved":true,"items":[],"keys":["Pizza"],"lastUpdated":1547527612650,"name":"Domino’s Pizza - West Helena","phone":"(870) 330-7117","price":"","reviewCount":1,"reviewScore":1,"meta":{"revision":0,"created":1547531151428,"version":0},"$loki":26},{"_id":"5c3d65bd3525a329e0c1156c","address":"3000 Old Taylor Rd","location":{"type":"Point","coordinates":[-90.66455,34.553309]},"isApproved":true,"items":[],"keys":["Southern","Sandwiches"],"lastUpdated":1547527612649,"name":"Thacker 564","phone":"(662) 638-3780","price":"","reviewCount":10,"reviewScore":3.5,"meta":{"revision":0,"created":1547531151428,"version":0},"$loki":27},{"_id":"5c3d65bd3525a329e0c17e99","address":"1150 Casino Strip Resort Blvd","location":{"type":"Point","coordinates":[-90.647163,34.54993]},"isApproved":true,"items":[],"keys":["Steakhouses"],"lastUpdated":1547527612802,"name":"Fairbanks Steakhouse","phone":"(800) 871-0711","price":"$$","reviewCount":12,"reviewScore":4,"meta":{"revision":0,"created":1547531151428,"version":0},"$loki":28},{"_id":"5c3d65bd3525a329e0c01638","address":"582 Hwy 6 E","location":{"type":"Point","coordinates":[-90.6446841,34.5464501]},"isApproved":true,"items":[],"keys":["Steakhouses","American (Traditional)","Seafood"],"lastUpdated":1547527612250,"name":"The Sizzler","phone":"(662) 234-4667","price":"$$","reviewCount":8,"reviewScore":3.5,"meta":{"revision":0,"created":1547531151428,"version":0},"$loki":29},{"_id":"5c3d65bd3525a329e0c107af","address":"1305 N Main St","location":{"type":"Point","coordinates":[-90.6446841,34.5464501]},"isApproved":true,"items":[],"keys":["Sandwiches","Fast Food"],"lastUpdated":1547527612619,"name":"Subway","phone":"(870) 734-2100","price":"$","reviewCount":8,"reviewScore":2,"meta":{"revision":0,"created":1547531151428,"version":0},"$loki":30},{"_id":"5c3d65bd3525a329e0c0d023","address":"693 Hwy 6 E","location":{"type":"Point","coordinates":[-90.6243894,34.5406892]},"isApproved":true,"items":[],"keys":["Fast Food","American (Traditional)"],"lastUpdated":1547527612544,"name":"Hardee’s","phone":"(662) 563-9060","price":"$","reviewCount":6,"reviewScore":3,"meta":{"revision":0,"created":1547531151428,"version":0},"$loki":31},{"_id":"5c3d65bd3525a329e0c05bcc","address":"1407 N Main St","location":{"type":"Point","coordinates":[-90.628468019574,34.5408474554379]},"isApproved":true,"items":[],"keys":["Breakfast & Brunch","Diners","American (Traditional)"],"lastUpdated":1547527612356,"name":"Waffle House","phone":"(870) 734-3533","price":"$","reviewCount":13,"reviewScore":3,"meta":{"revision":0,"created":1547531151428,"version":0},"$loki":32},{"_id":"5c3d65bd3525a329e0c08dac","address":"14 Thacker Heights Rd","location":{"type":"Point","coordinates":[-90.628468019574,34.5408474554379]},"isApproved":true,"items":[],"keys":["Caribbean"],"lastUpdated":1547527612437,"name":"Sky 9 Interactive Studios","phone":"(662) 234-2449","price":"","reviewCount":1,"reviewScore":5,"meta":{"revision":0,"created":1547531151428,"version":0},"$loki":33},{"_id":"5c3d65bd3525a329e0c18d11","address":"2533 W Jackson Ave","location":{"type":"Point","coordinates":[-90.6210652,34.5385507]},"isApproved":true,"items":[],"keys":["Seafood","Fast Food","American (Traditional)"],"lastUpdated":1547527612825,"name":"Captain D’s","phone":"(662) 234-7347","price":"$","reviewCount":5,"reviewScore":4,"meta":{"revision":0,"created":1547531151428,"version":0},"$loki":34},{"_id":"5c3d65bd3525a329e0c01997","address":"1012 Jackson Ave E","location":{"type":"Point","coordinates":[-90.638165,34.5380684]},"isApproved":true,"items":[],"keys":["Pizza"],"lastUpdated":1547527612257,"name":"Funkys Pizza and Daiquiri Bar","phone":"(662) 259-2881","price":"$$","reviewCount":8,"reviewScore":4,"meta":{"revision":0,"created":1547531151428,"version":0},"$loki":35},{"_id":"5c3d65bd3525a329e0c14333","address":"421 W Chestnut St","location":{"type":"Point","coordinates":[-90.638165,34.5380684]},"isApproved":true,"items":[],"keys":["Chicken Wings","Pizza","Sandwiches"],"lastUpdated":1547527612714,"name":"Domino’s Pizza","phone":"(870) 298-2468","price":"","reviewCount":1,"reviewScore":1,"meta":{"revision":0,"created":1547531151428,"version":0},"$loki":36},{"_id":"5c3d65bd3525a329e0c17ac5","address":"1124 Fox Island Rd","location":{"type":"Point","coordinates":[-90.461112,34.70972]},"isApproved":true,"items":[],"keys":["American (Traditional)","Dive Bars"],"lastUpdated":1547527612799,"name":"Levee Commissary","phone":"(662) 363-2408","price":"$","reviewCount":6,"reviewScore":5,"meta":{"revision":0,"created":1547531151428,"version":0},"$loki":37},{"_id":"5c3d65bd3525a329e0c0343e","address":"185 House Carlson Dr","location":{"type":"Point","coordinates":[-90.5852660536205,34.5268204734001]},"isApproved":true,"items":[],"keys":["Burgers"],"lastUpdated":1547527612302,"name":"Back Yard Burgers","phone":"(662) 561-0600","price":"$","reviewCount":5,"reviewScore":3,"meta":{"revision":0,"created":1547531151428,"version":0},"$loki":38},{"_id":"5c3d65bd3525a329e0c0dea1","address":"218 County Rd 517","location":{"type":"Point","coordinates":[-90.5870146259031,34.5275678787059]},"isApproved":true,"items":[],"keys":["American (Traditional)","Southern","Sandwiches"],"lastUpdated":1547527612564,"name":"Holiday Lodge Restaurant","phone":"(662) 526-5392","price":"$","reviewCount":5,"reviewScore":3.5,"meta":{"revision":0,"created":1547531151428,"version":0},"$loki":39},{"_id":"5c3d65bd3525a329e0c14894","address":"1051 Martin Luther King Dr","location":{"type":"Point","coordinates":[-90.5863618,34.5246614]},"isApproved":true,"items":[],"keys":["Burgers","Fast Food","Ice Cream & Frozen Yogurt"],"lastUpdated":1547527612727,"name":"Bumpers Drive In","phone":"(662) 326-3822","price":"$","reviewCount":1,"reviewScore":5,"meta":{"revision":0,"created":1547531151428,"version":0},"$loki":40}],"idIndex":[1,2,3,4,5,6,7,8,9,10,11,12,13,14,15,16,17,18,19,20,21,22,23,24,25,26,27,28,29,30,31,32,33,34,35,36,37,38,39,40],"binaryIndices":{},"constraints":null,"uniqueNames":[],"transforms":{},"objType":"restaurants","dirty":true,"cachedIndex":null,"cachedBinaryIndex":null,"cachedData":null,"adaptiveBinaryIndices":true,"transactional":false,"cloneObjects":false,"cloneMethod":"parse-stringify","asyncListeners":false,"disableMeta":false,"disableChangesApi":true,"disableDeltaChangesApi":true,"autoupdate":false,"serializableIndices":true,"ttl":null,"maxId":40,"DynamicViews":[],"events":{"insert":[],"update":[],"pre-insert":[],"pre-update":[],"close":[],"flushbuffer":[],"error":[],"delete":[null],"warning":[null]},"changes":[]}],"databaseVersion":1.5,"engineVersion":1.5,"autosave":false,"autosaveInterval":5000,"autosaveHandle":null,"throttledSaves":true,"options":{"serializationMethod":"normal","destructureDelimiter":"$<\n"},"persistenceMethod":"fs","persistenceAdapter":null,"verbose":false,"events":{"init":[null],"loaded":[],"flushChanges":[],"close":[],"changes":[],"warning":[]},"ENV":"NODEJS"}