{"filename":"-91-37.25","collections":[{"name":"restaurants","data":[{"_id":"5c3d65bd3525a329e0c17b7d","address":"113 Stewarts Dr","location":{"type":"Point","coordinates":[-91.357387,37.155669]},"isApproved":true,"items":[],"keys":["Mexican"],"lastUpdated":1547527612799,"name":"Dos Rios Mexican Grill","phone":"(573) 226-1376","price":"$","reviewCount":12,"reviewScore":3,"meta":{"revision":0,"created":1547531148096,"version":0},"$loki":1},{"_id":"5c3d65bd3525a329e0c18988","address":"102 Stewart Dr","location":{"type":"Point","coordinates":[-91.3574694,37.1555169]},"isApproved":true,"items":[],"keys":["Barbeque"],"lastUpdated":1547527612823,"name":"Cowboy Dean’s BBQ & Grill","phone":"(573) 226-1229","price":"$","reviewCount":1,"reviewScore":4,"meta":{"revision":0,"created":1547531148096,"version":0},"$loki":2},{"_id":"5c3d65bd3525a329e0c19445","address":"Storys Creek Rd","location":{"type":"Point","coordinates":[-91.3572434917078,37.1518872731129]},"isApproved":true,"items":[],"keys":["Bars","American (Traditional)"],"lastUpdated":1547527612840,"name":"Salty Jack’s Bar & Grill","phone":"(573) 226-3005","price":"$","reviewCount":5,"reviewScore":3,"meta":{"revision":0,"created":1547531148096,"version":0},"$loki":3},{"_id":"5c3d65bd3525a329e0c17dcf","address":"Hc 1 Box 17","location":{"type":"Point","coordinates":[-91.357635,37.1506044]},"isApproved":true,"items":[],"keys":["Steakhouses"],"lastUpdated":1547527612801,"name":"R S Steak House & Aguila Lodge","phone":"(573) 226-5665","price":"","reviewCount":2,"reviewScore":1,"meta":{"revision":0,"created":1547531148096,"version":0},"$loki":4},{"_id":"5c3d65bd3525a329e0c109b2","address":"18462 Main St","location":{"type":"Point","coordinates":[-91.3574924,37.1474882]},"isApproved":true,"items":[],"keys":["Breakfast & Brunch"],"lastUpdated":1547527612626,"name":"Martin’s","phone":"","price":"","reviewCount":1,"reviewScore":4,"meta":{"revision":0,"created":1547531148096,"version":0},"$loki":5},{"_id":"5c3d65bd3525a329e0c0b6ce","address":"408 S Main","location":{"type":"Point","coordinates":[-91.3577529,37.147508]},"isApproved":true,"items":[],"keys":["Breakfast & Brunch"],"lastUpdated":1547527612500,"name":"Ruby’s T & T Family Restaurant","phone":"(573) 226-3878","price":"$$","reviewCount":11,"reviewScore":2.5,"meta":{"revision":0,"created":1547531148096,"version":0},"$loki":6},{"_id":"5c3d65bd3525a329e0c197ba","address":"219 N Main St","location":{"type":"Point","coordinates":[-91.3578207045794,37.1466355833241]},"isApproved":true,"items":[],"keys":["American (Traditional)","Pubs"],"lastUpdated":1547527612841,"name":"Margie’s Place","phone":"(573) 226-5570","price":"$","reviewCount":9,"reviewScore":4,"meta":{"revision":0,"created":1547531148096,"version":0},"$loki":7},{"_id":"5c3d65bd3525a329e0c187c6","address":"118 North Main St","location":{"type":"Point","coordinates":[-91.3577726,37.1476783]},"isApproved":true,"items":[],"keys":["American (Traditional)"],"lastUpdated":1547527612821,"name":"Ozark Orchard","phone":"(573) 226-3604","price":"$","reviewCount":6,"reviewScore":3.5,"meta":{"revision":0,"created":1547531148096,"version":0},"$loki":8},{"_id":"5c3d65bd3525a329e0c135eb","address":"390 S Main St","location":{"type":"Point","coordinates":[-90.9702710062265,37.237497526363]},"isApproved":true,"items":[],"keys":["Italian","Pizza","Sandwiches"],"lastUpdated":1547527612696,"name":"Saso’s Pizza","phone":"(573) 663-2585","price":"$","reviewCount":3,"reviewScore":4.5,"meta":{"revision":0,"created":1547531148096,"version":0},"$loki":9},{"_id":"5c3d65bd3525a329e0c1a869","address":"1005 Walnut St","location":{"type":"Point","coordinates":[-90.969241,37.2416059]},"isApproved":true,"items":[],"keys":["Southern"],"lastUpdated":1547527612867,"name":"Merci Café","phone":"(573) 663-3533","price":"","reviewCount":1,"reviewScore":4,"meta":{"revision":0,"created":1547531148096,"version":0},"$loki":10},{"_id":"5c3d65bd3525a329e0c1b47e","address":"570 N 2nd St","location":{"type":"Point","coordinates":[-90.966593362391,37.2451213123045]},"isApproved":true,"items":[],"keys":["Mexican"],"lastUpdated":1547527612885,"name":"Checos Mexican","phone":"(573) 663-2466","price":"$","reviewCount":11,"reviewScore":5,"meta":{"revision":0,"created":1547531148096,"version":0},"$loki":11},{"_id":"5c3d65bd3525a329e0c058cf","address":"CR 360 and Hwy HH","location":{"type":"Point","coordinates":[-90.761278,37.133669]},"isApproved":true,"items":[],"keys":["Sporting Goods","American (Traditional)"],"lastUpdated":1547527612354,"name":"Clearwater Lake Store","phone":"(573) 223-4813","price":"","reviewCount":2,"reviewScore":4.5,"meta":{"revision":0,"created":1547531148096,"version":0},"$loki":12},{"_id":"5c3d65bd3525a329e0c0c72b","address":"907 N Main St","location":{"type":"Point","coordinates":[-90.690416718712,37.1611644430257]},"isApproved":true,"items":[],"keys":["American (Traditional)"],"lastUpdated":1547527612525,"name":"Zephyr Restaurant","phone":"(573) 223-7119","price":"$$","reviewCount":9,"reviewScore":3.5,"meta":{"revision":0,"created":1547531148096,"version":0},"$loki":13},{"_id":"5c3d65bd3525a329e0c190e6","address":"1019 N Main St","location":{"type":"Point","coordinates":[-90.6899365225447,37.1625089352003]},"isApproved":true,"items":[],"keys":["American (New)","Barbeque","Breakfast & Brunch"],"lastUpdated":1547527612832,"name":"Front Porch Grill","phone":"(573) 223-2424","price":"$$","reviewCount":2,"reviewScore":3.5,"meta":{"revision":0,"created":1547531148096,"version":0},"$loki":14},{"_id":"5c3d65bd3525a329e0c0514a","address":"119 E Fir St","location":{"type":"Point","coordinates":[-90.6952243552608,37.1541936984934]},"isApproved":true,"items":[],"keys":["Barbeque"],"lastUpdated":1547527612340,"name":"Hercules Southern BBQ","phone":"(573) 223-3654","price":"","reviewCount":3,"reviewScore":5,"meta":{"revision":0,"created":1547531148096,"version":0},"$loki":15},{"_id":"5c3d65bd3525a329e0c0d2b0","address":"303 S Main St","location":{"type":"Point","coordinates":[-90.6976017,37.15298]},"isApproved":true,"items":[],"keys":["Fast Food","Sandwiches"],"lastUpdated":1547527612545,"name":"Subway","phone":"(573) 223-7350","price":"","reviewCount":4,"reviewScore":4.5,"meta":{"revision":0,"created":1547531148096,"version":0},"$loki":16},{"_id":"5c3d65bd3525a329e0c17c72","address":"127 W Elm St","location":{"type":"Point","coordinates":[-90.6970566,37.1538153]},"isApproved":true,"items":[],"keys":["Steakhouses"],"lastUpdated":1547527612800,"name":"Junior’s Steakhouse","phone":"(573) 223-2007","price":"","reviewCount":1,"reviewScore":4,"meta":{"revision":0,"created":1547531148096,"version":0},"$loki":17},{"_id":"5c3d65bd3525a329e0c09b81","address":"1020 S Main St","location":{"type":"Point","coordinates":[-90.7000763621318,37.1451231183415]},"isApproved":true,"items":[],"keys":["Burgers","Fast Food","Coffee & Tea"],"lastUpdated":1547527612464,"name":"McDonald’s","phone":"(573) 223-7484","price":"","reviewCount":3,"reviewScore":4,"meta":{"revision":0,"created":1547531148096,"version":0},"$loki":18},{"_id":"5c3d65bd3525a329e0c077e8","address":"1104 S Main St","location":{"type":"Point","coordinates":[-90.7002902,37.1444024]},"isApproved":true,"items":[],"keys":["Pizza"],"lastUpdated":1547527612408,"name":"Casey’s Carry Out Pizza","phone":"(573) 223-2740","price":"","reviewCount":1,"reviewScore":5,"meta":{"revision":0,"created":1547531148096,"version":0},"$loki":19},{"_id":"5c3d65bd3525a329e0c09dce","address":"4000 RR 4","location":{"type":"Point","coordinates":[-90.700805,37.141636]},"isApproved":true,"items":[],"keys":["Diners","Breakfast & Brunch","Ice Cream & Frozen Yogurt"],"lastUpdated":1547527612471,"name":"Gooch’s Drive In","phone":"(573) 223-4581","price":"","reviewCount":1,"reviewScore":5,"meta":{"revision":0,"created":1547531148096,"version":0},"$loki":20},{"_id":"5c3d65bd3525a329e0c08259","address":"693 Highway Aa","location":{"type":"Point","coordinates":[-90.6974069,37.172642]},"isApproved":true,"items":[],"keys":["Pizza"],"lastUpdated":1547527612420,"name":"Murphy’s Pizza","phone":"(573) 223-2624","price":"$$","reviewCount":3,"reviewScore":4,"meta":{"revision":0,"created":1547531148096,"version":0},"$loki":21},{"_id":"5c3d65bd3525a329e0bfff3b","address":"216 Piedmont Ave","location":{"type":"Point","coordinates":[-90.6852071980301,37.166905569639]},"isApproved":true,"items":[],"keys":["Mexican"],"lastUpdated":1547527612223,"name":"Tequilas Mexican Restaurant","phone":"(573) 223-2075","price":"","reviewCount":3,"reviewScore":5,"meta":{"revision":0,"created":1547531148096,"version":0},"$loki":22}],"idIndex":[1,2,3,4,5,6,7,8,9,10,11,12,13,14,15,16,17,18,19,20,21,22],"binaryIndices":{},"constraints":null,"uniqueNames":[],"transforms":{},"objType":"restaurants","dirty":true,"cachedIndex":null,"cachedBinaryIndex":null,"cachedData":null,"adaptiveBinaryIndices":true,"transactional":false,"cloneObjects":false,"cloneMethod":"parse-stringify","asyncListeners":false,"disableMeta":false,"disableChangesApi":true,"disableDeltaChangesApi":true,"autoupdate":false,"serializableIndices":true,"ttl":null,"maxId":22,"DynamicViews":[],"events":{"insert":[],"update":[],"pre-insert":[],"pre-update":[],"close":[],"flushbuffer":[],"error":[],"delete":[null],"warning":[null]},"changes":[]}],"databaseVersion":1.5,"engineVersion":1.5,"autosave":false,"autosaveInterval":5000,"autosaveHandle":null,"throttledSaves":true,"options":{"serializationMethod":"normal","destructureDelimiter":"$<\n"},"persistenceMethod":"fs","persistenceAdapter":null,"verbose":false,"events":{"init":[null],"loaded":[],"flushChanges":[],"close":[],"changes":[],"warning":[]},"ENV":"NODEJS"}