{"filename":"-91.75-40.75","collections":[{"name":"restaurants","data":[{"_id":"5c3d65bd3525a329e0c0fae2","address":"1123 24th St","location":{"type":"Point","coordinates":[-91.9618382,40.7307787]},"isApproved":true,"items":[],"keys":["Pizza","Italian","Chicken Wings"],"lastUpdated":1547527612601,"name":"Pizza Hut","phone":"(319) 372-3636","price":"$","reviewCount":6,"reviewScore":3.5,"meta":{"revision":0,"created":1547531148177,"version":0},"$loki":1},{"_id":"5c3d65bd3525a329e0c1862d","address":"1035 Lawrence Ave","location":{"type":"Point","coordinates":[-91.9627361,40.7299176]},"isApproved":true,"items":[],"keys":["Mexican"],"lastUpdated":1547527612815,"name":"Pancheros Mexican Grill","phone":"(319) 752-7660","price":"$","reviewCount":9,"reviewScore":2.5,"meta":{"revision":0,"created":1547531148177,"version":0},"$loki":2},{"_id":"5c3d65bd3525a329e0c0fd03","address":"719 1st St","location":{"type":"Point","coordinates":[-91.9622203,40.7295092]},"isApproved":true,"items":[],"keys":["American (New)","Burgers","Pizza"],"lastUpdated":1547527612608,"name":"First St Grille","phone":"(319) 293-6462","price":"","reviewCount":6,"reviewScore":4,"meta":{"revision":0,"created":1547531148177,"version":0},"$loki":3},{"_id":"5c3d65bd3525a329e0c00cb5","address":"500 Jefferson St","location":{"type":"Point","coordinates":[-91.4530222,40.7164493]},"isApproved":true,"items":[],"keys":["Breweries","American (Traditional)"],"lastUpdated":1547527612231,"name":"Bent River Brewing","phone":"(319) 209-2773","price":"$$$","reviewCount":23,"reviewScore":3.5,"meta":{"revision":0,"created":1547531148177,"version":0},"$loki":4},{"_id":"5c3d65bd3525a329e0c04781","address":"2750 Mt Pleasant St","location":{"type":"Point","coordinates":[-91.4487954,40.7160271]},"isApproved":true,"items":[],"keys":["Barbeque","Salad","Sandwiches"],"lastUpdated":1547527612329,"name":"Billy Sim’s BBQ","phone":"(319) 209-2501","price":"$$","reviewCount":9,"reviewScore":4.5,"meta":{"revision":0,"created":1547531148177,"version":0},"$loki":5},{"_id":"5c3d65bd3525a329e0c0f444","address":"2016 S Main St","location":{"type":"Point","coordinates":[-91.613835,40.751848]},"isApproved":true,"items":[],"keys":["American (Traditional)","Sports Bars","Beer Gardens"],"lastUpdated":1547527612592,"name":"The Buffalo Tavern","phone":"(319) 754-4338","price":"$$","reviewCount":30,"reviewScore":4,"meta":{"revision":0,"created":1547531148177,"version":0},"$loki":6},{"_id":"5c3d65bd3525a329e0c132b7","address":"550 S Gear Ave","location":{"type":"Point","coordinates":[-91.7444136,40.6410296]},"isApproved":true,"items":[],"keys":["Chinese"],"lastUpdated":1547527612689,"name":"China House","phone":"(319) 753-9977","price":"","reviewCount":3,"reviewScore":5,"meta":{"revision":0,"created":1547531148177,"version":0},"$loki":7},{"_id":"5c3d65bd3525a329e0c00604","address":"Highway 96 E","location":{"type":"Point","coordinates":[-91.8043175,40.6979868]},"isApproved":true,"items":[],"keys":["Supper Clubs"],"lastUpdated":1547527612227,"name":"Riverview Supper Club","phone":"(217) 852-3241","price":"","reviewCount":1,"reviewScore":5,"meta":{"revision":0,"created":1547531148177,"version":0},"$loki":8},{"_id":"5c3d65bd3525a329e0c101af","address":"2505 Mount Pleasant St","location":{"type":"Point","coordinates":[-91.394482,40.626175]},"isApproved":true,"items":[],"keys":["American (Traditional)","Bars"],"lastUpdated":1547527612610,"name":"The Outpost Bar & Grill","phone":"(319) 209-2088","price":"","reviewCount":1,"reviewScore":5,"meta":{"revision":0,"created":1547531148177,"version":0},"$loki":9},{"_id":"5c3d65bd3525a329e0c16aa0","address":"1226 37th St","location":{"type":"Point","coordinates":[-91.3912098,40.6246319]},"isApproved":true,"items":[],"keys":["Mexican"],"lastUpdated":1547527612773,"name":"Vel’s Amigo’s","phone":"(319) 372-7058","price":"$","reviewCount":18,"reviewScore":3,"meta":{"revision":0,"created":1547531148177,"version":0},"$loki":10},{"_id":"5c3d65bd3525a329e0c0f8ec","address":"1201 Derek Lincoln Dr","location":{"type":"Point","coordinates":[-91.3798231,40.6236574]},"isApproved":true,"items":[],"keys":["Steakhouses"],"lastUpdated":1547527612600,"name":"Uncle Ronnies","phone":"(319) 752-7765","price":"$$","reviewCount":28,"reviewScore":4,"meta":{"revision":0,"created":1547531148177,"version":0},"$loki":11},{"_id":"5c3d65bd3525a329e0c13d8a","address":"111 Broadway St","location":{"type":"Point","coordinates":[-91.375918,40.6237433]},"isApproved":true,"items":[],"keys":["American (New)","Burgers","Pizza"],"lastUpdated":1547527612706,"name":"The Broadway","phone":"(319) 752-8577","price":"$","reviewCount":19,"reviewScore":3.5,"meta":{"revision":0,"created":1547531148177,"version":0},"$loki":12},{"_id":"5c3d65bd3525a329e0c037cb","address":"337 N Roosevelt Ave","location":{"type":"Point","coordinates":[-91.3742005,40.6257646]},"isApproved":true,"items":[],"keys":["Italian"],"lastUpdated":1547527612304,"name":"The Italian","phone":"(319) 752-4500","price":"$$","reviewCount":11,"reviewScore":4,"meta":{"revision":0,"created":1547531148177,"version":0},"$loki":13},{"_id":"5c3d65bd3525a329e0c12f5f","address":"4920 Ave O","location":{"type":"Point","coordinates":[-91.3600735,40.6253187]},"isApproved":true,"items":[],"keys":["Salad","Steakhouses","Barbeque"],"lastUpdated":1547527612687,"name":"Palms Supper Club","phone":"(319) 246-1419","price":"$$","reviewCount":16,"reviewScore":3,"meta":{"revision":0,"created":1547531148177,"version":0},"$loki":14}],"idIndex":[1,2,3,4,5,6,7,8,9,10,11,12,13,14],"binaryIndices":{},"constraints":null,"uniqueNames":[],"transforms":{},"objType":"restaurants","dirty":true,"cachedIndex":null,"cachedBinaryIndex":null,"cachedData":null,"adaptiveBinaryIndices":true,"transactional":false,"cloneObjects":false,"cloneMethod":"parse-stringify","asyncListeners":false,"disableMeta":false,"disableChangesApi":true,"disableDeltaChangesApi":true,"autoupdate":false,"serializableIndices":true,"ttl":null,"maxId":14,"DynamicViews":[],"events":{"insert":[],"update":[],"pre-insert":[],"pre-update":[],"close":[],"flushbuffer":[],"error":[],"delete":[null],"warning":[null]},"changes":[]}],"databaseVersion":1.5,"engineVersion":1.5,"autosave":false,"autosaveInterval":5000,"autosaveHandle":null,"throttledSaves":true,"options":{"serializationMethod":"normal","destructureDelimiter":"$<\n"},"persistenceMethod":"fs","persistenceAdapter":null,"verbose":false,"events":{"init":[null],"loaded":[],"flushChanges":[],"close":[],"changes":[],"warning":[]},"ENV":"NODEJS"}