{"filename":"-92-30.5","collections":[{"name":"restaurants","data":[{"_id":"5c3d65bd3525a329e0c0a7ee","address":"24442 Hwy 190","location":{"type":"Point","coordinates":[-91.7616845820313,30.5380115828484]},"isApproved":true,"items":[],"keys":["Diners"],"lastUpdated":1547527612482,"name":"Morrow’s Diner","phone":"(337) 566-3737","price":"","reviewCount":2,"reviewScore":5,"meta":{"revision":0,"created":1547531150821,"version":0},"$loki":1},{"_id":"5c3d65bd3525a329e0c13788","address":"24562 Hwy 190","location":{"type":"Point","coordinates":[-91.765338328125,30.5333387269883]},"isApproved":true,"items":[],"keys":["Cajun/Creole"],"lastUpdated":1547527612697,"name":"Kartchner’s Grocery & Specialty Meats","phone":"(337) 566-0529","price":"$","reviewCount":19,"reviewScore":5,"meta":{"revision":0,"created":1547531150821,"version":0},"$loki":2},{"_id":"5c3d65bd3525a329e0c114bd","address":"24399 Hwy 190","location":{"type":"Point","coordinates":[-91.762715,30.540564]},"isApproved":true,"items":[],"keys":["Bars","American (Traditional)"],"lastUpdated":1547527612643,"name":"White Tails Bar & Grill","phone":"(337) 566-2800","price":"$$","reviewCount":16,"reviewScore":4.5,"meta":{"revision":0,"created":1547531150821,"version":0},"$loki":3},{"_id":"5c3d65bd3525a329e0c171ff","address":"24386 Highway 190","location":{"type":"Point","coordinates":[-91.7617332,30.5404183]},"isApproved":true,"items":[],"keys":["Cajun/Creole"],"lastUpdated":1547527612783,"name":"Cajun Corner Cafe","phone":"(337) 566-8003","price":"","reviewCount":1,"reviewScore":5,"meta":{"revision":0,"created":1547531150821,"version":0},"$loki":4},{"_id":"5c3d65bd3525a329e0c0021e","address":"24467 Hwy 190","location":{"type":"Point","coordinates":[-91.760392,30.541925]},"isApproved":true,"items":[],"keys":["Cajun/Creole"],"lastUpdated":1547527612225,"name":"Billy’s Diner","phone":"(337) 566-2080","price":"$","reviewCount":44,"reviewScore":4.5,"meta":{"revision":0,"created":1547531150821,"version":0},"$loki":5},{"_id":"5c3d65bd3525a329e0c0631a","address":"8389 US Hwy 190","location":{"type":"Point","coordinates":[-91.7569857090712,30.5425858785552]},"isApproved":true,"items":[],"keys":["Delis","Sandwiches","Grocery"],"lastUpdated":1547527612369,"name":"Soprano’s Supermarket","phone":"(225) 637-4812","price":"$","reviewCount":2,"reviewScore":4.5,"meta":{"revision":0,"created":1547531150821,"version":0},"$loki":6},{"_id":"5c3d65bd3525a329e0c0cd35","address":"5741 Essen Ln","location":{"type":"Point","coordinates":[-91.929273,30.403557]},"isApproved":true,"items":[],"keys":["Sushi Bars","Japanese"],"lastUpdated":1547527612534,"name":"Ichiban Sushi Bar & Japanese Grill","phone":"(225) 767-2288","price":"$$","reviewCount":219,"reviewScore":3.5,"meta":{"revision":0,"created":1547531150821,"version":0},"$loki":7},{"_id":"5c3d65bd3525a329e0c155d8","address":"5647 Main St","location":{"type":"Point","coordinates":[-91.9306517,30.3951393]},"isApproved":true,"items":[],"keys":["Mexican"],"lastUpdated":1547527612746,"name":"El Agave","phone":"(225) 570-2451","price":"$$","reviewCount":38,"reviewScore":4,"meta":{"revision":0,"created":1547531150821,"version":0},"$loki":8},{"_id":"5c3d65bd3525a329e0c0175c","address":"4542 Bennington Ave","location":{"type":"Point","coordinates":[-91.931255,30.39764]},"isApproved":true,"items":[],"keys":["Italian"],"lastUpdated":1547527612250,"name":"Gino’s","phone":"(225) 927-7156","price":"$$$","reviewCount":96,"reviewScore":4,"meta":{"revision":0,"created":1547531150821,"version":0},"$loki":9},{"_id":"5c3d65bd3525a329e0c09f00","address":"4327 High St","location":{"type":"Point","coordinates":[-91.9322677036886,30.3973218433549]},"isApproved":true,"items":[],"keys":["Comfort Food"],"lastUpdated":1547527612472,"name":"Taylor Made Concessions","phone":"(225) 286-5744","price":"","reviewCount":2,"reviewScore":4,"meta":{"revision":0,"created":1547531150821,"version":0},"$loki":10},{"_id":"5c3d65bd3525a329e0c053a6","address":"9255 Florida Blvd","location":{"type":"Point","coordinates":[-91.9319881,30.398045]},"isApproved":true,"items":[],"keys":["Seafood","Food Trucks","Vietnamese"],"lastUpdated":1547527612346,"name":"Casian Kitchen Food Truck","phone":"(225) 421-9903","price":"","reviewCount":1,"reviewScore":5,"meta":{"revision":0,"created":1547531150821,"version":0},"$loki":11},{"_id":"5c3d65bd3525a329e0c157e6","address":"15550 George Oneal","location":{"type":"Point","coordinates":[-92.052862,30.418522]},"isApproved":true,"items":[],"keys":["Breakfast & Brunch","Diners","American (Traditional)"],"lastUpdated":1547527612747,"name":"Waffle House","phone":"(225) 247-3646","price":"","reviewCount":2,"reviewScore":4.5,"meta":{"revision":0,"created":1547531150821,"version":0},"$loki":12},{"_id":"5c3d65bd3525a329e0c03403","address":"2531 Citiplace Ct","location":{"type":"Point","coordinates":[-92.0524292540716,30.4159793670179]},"isApproved":true,"items":[],"keys":["Delis","Salad","Sandwiches"],"lastUpdated":1547527612302,"name":"Jason’s Deli","phone":"(225) 926-7788","price":"$","reviewCount":37,"reviewScore":4,"meta":{"revision":0,"created":1547531150821,"version":0},"$loki":13},{"_id":"5c3d65bd3525a329e0c06757","address":"1750 Brightside Dr","location":{"type":"Point","coordinates":[-92.001078,30.546919]},"isApproved":true,"items":[],"keys":["Sandwiches","Delis","Salad"],"lastUpdated":1547527612378,"name":"Inga’s Subs and Salads","phone":"(225) 769-3042","price":"$","reviewCount":16,"reviewScore":4.5,"meta":{"revision":0,"created":1547531150821,"version":0},"$loki":14},{"_id":"5c3d65bd3525a329e0c0762d","address":"28600 Walker S Rd","location":{"type":"Point","coordinates":[-91.966774,30.546259]},"isApproved":true,"items":[],"keys":["Mediterranean","Greek","Lebanese"],"lastUpdated":1547527612401,"name":"Albasha’s Greek & Lebanese","phone":"(225) 667-1122","price":"$$","reviewCount":29,"reviewScore":4.5,"meta":{"revision":0,"created":1547531150821,"version":0},"$loki":15},{"_id":"5c3d65bd3525a329e0c075d4","address":"4250 Burbank Dr","location":{"type":"Point","coordinates":[-91.964547,30.5478035]},"isApproved":true,"items":[],"keys":["Pizza","Bars","Sandwiches"],"lastUpdated":1547527612401,"name":"Mellow Mushroom","phone":"(225) 490-6355","price":"$$","reviewCount":77,"reviewScore":4,"meta":{"revision":0,"created":1547531150821,"version":0},"$loki":16}],"idIndex":[1,2,3,4,5,6,7,8,9,10,11,12,13,14,15,16],"binaryIndices":{},"constraints":null,"uniqueNames":[],"transforms":{},"objType":"restaurants","dirty":true,"cachedIndex":null,"cachedBinaryIndex":null,"cachedData":null,"adaptiveBinaryIndices":true,"transactional":false,"cloneObjects":false,"cloneMethod":"parse-stringify","asyncListeners":false,"disableMeta":false,"disableChangesApi":true,"disableDeltaChangesApi":true,"autoupdate":false,"serializableIndices":true,"ttl":null,"maxId":16,"DynamicViews":[],"events":{"insert":[],"update":[],"pre-insert":[],"pre-update":[],"close":[],"flushbuffer":[],"error":[],"delete":[null],"warning":[null]},"changes":[]}],"databaseVersion":1.5,"engineVersion":1.5,"autosave":false,"autosaveInterval":5000,"autosaveHandle":null,"throttledSaves":true,"options":{"serializationMethod":"normal","destructureDelimiter":"$<\n"},"persistenceMethod":"fs","persistenceAdapter":null,"verbose":false,"events":{"init":[null],"loaded":[],"flushChanges":[],"close":[],"changes":[],"warning":[]},"ENV":"NODEJS"}