{"filename":"-92.75-41","collections":[{"name":"restaurants","data":[{"_id":"5c3d65bd3525a329e0c1659f","address":"2441 Northgate Dr","location":{"type":"Point","coordinates":[-92.4116876962512,41.049635448606]},"isApproved":true,"items":[],"keys":["Burgers","Fast Food","Coffee & Tea"],"lastUpdated":1547527612765,"name":"McDonald’s","phone":"(641) 682-6345","price":"$","reviewCount":2,"reviewScore":2.5,"meta":{"revision":0,"created":1547531147702,"version":0},"$loki":1},{"_id":"5c3d65bd3525a329e0c08e80","address":"2455 Northgate St","location":{"type":"Point","coordinates":[-92.4111589,41.0502329]},"isApproved":true,"items":[],"keys":["Fast Food","Sandwiches"],"lastUpdated":1547527612438,"name":"Subway","phone":"(641) 683-9000","price":"$","reviewCount":4,"reviewScore":3.5,"meta":{"revision":0,"created":1547531147702,"version":0},"$loki":2},{"_id":"5c3d65bd3525a329e0c11384","address":"2645 Northgate","location":{"type":"Point","coordinates":[-92.4111837,41.0505276]},"isApproved":true,"items":[],"keys":["Steakhouses","American (Traditional)","Buffets"],"lastUpdated":1547527612642,"name":"Sirloin Stockade","phone":"(641) 682-8731","price":"$$","reviewCount":17,"reviewScore":2,"meta":{"revision":0,"created":1547531147702,"version":0},"$loki":3},{"_id":"5c3d65bd3525a329e0c18e32","address":"2511 N Court St","location":{"type":"Point","coordinates":[-92.4088134765625,41.0510749816895]},"isApproved":true,"items":[],"keys":["Sports Bars","Burgers"],"lastUpdated":1547527612831,"name":"Courtside Bar & Grill","phone":"(641) 226-5002","price":"$","reviewCount":17,"reviewScore":3.5,"meta":{"revision":0,"created":1547531147702,"version":0},"$loki":4},{"_id":"5c3d65bd3525a329e0c1939f","address":"2513 Northgate St","location":{"type":"Point","coordinates":[-92.4109837805006,41.0509634152889]},"isApproved":true,"items":[],"keys":["Sports Bars","Burgers","American (Traditional)"],"lastUpdated":1547527612839,"name":"Saints Pub + Patio","phone":"(641) 684-2141","price":"$$","reviewCount":16,"reviewScore":3,"meta":{"revision":0,"created":1547531147702,"version":0},"$loki":5},{"_id":"5c3d65bd3525a329e0bff835","address":"2804 N Court Rd","location":{"type":"Point","coordinates":[-92.4094609,41.0600185]},"isApproved":true,"items":[],"keys":["Mexican"],"lastUpdated":1547527612218,"name":"El Potro","phone":"","price":"$$","reviewCount":3,"reviewScore":2.5,"meta":{"revision":0,"created":1547531147702,"version":0},"$loki":6},{"_id":"5c3d65bd3525a329e0c12834","address":"102 W Main St","location":{"type":"Point","coordinates":[-92.4818507,40.7989233]},"isApproved":true,"items":[],"keys":["American (Traditional)","Bars"],"lastUpdated":1547527612678,"name":"Ray’s Longbranch","phone":"(641) 722-3355","price":"","reviewCount":3,"reviewScore":4.5,"meta":{"revision":0,"created":1547531147702,"version":0},"$loki":7},{"_id":"5c3d65bd3525a329e0c18aa2","address":"215 Market St","location":{"type":"Point","coordinates":[-92.5277159,41.0861051]},"isApproved":true,"items":[],"keys":["American (Traditional)"],"lastUpdated":1547527612823,"name":"The Barnyard","phone":"(641) 935-2020","price":"$","reviewCount":2,"reviewScore":3,"meta":{"revision":0,"created":1547531147702,"version":0},"$loki":8},{"_id":"5c3d65bd3525a329e0c0704f","address":"1807 Highway 5","location":{"type":"Point","coordinates":[-92.9068813,41.1354944]},"isApproved":true,"items":[],"keys":["Pizza"],"lastUpdated":1547527612389,"name":"Casey’s Carry Out Pizza","phone":"(641) 946-7233","price":"","reviewCount":1,"reviewScore":1,"meta":{"revision":0,"created":1547531147702,"version":0},"$loki":9},{"_id":"5c3d65bd3525a329e0c0508d","address":"1908 Highway 5 S","location":{"type":"Point","coordinates":[-92.907306,41.136707]},"isApproved":true,"items":[],"keys":["Bars","American (Traditional)"],"lastUpdated":1547527612340,"name":"North End Tap","phone":"(641) 946-7722","price":"","reviewCount":1,"reviewScore":5,"meta":{"revision":0,"created":1547531147702,"version":0},"$loki":10},{"_id":"5c3d65bd3525a329e0c1817e","address":"717 N 18th St","location":{"type":"Point","coordinates":[-92.8671795,40.7398636]},"isApproved":true,"items":[],"keys":["Chinese"],"lastUpdated":1547527612809,"name":"Rainbow Chinese Restaurant","phone":"(641) 856-5388","price":"","reviewCount":2,"reviewScore":4,"meta":{"revision":0,"created":1547531147702,"version":0},"$loki":11},{"_id":"5c3d65bd3525a329e0c09d2a","address":"609 N 18th St","location":{"type":"Point","coordinates":[-92.8663611,40.737629]},"isApproved":true,"items":[],"keys":["Bakeries","Grocery","Caterers","Delis"],"lastUpdated":1547527612465,"name":"Hy-Vee Dollar Fresh","phone":"(641) 856-3277","price":"","reviewCount":1,"reviewScore":5,"meta":{"revision":0,"created":1547531147702,"version":0},"$loki":12},{"_id":"5c3d65bd3525a329e0c101ee","address":"115 N 18th St","location":{"type":"Point","coordinates":[-92.867516,40.733086]},"isApproved":true,"items":[],"keys":["Mexican"],"lastUpdated":1547527612610,"name":"Fiesta Mexican Restaurant","phone":"(641) 856-2722","price":"","reviewCount":1,"reviewScore":5,"meta":{"revision":0,"created":1547531147702,"version":0},"$loki":13},{"_id":"5c3d65bd3525a329e0c08f3c","address":"306 E Maple","location":{"type":"Point","coordinates":[-92.8719,40.7323]},"isApproved":true,"items":[],"keys":["Fast Food","Chicken Wings","Chicken Shop"],"lastUpdated":1547527612438,"name":"KFC","phone":"(641) 856-2110","price":"","reviewCount":1,"reviewScore":1,"meta":{"revision":0,"created":1547531147702,"version":0},"$loki":14},{"_id":"5c3d65bd3525a329e0c14ccb","address":"217 E State St","location":{"type":"Point","coordinates":[-92.8725772,40.7343693]},"isApproved":true,"items":[],"keys":["Chinese"],"lastUpdated":1547527612729,"name":"Ching Dow Restaurant","phone":"(641) 437-4962","price":"","reviewCount":2,"reviewScore":4.5,"meta":{"revision":0,"created":1547531147702,"version":0},"$loki":15},{"_id":"5c3d65bd3525a329e0c0fc90","address":"314 W State St","location":{"type":"Point","coordinates":[-92.8761436,40.7338654]},"isApproved":true,"items":[],"keys":["Hotels","Bed & Breakfast","Restaurants"],"lastUpdated":1547527612607,"name":"One of A Kind","phone":"(641) 437-4540","price":"","reviewCount":2,"reviewScore":5,"meta":{"revision":0,"created":1547531147702,"version":0},"$loki":16},{"_id":"5c3d65bd3525a329e0c0aabc","address":"111 E Van Buren St","location":{"type":"Point","coordinates":[-92.8736685,40.7350939]},"isApproved":true,"items":[],"keys":["Diners"],"lastUpdated":1547527612489,"name":"North Side Diner","phone":"(641) 216-0106","price":"","reviewCount":1,"reviewScore":5,"meta":{"revision":0,"created":1547531147702,"version":0},"$loki":17},{"_id":"5c3d65bd3525a329e0c078ba","address":"107 E Van Buren St","location":{"type":"Point","coordinates":[-92.8738027,40.7350965]},"isApproved":true,"items":[],"keys":["Pizza","Steakhouses"],"lastUpdated":1547527612408,"name":"George & Nick’s Pizza & Steakhouse","phone":"(641) 856-6000","price":"$","reviewCount":12,"reviewScore":4,"meta":{"revision":0,"created":1547531147702,"version":0},"$loki":18},{"_id":"5c3d65bd3525a329e0c172b7","address":"217 N 13th St","location":{"type":"Point","coordinates":[-92.8731844441803,40.7339987097886]},"isApproved":true,"items":[],"keys":["Bars","Breakfast & Brunch","Steakhouses"],"lastUpdated":1547527612783,"name":"Lucile’s Steaks & Spirits","phone":"(641) 437-1025","price":"$$","reviewCount":15,"reviewScore":4,"meta":{"revision":0,"created":1547531147702,"version":0},"$loki":19},{"_id":"5c3d65bd3525a329e0c16009","address":"207 N 13th St","location":{"type":"Point","coordinates":[-92.8730839,40.7337633]},"isApproved":true,"items":[],"keys":["American (Traditional)"],"lastUpdated":1547527612756,"name":"The Garage","phone":"(641) 437-4144","price":"","reviewCount":10,"reviewScore":3.5,"meta":{"revision":0,"created":1547531147702,"version":0},"$loki":20},{"_id":"5c3d65bd3525a329e0c1b02d","address":"1000 N 18th St","location":{"type":"Point","coordinates":[-92.8688577,40.7422141]},"isApproved":true,"items":[],"keys":["Fast Food","Burgers","Coffee & Tea"],"lastUpdated":1547527612876,"name":"McDonald’s","phone":"(641) 437-4354","price":"","reviewCount":1,"reviewScore":4,"meta":{"revision":0,"created":1547531147702,"version":0},"$loki":21},{"_id":"5c3d65bd3525a329e0c0899b","address":"1012 N 18th St","location":{"type":"Point","coordinates":[-92.8684265,40.7430764]},"isApproved":true,"items":[],"keys":["Pizza","Italian","Chicken Wings"],"lastUpdated":1547527612429,"name":"Pizza Hut","phone":"(641) 856-8614","price":"","reviewCount":4,"reviewScore":2.5,"meta":{"revision":0,"created":1547531147702,"version":0},"$loki":22},{"_id":"5c3d65bd3525a329e0c19f7f","address":"2214 S 11th St","location":{"type":"Point","coordinates":[-92.630683,41.2757028]},"isApproved":true,"items":[],"keys":["American (New)","Sports Bars"],"lastUpdated":1547527612851,"name":"Wood Iron Grille","phone":"(641) 676-3322","price":"","reviewCount":3,"reviewScore":4.5,"meta":{"revision":0,"created":1547531147702,"version":0},"$loki":23}],"idIndex":[1,2,3,4,5,6,7,8,9,10,11,12,13,14,15,16,17,18,19,20,21,22,23],"binaryIndices":{},"constraints":null,"uniqueNames":[],"transforms":{},"objType":"restaurants","dirty":true,"cachedIndex":null,"cachedBinaryIndex":null,"cachedData":null,"adaptiveBinaryIndices":true,"transactional":false,"cloneObjects":false,"cloneMethod":"parse-stringify","asyncListeners":false,"disableMeta":false,"disableChangesApi":true,"disableDeltaChangesApi":true,"autoupdate":false,"serializableIndices":true,"ttl":null,"maxId":23,"DynamicViews":[],"events":{"insert":[],"update":[],"pre-insert":[],"pre-update":[],"close":[],"flushbuffer":[],"error":[],"delete":[null],"warning":[null]},"changes":[]}],"databaseVersion":1.5,"engineVersion":1.5,"autosave":false,"autosaveInterval":5000,"autosaveHandle":null,"throttledSaves":true,"options":{"serializationMethod":"normal","destructureDelimiter":"$<\n"},"persistenceMethod":"fs","persistenceAdapter":null,"verbose":false,"events":{"init":[null],"loaded":[],"flushChanges":[],"close":[],"changes":[],"warning":[]},"ENV":"NODEJS"}