{"filename":"-92.5-35.5","collections":[{"name":"restaurants","data":[{"_id":"5c3d65bd3525a329e0c0b7bf","address":"415 E Walnut St","location":{"type":"Point","coordinates":[-92.4526274016059,35.574096756276]},"isApproved":true,"items":[],"keys":["Fast Food","Sandwiches"],"lastUpdated":1547527612505,"name":"Subway","phone":"(479) 963-3349","price":"","reviewCount":2,"reviewScore":2,"meta":{"revision":0,"created":1547531152847,"version":0},"$loki":1},{"_id":"5c3d65bd3525a329e0c1a4e1","address":"I-40 Highway 64 W","location":{"type":"Point","coordinates":[-92.4524954,35.5739762]},"isApproved":true,"items":[],"keys":["Convenience Stores","Pizza"],"lastUpdated":1547527612859,"name":"Exxon Tiger Mart","phone":"(479) 754-6222","price":"","reviewCount":1,"reviewScore":3,"meta":{"revision":0,"created":1547531152847,"version":0},"$loki":2},{"_id":"5c3d65bd3525a329e0c0a3f6","address":"19965 E State Highway 22","location":{"type":"Point","coordinates":[-92.4510395,35.5767887]},"isApproved":true,"items":[],"keys":["American (Traditional)"],"lastUpdated":1547527612480,"name":"Dinner Bucket","phone":"(479) 938-7034","price":"$","reviewCount":1,"reviewScore":2,"meta":{"revision":0,"created":1547531152847,"version":0},"$loki":3},{"_id":"5c3d65bd3525a329e0bff9b1","address":"1205 N El Paso Ave","location":{"type":"Point","coordinates":[-92.4425225816035,35.5285552144594]},"isApproved":true,"items":[],"keys":["Restaurants"],"lastUpdated":1547527612219,"name":"Williamson Dining Room, Ark Tech university","phone":"","price":"","reviewCount":1,"reviewScore":5,"meta":{"revision":0,"created":1547531152847,"version":0},"$loki":4},{"_id":"5c3d65bd3525a329e0c176c8","address":"3095 E Main St","location":{"type":"Point","coordinates":[-92.4427433,35.5348846]},"isApproved":true,"items":[],"keys":["Fast Food"],"lastUpdated":1547527612791,"name":"Hardee’s","phone":"(479) 890-6226","price":"$","reviewCount":3,"reviewScore":1.5,"meta":{"revision":0,"created":1547531152847,"version":0},"$loki":5},{"_id":"5c3d65bd3525a329e0c1589e","address":"294 S Broadview","location":{"type":"Point","coordinates":[-92.3911976,35.1924948]},"isApproved":true,"items":[],"keys":["American (New)","American (Traditional)"],"lastUpdated":1547527612747,"name":"Laddie Daddys Hillbilly Kitchen","phone":"(501) 277-9213","price":"$$","reviewCount":6,"reviewScore":5,"meta":{"revision":0,"created":1547531152847,"version":0},"$loki":6},{"_id":"5c3d65bd3525a329e0c05fcf","address":"140 John Harden Dr","location":{"type":"Point","coordinates":[-92.3878224,35.2131806]},"isApproved":true,"items":[],"keys":["Juice Bars & Smoothies","Sandwiches"],"lastUpdated":1547527612368,"name":"Tropical Smoothie Cafe","phone":"(501) 241-2233","price":"$$","reviewCount":5,"reviewScore":3.5,"meta":{"revision":0,"created":1547531152847,"version":0},"$loki":7},{"_id":"5c3d65bd3525a329e0c10cbc","address":"3096 Bill Foster Memorial Hwy","location":{"type":"Point","coordinates":[-92.3879767,35.2159734]},"isApproved":true,"items":[],"keys":["Barbeque"],"lastUpdated":1547527612633,"name":"The Mean Pig BBQ","phone":"(501) 941-5489","price":"$","reviewCount":64,"reviewScore":3.5,"meta":{"revision":0,"created":1547531152847,"version":0},"$loki":8},{"_id":"5c3d65bd3525a329e0c046df","address":"716 Oak St","location":{"type":"Point","coordinates":[-92.3886899,35.2245331]},"isApproved":true,"items":[],"keys":["Mexican","Tex-Mex"],"lastUpdated":1547527612329,"name":"Tacos 4 Life","phone":"(501) 358-6005","price":"$","reviewCount":102,"reviewScore":4.5,"meta":{"revision":0,"created":1547531152847,"version":0},"$loki":9},{"_id":"5c3d65bd3525a329e0c0ddcb","address":"1020 Front St","location":{"type":"Point","coordinates":[-92.3894618,35.2278427]},"isApproved":true,"items":[],"keys":["American (New)","Music Venues","Lounges"],"lastUpdated":1547527612563,"name":"Kings","phone":"(501) 205-8512","price":"$$","reviewCount":14,"reviewScore":4.5,"meta":{"revision":0,"created":1547531152847,"version":0},"$loki":10},{"_id":"5c3d65bd3525a329e0c0256a","address":"12406 Hwy 5","location":{"type":"Point","coordinates":[-92.3876489,35.2294656]},"isApproved":true,"items":[],"keys":["Mexican"],"lastUpdated":1547527612278,"name":"Mi Ranchito","phone":"(501) 843-9255","price":"$","reviewCount":17,"reviewScore":3.5,"meta":{"revision":0,"created":1547531152847,"version":0},"$loki":11},{"_id":"5c3d65bd3525a329e0c0a7d9","address":"102 Savannah Dr","location":{"type":"Point","coordinates":[-92.3885643723338,35.2286737195989]},"isApproved":true,"items":[],"keys":["Mexican","Fast Food","Tex-Mex"],"lastUpdated":1547527612481,"name":"Taco Bueno","phone":"(501) 851-4464","price":"$","reviewCount":12,"reviewScore":3,"meta":{"revision":0,"created":1547531152847,"version":0},"$loki":12},{"_id":"5c3d65bd3525a329e0c0f2af","address":"57 S Broadview St","location":{"type":"Point","coordinates":[-92.388608,35.227182]},"isApproved":true,"items":[],"keys":["Mexican"],"lastUpdated":1547527612591,"name":"La Rosita","phone":"(501) 679-7640","price":"$","reviewCount":5,"reviewScore":3,"meta":{"revision":0,"created":1547531152847,"version":0},"$loki":13},{"_id":"5c3d65bd3525a329e0c16cd7","address":"582 Highway 365","location":{"type":"Point","coordinates":[-92.3875042,35.2302085]},"isApproved":true,"items":[],"keys":["Fast Food","Sandwiches"],"lastUpdated":1547527612774,"name":"Subway","phone":"(501) 470-7484","price":"","reviewCount":1,"reviewScore":5,"meta":{"revision":0,"created":1547531152847,"version":0},"$loki":14},{"_id":"5c3d65bd3525a329e0c183da","address":"120 Oak St","location":{"type":"Point","coordinates":[-92.3876,35.239]},"isApproved":true,"items":[],"keys":["Steakhouses","Seafood","American (Traditional)"],"lastUpdated":1547527612814,"name":"Colton’s Steakhouse & Grill","phone":"(501) 329-6454","price":"$$","reviewCount":22,"reviewScore":3,"meta":{"revision":0,"created":1547531152847,"version":0},"$loki":15},{"_id":"5c3d65bd3525a329e0c01bbc","address":"105 N Broadview St","location":{"type":"Point","coordinates":[-92.3880346,35.2491891]},"isApproved":true,"items":[],"keys":["American (Traditional)"],"lastUpdated":1547527612258,"name":"Ropers Restaurant","phone":"(501) 679-0675","price":"$","reviewCount":6,"reviewScore":4,"meta":{"revision":0,"created":1547531152847,"version":0},"$loki":16},{"_id":"5c3d65bd3525a329e0c0f259","address":"235 Farris Rd","location":{"type":"Point","coordinates":[-92.3878326,35.2600082]},"isApproved":true,"items":[],"keys":["Pizza","Sandwiches","Bars"],"lastUpdated":1547527612591,"name":"Bears Den Pizza","phone":"(501) 328-5556","price":"$","reviewCount":15,"reviewScore":3.5,"meta":{"revision":0,"created":1547531152847,"version":0},"$loki":17}],"idIndex":[1,2,3,4,5,6,7,8,9,10,11,12,13,14,15,16,17],"binaryIndices":{},"constraints":null,"uniqueNames":[],"transforms":{},"objType":"restaurants","dirty":true,"cachedIndex":null,"cachedBinaryIndex":null,"cachedData":null,"adaptiveBinaryIndices":true,"transactional":false,"cloneObjects":false,"cloneMethod":"parse-stringify","asyncListeners":false,"disableMeta":false,"disableChangesApi":true,"disableDeltaChangesApi":true,"autoupdate":false,"serializableIndices":true,"ttl":null,"maxId":17,"DynamicViews":[],"events":{"insert":[],"update":[],"pre-insert":[],"pre-update":[],"close":[],"flushbuffer":[],"error":[],"delete":[null],"warning":[null]},"changes":[]}],"databaseVersion":1.5,"engineVersion":1.5,"autosave":false,"autosaveInterval":5000,"autosaveHandle":null,"throttledSaves":true,"options":{"serializationMethod":"normal","destructureDelimiter":"$<\n"},"persistenceMethod":"fs","persistenceAdapter":null,"verbose":false,"events":{"init":[null],"loaded":[],"flushChanges":[],"close":[],"changes":[],"warning":[]},"ENV":"NODEJS"}