{"filename":"-92.75-41.5","collections":[{"name":"restaurants","data":[{"_id":"5c3d65bd3525a329e0c140fe","address":"1450 SW Vintage Pkwy","location":{"type":"Point","coordinates":[-93.103399,41.517034]},"isApproved":true,"items":[],"keys":["Mediterranean"],"lastUpdated":1547527612707,"name":"Flavory Bistro","phone":"(515) 443-7272","price":"$$","reviewCount":85,"reviewScore":4.5,"meta":{"revision":0,"created":1547531149528,"version":0},"$loki":1},{"_id":"5c3d65bd3525a329e0c06a73","address":"120 S Jordan Creek Pkwy","location":{"type":"Point","coordinates":[-92.9073389,41.7159229]},"isApproved":true,"items":[],"keys":["Italian","Wine Bars"],"lastUpdated":1547527612379,"name":"Bravo! Cucina Italiana","phone":"(515) 225-0660","price":"$$","reviewCount":97,"reviewScore":3.5,"meta":{"revision":0,"created":1547531149528,"version":0},"$loki":2},{"_id":"5c3d65bd3525a329e0c02b55","address":"655 Walnut St","location":{"type":"Point","coordinates":[-92.9066942,41.7161336]},"isApproved":true,"items":[],"keys":["Delis"],"lastUpdated":1547527612286,"name":"Palmer’s Deli & Market","phone":"","price":"$","reviewCount":21,"reviewScore":4,"meta":{"revision":0,"created":1547531149528,"version":0},"$loki":3},{"_id":"5c3d65bd3525a329e0c15fb7","address":"2667 86th St","location":{"type":"Point","coordinates":[-92.9012356,41.6843475]},"isApproved":true,"items":[],"keys":["Greek","Burgers","Fast Food"],"lastUpdated":1547527612756,"name":"Teds Coney Island West","phone":"(515) 276-2558","price":"$","reviewCount":34,"reviewScore":4,"meta":{"revision":0,"created":1547531149528,"version":0},"$loki":4},{"_id":"5c3d65bd3525a329e0c17f04","address":"3600 SE Crossroads Dr","location":{"type":"Point","coordinates":[-92.9012356,41.6843475]},"isApproved":true,"items":[],"keys":["Vietnamese","Asian Fusion"],"lastUpdated":1547527612802,"name":"Sassy Souk’s Asian Cuisine & PHO","phone":"(515) 300-9521","price":"","reviewCount":13,"reviewScore":4.5,"meta":{"revision":0,"created":1547531149528,"version":0},"$loki":5},{"_id":"5c3d65bd3525a329e0c083e5","address":"203 1st St","location":{"type":"Point","coordinates":[-92.7819706,41.5778491]},"isApproved":true,"items":[],"keys":["Barbeque"],"lastUpdated":1547527612421,"name":"Lynnville’s Smokin’ J’s BBQ","phone":"(641) 527-3760","price":"","reviewCount":1,"reviewScore":5,"meta":{"revision":0,"created":1547531149528,"version":0},"$loki":6},{"_id":"5c3d65bd3525a329e0c0a1b0","address":"8801 Hickman Rd","location":{"type":"Point","coordinates":[-92.846561,41.577966]},"isApproved":true,"items":[],"keys":["Mexican","Seafood"],"lastUpdated":1547527612473,"name":"El Barco","phone":"(515) 276-0162","price":"$$","reviewCount":59,"reviewScore":4.5,"meta":{"revision":0,"created":1547531149528,"version":0},"$loki":7},{"_id":"5c3d65bd3525a329e0c0ae7f","address":"220 E Hickman","location":{"type":"Point","coordinates":[-93.013858,41.696729]},"isApproved":true,"items":[],"keys":["Ice Cream & Frozen Yogurt","Fast Food"],"lastUpdated":1547527612491,"name":"Dairy Queen Grill & Chill","phone":"(515) 987-7801","price":"$","reviewCount":12,"reviewScore":4,"meta":{"revision":0,"created":1547531149528,"version":0},"$loki":8},{"_id":"5c3d65bd3525a329e0c19c2b","address":"11406 Forest Ave","location":{"type":"Point","coordinates":[-92.9982040822506,41.6805205983171]},"isApproved":true,"items":[],"keys":["Fast Food","Chicken Wings"],"lastUpdated":1547527612850,"name":"KFC","phone":"(515) 218-7206","price":"$","reviewCount":4,"reviewScore":3.5,"meta":{"revision":0,"created":1547531149528,"version":0},"$loki":9},{"_id":"5c3d65bd3525a329e0c148f4","address":"1501 1st Ave E","location":{"type":"Point","coordinates":[-93.0334978275814,41.6981474571965]},"isApproved":true,"items":[],"keys":["American (New)","Breakfast & Brunch"],"lastUpdated":1547527612727,"name":"Hy-Vee Market Cafe","phone":"(641) 792-0473","price":"","reviewCount":3,"reviewScore":3.5,"meta":{"revision":0,"created":1547531149528,"version":0},"$loki":10},{"_id":"5c3d65bd3525a329e0c1ab34","address":"2564 Hubbell Ave","location":{"type":"Point","coordinates":[-93.0352839,41.6988794]},"isApproved":true,"items":[],"keys":["Pizza","Italian","Chicken Wings"],"lastUpdated":1547527612868,"name":"Pizza Hut","phone":"(515) 262-1000","price":"$","reviewCount":3,"reviewScore":3.5,"meta":{"revision":0,"created":1547531149528,"version":0},"$loki":11},{"_id":"5c3d65bd3525a329e0c16963","address":"7 N Walnut St","location":{"type":"Point","coordinates":[-93.0269937,41.699494]},"isApproved":true,"items":[],"keys":["Mexican"],"lastUpdated":1547527612772,"name":"Cocina Hernandez","phone":"(515) 674-9110","price":"$","reviewCount":8,"reviewScore":3.5,"meta":{"revision":0,"created":1547531149528,"version":0},"$loki":12},{"_id":"5c3d65bd3525a329e0c027da","address":"2020 1st Ave E","location":{"type":"Point","coordinates":[-93.0261335,41.6994311]},"isApproved":true,"items":[],"keys":["Pizza","American (Traditional)","Salad"],"lastUpdated":1547527612285,"name":"Giovanni’s Pizza","phone":"(641) 792-2023","price":"$$","reviewCount":12,"reviewScore":4,"meta":{"revision":0,"created":1547531149528,"version":0},"$loki":13},{"_id":"5c3d65bd3525a329e0c0866c","address":"7238 University Ave","location":{"type":"Point","coordinates":[-93.0249443650246,41.69955663344]},"isApproved":true,"items":[],"keys":["Salad","Chicken Wings","Pizza"],"lastUpdated":1547527612427,"name":"Marco’s Pizza","phone":"(515) 274-9166","price":"","reviewCount":12,"reviewScore":4,"meta":{"revision":0,"created":1547531149528,"version":0},"$loki":14},{"_id":"5c3d65bd3525a329e0c0e1f2","address":"2617 1st Ave E","location":{"type":"Point","coordinates":[-93.021322,41.698405]},"isApproved":true,"items":[],"keys":["Mexican"],"lastUpdated":1547527612565,"name":"La Cabana Mexican Restaurant","phone":"(641) 791-1932","price":"$$","reviewCount":27,"reviewScore":3.5,"meta":{"revision":0,"created":1547531149528,"version":0},"$loki":15},{"_id":"5c3d65bd3525a329e0c02e2c","address":"2426 1st Ave E","location":{"type":"Point","coordinates":[-93.0214416,41.6995542]},"isApproved":true,"items":[],"keys":["Comfort Food","Breakfast & Brunch","American (Traditional)"],"lastUpdated":1547527612294,"name":"Newton Family Restaurant","phone":"(641) 792-1367","price":"$","reviewCount":9,"reviewScore":4,"meta":{"revision":0,"created":1547531149528,"version":0},"$loki":16},{"_id":"5c3d65bd3525a329e0c111b5","address":"120 1st St N","location":{"type":"Point","coordinates":[-93.0535253958768,41.7003061040639]},"isApproved":true,"items":[],"keys":["Coffee & Tea","Breakfast & Brunch","American (Traditional)"],"lastUpdated":1547527612641,"name":"Midtown Cafe","phone":"(641) 792-7277","price":"$","reviewCount":11,"reviewScore":4.5,"meta":{"revision":0,"created":1547531149528,"version":0},"$loki":17},{"_id":"5c3d65bd3525a329e0c0aad2","address":"114 N 2nd Ave W","location":{"type":"Point","coordinates":[-93.0543139,41.700768]},"isApproved":true,"items":[],"keys":["Coffee & Tea","Salad","Sandwiches"],"lastUpdated":1547527612489,"name":"Uncle Nancy’s Coffee House & Eatery","phone":"(641) 787-9709","price":"$","reviewCount":14,"reviewScore":4.5,"meta":{"revision":0,"created":1547531149528,"version":0},"$loki":18},{"_id":"5c3d65bd3525a329e0c026a1","address":"309 1st Ave W","location":{"type":"Point","coordinates":[-93.056608,41.699241]},"isApproved":true,"items":[],"keys":["Tea Rooms","Bakeries","Cafes"],"lastUpdated":1547527612284,"name":"The Lemon Tree Tea House & Restaurant","phone":"(641) 792-2970","price":"$$","reviewCount":5,"reviewScore":4,"meta":{"revision":0,"created":1547531149528,"version":0},"$loki":19},{"_id":"5c3d65bd3525a329e0c0892c","address":"321 S 2nd Ave W","location":{"type":"Point","coordinates":[-93.057136,41.698289]},"isApproved":true,"items":[],"keys":["Ice Cream & Frozen Yogurt","Hot Dogs","Sandwiches"],"lastUpdated":1547527612429,"name":"Cardinal Corner","phone":"(641) 792-8143","price":"$","reviewCount":4,"reviewScore":5,"meta":{"revision":0,"created":1547531149528,"version":0},"$loki":20},{"_id":"5c3d65bd3525a329e0c1895f","address":"103 W 2nd St N","location":{"type":"Point","coordinates":[-93.0552234,41.6997046]},"isApproved":true,"items":[],"keys":["Tex-Mex","Mexican"],"lastUpdated":1547527612823,"name":"Burrito Torpedo","phone":"(641) 275-9149","price":"$","reviewCount":4,"reviewScore":2,"meta":{"revision":0,"created":1547531149528,"version":0},"$loki":21},{"_id":"5c3d65bd3525a329e0c1347f","address":"455 S 64th St","location":{"type":"Point","coordinates":[-93.0548544,41.7001897]},"isApproved":true,"items":[],"keys":["Burgers","Fast Food"],"lastUpdated":1547527612690,"name":"Five Guys","phone":"(515) 207-4485","price":"$$","reviewCount":76,"reviewScore":3,"meta":{"revision":0,"created":1547531149528,"version":0},"$loki":22},{"_id":"5c3d65bd3525a329e0c147ba","address":"106 1st St N","location":{"type":"Point","coordinates":[-93.0533162,41.699764]},"isApproved":true,"items":[],"keys":["Chinese"],"lastUpdated":1547527612721,"name":"Panda Garden Buffet","phone":"(641) 792-3388","price":"$$","reviewCount":13,"reviewScore":4,"meta":{"revision":0,"created":1547531149528,"version":0},"$loki":23},{"_id":"5c3d65bd3525a329e0c01b14","address":"101 1st Ave E","location":{"type":"Point","coordinates":[-93.053308,41.699264]},"isApproved":true,"items":[],"keys":["Delis"],"lastUpdated":1547527612258,"name":"Pj’s Deli","phone":"(641) 792-0845","price":"$","reviewCount":9,"reviewScore":4,"meta":{"revision":0,"created":1547531149528,"version":0},"$loki":24},{"_id":"5c3d65bd3525a329e0c054ca","address":"2150 E Army Post Rd","location":{"type":"Point","coordinates":[-93.0520839,41.6993495]},"isApproved":true,"items":[],"keys":["Pizza"],"lastUpdated":1547527612347,"name":"Casey’s Carry Out Pizza","phone":"(515) 953-4381","price":"","reviewCount":1,"reviewScore":4,"meta":{"revision":0,"created":1547531149528,"version":0},"$loki":25},{"_id":"5c3d65bd3525a329e0c06395","address":"2639 Adventureland Dr","location":{"type":"Point","coordinates":[-93.0449838,41.6990124]},"isApproved":true,"items":[],"keys":["Fast Food","Chicken Wings","Chicken Shop"],"lastUpdated":1547527612369,"name":"KFC","phone":"(515) 967-6682","price":"","reviewCount":9,"reviewScore":2.5,"meta":{"revision":0,"created":1547531149528,"version":0},"$loki":26},{"_id":"5c3d65bd3525a329e0c1a021","address":"6555 Mills Civic Pkwy","location":{"type":"Point","coordinates":[-93.0446197092533,41.6997028269772]},"isApproved":true,"items":[],"keys":["Fast Food"],"lastUpdated":1547527612857,"name":"Chick-fil-A","phone":"(515) 223-6113","price":"$","reviewCount":27,"reviewScore":4.5,"meta":{"revision":0,"created":1547531149528,"version":0},"$loki":27},{"_id":"5c3d65bd3525a329e0c13d95","address":"1130 1st Ave E","location":{"type":"Point","coordinates":[-93.0381546020508,41.6993713378906]},"isApproved":true,"items":[],"keys":["Mexican"],"lastUpdated":1547527612706,"name":"El Sombrero","phone":"(641) 792-1325","price":"$$","reviewCount":10,"reviewScore":3,"meta":{"revision":0,"created":1547531149528,"version":0},"$loki":28},{"_id":"5c3d65bd3525a329e0c0d3f4","address":"1400 W 18th St S","location":{"type":"Point","coordinates":[-93.0761799,41.6867639]},"isApproved":true,"items":[],"keys":["Steakhouses","Salad","American (Traditional)"],"lastUpdated":1547527612546,"name":"Montana Mike’s","phone":"(641) 792-4582","price":"$$","reviewCount":37,"reviewScore":3,"meta":{"revision":0,"created":1547531149528,"version":0},"$loki":29},{"_id":"5c3d65bd3525a329e0c18b5f","address":"1500 W 18th St S","location":{"type":"Point","coordinates":[-93.0761223,41.6862854]},"isApproved":true,"items":[],"keys":["Pizza","Buffets"],"lastUpdated":1547527612824,"name":"Pizza Ranch","phone":"(641) 792-3447","price":"$$","reviewCount":10,"reviewScore":3.5,"meta":{"revision":0,"created":1547531149528,"version":0},"$loki":30},{"_id":"5c3d65bd3525a329e0c0e70b","address":"524 Elm St","location":{"type":"Point","coordinates":[-93.0765,41.6874]},"isApproved":true,"items":[],"keys":["Restaurants"],"lastUpdated":1547527612574,"name":"Paula’s Cafe","phone":"(515) 277-3404","price":"","reviewCount":3,"reviewScore":3.5,"meta":{"revision":0,"created":1547531149528,"version":0},"$loki":31},{"_id":"5c3d65bd3525a329e0c1492b","address":"4804 SW 9th St","location":{"type":"Point","coordinates":[-93.07672,41.68736]},"isApproved":true,"items":[],"keys":["Chinese"],"lastUpdated":1547527612727,"name":"China One","phone":"(515) 237-0022","price":"","reviewCount":5,"reviewScore":1.5,"meta":{"revision":0,"created":1547531149528,"version":0},"$loki":32},{"_id":"5c3d65bd3525a329e0c09757","address":"1615 SW Main St","location":{"type":"Point","coordinates":[-93.0788581,41.6881695]},"isApproved":true,"items":[],"keys":["Filipino","Pakistani"],"lastUpdated":1547527612461,"name":"Lola’s Fine Kitchen","phone":"(515) 289-9302","price":"","reviewCount":36,"reviewScore":4.5,"meta":{"revision":0,"created":1547531149528,"version":0},"$loki":33},{"_id":"5c3d65bd3525a329e0c1a8b7","address":"8744 Northpark Dr","location":{"type":"Point","coordinates":[-93.0784021317959,41.6864198878548]},"isApproved":true,"items":[],"keys":["Steakhouses","Barbeque","American (Traditional)"],"lastUpdated":1547527612867,"name":"Texas Roadhouse","phone":"(515) 251-4597","price":"$$","reviewCount":106,"reviewScore":3.5,"meta":{"revision":0,"created":1547531149528,"version":0},"$loki":34},{"_id":"5c3d65bd3525a329e0c11593","address":"1650 W 19th St S","location":{"type":"Point","coordinates":[-93.0785571,41.6848204]},"isApproved":true,"items":[],"keys":["Ice Cream & Frozen Yogurt","Burgers","Fast Food"],"lastUpdated":1547527612649,"name":"Culver’s","phone":"(641) 787-9900","price":"$","reviewCount":11,"reviewScore":3.5,"meta":{"revision":0,"created":1547531149528,"version":0},"$loki":35},{"_id":"5c3d65bd3525a329e0c12667","address":"4050 Merle Hay Rd","location":{"type":"Point","coordinates":[-92.6507647,41.4686135]},"isApproved":true,"items":[],"keys":["Pizza","Salad","Burgers"],"lastUpdated":1547527612671,"name":"F & O’s - Felix and Oscar’s","phone":"(515) 278-8887","price":"$$","reviewCount":98,"reviewScore":3.5,"meta":{"revision":0,"created":1547531149528,"version":0},"$loki":36},{"_id":"5c3d65bd3525a329e0c0c8f7","address":"5030 NE 14th St","location":{"type":"Point","coordinates":[-92.6510944,41.4686645]},"isApproved":true,"items":[],"keys":["Restaurants"],"lastUpdated":1547527612526,"name":"Country Kitchen","phone":"(515) 262-9802","price":"","reviewCount":1,"reviewScore":5,"meta":{"revision":0,"created":1547531149528,"version":0},"$loki":37},{"_id":"5c3d65bd3525a329e0c09f3c","address":"2540 E University Ave","location":{"type":"Point","coordinates":[-92.652088,41.468242]},"isApproved":true,"items":[],"keys":["Burgers","Fast Food","Coffee & Tea"],"lastUpdated":1547527612472,"name":"McDonald’s","phone":"(515) 261-3555","price":"$$","reviewCount":8,"reviewScore":2,"meta":{"revision":0,"created":1547531149528,"version":0},"$loki":38},{"_id":"5c3d65bd3525a329e0c19f7f","address":"2214 S 11th St","location":{"type":"Point","coordinates":[-92.630683,41.2757028]},"isApproved":true,"items":[],"keys":["American (New)","Sports Bars"],"lastUpdated":1547527612851,"name":"Wood Iron Grille","phone":"(641) 676-3322","price":"","reviewCount":3,"reviewScore":4.5,"meta":{"revision":0,"created":1547531149528,"version":0},"$loki":39},{"_id":"5c3d65bd3525a329e0c0c1c6","address":"201 SE Oralabor Rd","location":{"type":"Point","coordinates":[-92.5837027,41.5787606]},"isApproved":true,"items":[],"keys":["Pizza","Buffets"],"lastUpdated":1547527612517,"name":"Pizza Ranch","phone":"(515) 964-9990","price":"$$","reviewCount":17,"reviewScore":4,"meta":{"revision":0,"created":1547531149528,"version":0},"$loki":40},{"_id":"5c3d65bd3525a329e0c0298e","address":"1405 Walnut St","location":{"type":"Point","coordinates":[-92.7282813995818,41.7226335760356]},"isApproved":true,"items":[],"keys":["American (Traditional)","Beer Bar","Sandwiches"],"lastUpdated":1547527612285,"name":"Twisted Corn Tavern","phone":"(515) 992-3868","price":"$","reviewCount":8,"reviewScore":3,"meta":{"revision":0,"created":1547531149528,"version":0},"$loki":41},{"_id":"5c3d65bd3525a329e0c1952b","address":"5585 Mills Civic Pkwy","location":{"type":"Point","coordinates":[-92.7281645,41.7214432]},"isApproved":true,"items":[],"keys":["Juice Bars & Smoothies","Breakfast & Brunch","American (Traditional)"],"lastUpdated":1547527612840,"name":"Get Fit Grill","phone":"(515) 225-6976","price":"$$","reviewCount":40,"reviewScore":4,"meta":{"revision":0,"created":1547531149528,"version":0},"$loki":42},{"_id":"5c3d65bd3525a329e0c09aef","address":"2110 W St S","location":{"type":"Point","coordinates":[-92.726185,41.702228]},"isApproved":true,"items":[],"keys":["Steakhouses","Bars"],"lastUpdated":1547527612464,"name":"Grinnell Steakhouse","phone":"(641) 236-0555","price":"$$","reviewCount":35,"reviewScore":3.5,"meta":{"revision":0,"created":1547531149528,"version":0},"$loki":43}],"idIndex":[1,2,3,4,5,6,7,8,9,10,11,12,13,14,15,16,17,18,19,20,21,22,23,24,25,26,27,28,29,30,31,32,33,34,35,36,37,38,39,40,41,42,43],"binaryIndices":{},"constraints":null,"uniqueNames":[],"transforms":{},"objType":"restaurants","dirty":true,"cachedIndex":null,"cachedBinaryIndex":null,"cachedData":null,"adaptiveBinaryIndices":true,"transactional":false,"cloneObjects":false,"cloneMethod":"parse-stringify","asyncListeners":false,"disableMeta":false,"disableChangesApi":true,"disableDeltaChangesApi":true,"autoupdate":false,"serializableIndices":true,"ttl":null,"maxId":43,"DynamicViews":[],"events":{"insert":[],"update":[],"pre-insert":[],"pre-update":[],"close":[],"flushbuffer":[],"error":[],"delete":[null],"warning":[null]},"changes":[]}],"databaseVersion":1.5,"engineVersion":1.5,"autosave":false,"autosaveInterval":5000,"autosaveHandle":null,"throttledSaves":true,"options":{"serializationMethod":"normal","destructureDelimiter":"$<\n"},"persistenceMethod":"fs","persistenceAdapter":null,"verbose":false,"events":{"init":[null],"loaded":[],"flushChanges":[],"close":[],"changes":[],"warning":[]},"ENV":"NODEJS"}