{"filename":"-92.75-36.5","collections":[{"name":"restaurants","data":[{"_id":"5c3d65bd3525a329e0c13161","address":"327 Hwy 62 W","location":{"type":"Point","coordinates":[-92.6887905362319,36.2263993949054]},"isApproved":true,"items":[],"keys":["Burgers","American (Traditional)"],"lastUpdated":1547527612688,"name":"Blacksheep BBQ","phone":"(870) 449-5637","price":"$$","reviewCount":23,"reviewScore":4,"meta":{"revision":0,"created":1547531149736,"version":0},"$loki":1},{"_id":"5c3d65bd3525a329e0c028d8","address":"1419 N Hwy 62-65","location":{"type":"Point","coordinates":[-92.679307,36.2260369]},"isApproved":true,"items":[],"keys":["Fast Food","Sandwiches"],"lastUpdated":1547527612285,"name":"Arby’s","phone":"(870) 743-6739","price":"$","reviewCount":4,"reviewScore":3,"meta":{"revision":0,"created":1547531149736,"version":0},"$loki":2},{"_id":"5c3d65bd3525a329e0c08099","address":"369 US 62","location":{"type":"Point","coordinates":[-92.680328,36.2255999374391]},"isApproved":true,"items":[],"keys":["Barbeque"],"lastUpdated":1547527612419,"name":"Razorback Ribs","phone":"(870) 449-7427","price":"$","reviewCount":28,"reviewScore":4.5,"meta":{"revision":0,"created":1547531149736,"version":0},"$loki":3},{"_id":"5c3d65bd3525a329e0c0719c","address":"202 Highway 62 W","location":{"type":"Point","coordinates":[-92.6826821,36.2262002]},"isApproved":true,"items":[],"keys":["Pizza","Italian"],"lastUpdated":1547527612397,"name":"Breadeaux Pizza","phone":"(870) 449-4223","price":"","reviewCount":8,"reviewScore":5,"meta":{"revision":0,"created":1547531149736,"version":0},"$loki":4},{"_id":"5c3d65bd3525a329e0c1811d","address":"408 Hwy 62 E","location":{"type":"Point","coordinates":[-92.6881281083578,36.22667410344]},"isApproved":true,"items":[],"keys":["Mexican","Breakfast & Brunch","American (Traditional)"],"lastUpdated":1547527612809,"name":"Laura’s Mexican Kitchen","phone":"(870) 449-8226","price":"$$","reviewCount":10,"reviewScore":3.5,"meta":{"revision":0,"created":1547531149736,"version":0},"$loki":5},{"_id":"5c3d65bd3525a329e0c03f06","address":"127 Madison 2645","location":{"type":"Point","coordinates":[-92.684261,36.226405]},"isApproved":true,"items":[],"keys":["Breakfast & Brunch","Cafes"],"lastUpdated":1547527612314,"name":"Waldron’s Valley Cafe","phone":"(479) 665-2277","price":"$","reviewCount":1,"reviewScore":3,"meta":{"revision":0,"created":1547531149736,"version":0},"$loki":6},{"_id":"5c3d65bd3525a329e0c1004c","address":"620 Hwy 62 65 N","location":{"type":"Point","coordinates":[-92.475267,36.28898]},"isApproved":true,"items":[],"keys":["Mexican"],"lastUpdated":1547527612610,"name":"El Charro Mexican Restaurant","phone":"(870) 741-5540","price":"","reviewCount":1,"reviewScore":1,"meta":{"revision":0,"created":1547531149736,"version":0},"$loki":7},{"_id":"5c3d65bd3525a329e0c1543c","address":"7104 Hwy 62 W","location":{"type":"Point","coordinates":[-92.475357,36.289167]},"isApproved":true,"items":[],"keys":["Seafood","Fast Food"],"lastUpdated":1547527612739,"name":"Long John Silver’s","phone":"(870) 435-6700","price":"","reviewCount":3,"reviewScore":3,"meta":{"revision":0,"created":1547531149736,"version":0},"$loki":8},{"_id":"5c3d65bd3525a329e0c0a8d9","address":"7368 Highway 62 W","location":{"type":"Point","coordinates":[-92.4805350392126,36.2880291186722]},"isApproved":true,"items":[],"keys":["Fast Food","Burgers","Ice Cream & Frozen Yogurt"],"lastUpdated":1547527612482,"name":"Sonic Drive-In","phone":"(870) 435-7070","price":"","reviewCount":1,"reviewScore":1,"meta":{"revision":0,"created":1547531149736,"version":0},"$loki":9},{"_id":"5c3d65bd3525a329e0c016dc","address":"1308 N Main St","location":{"type":"Point","coordinates":[-92.4822164,36.287172]},"isApproved":true,"items":[],"keys":["Burgers"],"lastUpdated":1547527612250,"name":"Burger King","phone":"(870) 743-6446","price":"","reviewCount":1,"reviewScore":1,"meta":{"revision":0,"created":1547531149736,"version":0},"$loki":10},{"_id":"5c3d65bd3525a329e0c15f80","address":"110 W Stephenson Ave","location":{"type":"Point","coordinates":[-92.4899977,36.2835803]},"isApproved":true,"items":[],"keys":["Hot Dogs"],"lastUpdated":1547527612756,"name":"Hot Dog Shoppe","phone":"(970) 704-9608","price":"","reviewCount":2,"reviewScore":3,"meta":{"revision":0,"created":1547531149736,"version":0},"$loki":11},{"_id":"5c3d65bd3525a329e0c03459","address":"413 E Main St","location":{"type":"Point","coordinates":[-92.4936123,36.2834841]},"isApproved":true,"items":[],"keys":["Mexican"],"lastUpdated":1547527612302,"name":"Letty’s Mexican Restaurant","phone":"(870) 435-2532","price":"$","reviewCount":24,"reviewScore":3.5,"meta":{"revision":0,"created":1547531149736,"version":0},"$loki":12},{"_id":"5c3d65bd3525a329e0c17a0b","address":"406 E Main St","location":{"type":"Point","coordinates":[-92.490757,36.283915]},"isApproved":true,"items":[],"keys":["Barbeque"],"lastUpdated":1547527612793,"name":"K T’s Smokehouse BBQ and Catering","phone":"(870) 435-5080","price":"$$","reviewCount":31,"reviewScore":4.5,"meta":{"revision":0,"created":1547531149736,"version":0},"$loki":13},{"_id":"5c3d65bd3525a329e0c1886a","address":"105 Ruthven St","location":{"type":"Point","coordinates":[-92.5406845,36.2667738]},"isApproved":true,"items":[],"keys":["American (Traditional)"],"lastUpdated":1547527612822,"name":"Warrior Cafe","phone":"(870) 435-3040","price":"$","reviewCount":3,"reviewScore":4.5,"meta":{"revision":0,"created":1547531149736,"version":0},"$loki":14},{"_id":"5c3d65bd3525a329e0c06539","address":"316 S 1st St","location":{"type":"Point","coordinates":[-92.541055,36.267314]},"isApproved":true,"items":[],"keys":["Buffets","Chinese","Japanese"],"lastUpdated":1547527612377,"name":"Great Wall restaurant","phone":"(870) 453-3338","price":"","reviewCount":3,"reviewScore":4,"meta":{"revision":0,"created":1547531149736,"version":0},"$loki":15},{"_id":"5c3d65bd3525a329e0c0f188","address":"119 E Stephenson Ave","location":{"type":"Point","coordinates":[-92.60144,36.274798]},"isApproved":true,"items":[],"keys":["Sandwiches","Desserts","Delis"],"lastUpdated":1547527612591,"name":"Kirkland’s Deli and Desserts","phone":"(870) 741-7524","price":"$","reviewCount":1,"reviewScore":5,"meta":{"revision":0,"created":1547531149736,"version":0},"$loki":16},{"_id":"5c3d65bd3525a329e0c119ee","address":"108 S 2nd St","location":{"type":"Point","coordinates":[-92.5992354394983,36.2769994504178]},"isApproved":true,"items":[],"keys":["Pizza","Burgers"],"lastUpdated":1547527612651,"name":"Parkview Pizza","phone":"(870) 453-3663","price":"$","reviewCount":20,"reviewScore":4,"meta":{"revision":0,"created":1547531149736,"version":0},"$loki":17},{"_id":"5c3d65bd3525a329e0c107d5","address":"208 E Main St","location":{"type":"Point","coordinates":[-92.5992772,36.2780251]},"isApproved":true,"items":[],"keys":["Burgers","Ice Cream & Frozen Yogurt"],"lastUpdated":1547527612619,"name":"Taylor’s Freez King","phone":"(870) 435-6744","price":"$","reviewCount":10,"reviewScore":4,"meta":{"revision":0,"created":1547531149736,"version":0},"$loki":18},{"_id":"5c3d65bd3525a329e0c02613","address":"3472 Highway 65 S","location":{"type":"Point","coordinates":[-92.5879445,36.2772250850037]},"isApproved":true,"items":[],"keys":["Burgers","Fast Food","Ice Cream & Frozen Yogurt"],"lastUpdated":1547527612284,"name":"Sonic Drive-In","phone":"(870) 365-0052","price":"","reviewCount":1,"reviewScore":4,"meta":{"revision":0,"created":1547531149736,"version":0},"$loki":19},{"_id":"5c3d65bd3525a329e0c0765a","address":"7104 US 62","location":{"type":"Point","coordinates":[-92.5851177500152,36.2777634722636]},"isApproved":true,"items":[],"keys":["Fast Food"],"lastUpdated":1547527612402,"name":"A&W Restaurant","phone":"(870) 435-6700","price":"","reviewCount":2,"reviewScore":3,"meta":{"revision":0,"created":1547531149736,"version":0},"$loki":20},{"_id":"5c3d65bd3525a329e0c19ddb","address":"8950 Hwy 7 N","location":{"type":"Point","coordinates":[-93.0143200090264,36.3133414196251]},"isApproved":true,"items":[],"keys":["Fish & Chips"],"lastUpdated":1547527612851,"name":"Rocky’s Catfish Wharf","phone":"(870) 365-0640","price":"","reviewCount":1,"reviewScore":4,"meta":{"revision":0,"created":1547531149736,"version":0},"$loki":21}],"idIndex":[1,2,3,4,5,6,7,8,9,10,11,12,13,14,15,16,17,18,19,20,21],"binaryIndices":{},"constraints":null,"uniqueNames":[],"transforms":{},"objType":"restaurants","dirty":true,"cachedIndex":null,"cachedBinaryIndex":null,"cachedData":null,"adaptiveBinaryIndices":true,"transactional":false,"cloneObjects":false,"cloneMethod":"parse-stringify","asyncListeners":false,"disableMeta":false,"disableChangesApi":true,"disableDeltaChangesApi":true,"autoupdate":false,"serializableIndices":true,"ttl":null,"maxId":21,"DynamicViews":[],"events":{"insert":[],"update":[],"pre-insert":[],"pre-update":[],"close":[],"flushbuffer":[],"error":[],"delete":[null],"warning":[null]},"changes":[]}],"databaseVersion":1.5,"engineVersion":1.5,"autosave":false,"autosaveInterval":5000,"autosaveHandle":null,"throttledSaves":true,"options":{"serializationMethod":"normal","destructureDelimiter":"$<\n"},"persistenceMethod":"fs","persistenceAdapter":null,"verbose":false,"events":{"init":[null],"loaded":[],"flushChanges":[],"close":[],"changes":[],"warning":[]},"ENV":"NODEJS"}