{"filename":"-93.25-31.25","collections":[{"name":"restaurants","data":[{"_id":"5c3d65bd3525a329e0c16fe1","address":"1495 Caribbean Dr","location":{"type":"Point","coordinates":[-93.5735728149332,31.2800880759387]},"isApproved":true,"items":[],"keys":["American (Traditional)"],"lastUpdated":1547527612782,"name":"Pirates Cove Restaurant","phone":"","price":"","reviewCount":2,"reviewScore":4,"meta":{"revision":0,"created":1547531152191,"version":0},"$loki":1},{"_id":"5c3d65bd3525a329e0c03ce9","address":"643 Sabine St","location":{"type":"Point","coordinates":[-93.2601051148148,31.1595009252389]},"isApproved":true,"items":[],"keys":["Delis","Convenience Stores"],"lastUpdated":1547527612313,"name":"Hemphill Fuel Stop","phone":"(409) 787-4700","price":"","reviewCount":1,"reviewScore":4,"meta":{"revision":0,"created":1547531152191,"version":0},"$loki":2},{"_id":"5c3d65bd3525a329e0c135cf","address":"1110 N 5th St","location":{"type":"Point","coordinates":[-93.2641438,31.1533166]},"isApproved":true,"items":[],"keys":["Sandwiches"],"lastUpdated":1547527612696,"name":"Ranch House Cafe","phone":"(337) 392-2262","price":"$","reviewCount":13,"reviewScore":3.5,"meta":{"revision":0,"created":1547531152191,"version":0},"$loki":3},{"_id":"5c3d65bd3525a329e0c17eb4","address":"4535 Entrance Road Blvd 7828","location":{"type":"Point","coordinates":[-93.264882,31.156504]},"isApproved":true,"items":[],"keys":["Italian","Pizza","Chicken Wings"],"lastUpdated":1547527612802,"name":"Pizza Hut","phone":"(337) 537-2400","price":"","reviewCount":2,"reviewScore":4,"meta":{"revision":0,"created":1547531152191,"version":0},"$loki":4},{"_id":"5c3d65bd3525a329e0c09818","address":"1802 South 5th Street","location":{"type":"Point","coordinates":[-93.264562189579,31.1470946871856]},"isApproved":true,"items":[],"keys":["Mexican","Tex-Mex","Fast Food"],"lastUpdated":1547527612461,"name":"Taco Bell","phone":"(337) 238-0097","price":"$","reviewCount":8,"reviewScore":2,"meta":{"revision":0,"created":1547531152191,"version":0},"$loki":5},{"_id":"5c3d65bd3525a329e0c0aeeb","address":"1001 N 5th St","location":{"type":"Point","coordinates":[-93.2632959,31.1518841]},"isApproved":true,"items":[],"keys":["American (Traditional)","Korean"],"lastUpdated":1547527612491,"name":"Starlite Grill","phone":"(337) 238-1023","price":"$","reviewCount":32,"reviewScore":4,"meta":{"revision":0,"created":1547531152191,"version":0},"$loki":6},{"_id":"5c3d65bd3525a329e0c13bb5","address":"303 S 5th St","location":{"type":"Point","coordinates":[-93.2634879,31.1417426]},"isApproved":true,"items":[],"keys":["Burgers","Sandwiches"],"lastUpdated":1547527612704,"name":"Fat Boy & Skinny’s","phone":"(337) 404-3933","price":"$","reviewCount":62,"reviewScore":4,"meta":{"revision":0,"created":1547531152191,"version":0},"$loki":7},{"_id":"5c3d65bd3525a329e0c15200","address":"810 S. 3rd St.","location":{"type":"Point","coordinates":[-93.2644277777778,31.1433986836463]},"isApproved":true,"items":[],"keys":["Coffee & Tea","Bubble Tea","Tacos"],"lastUpdated":1547527612737,"name":"Cuore Coffe Bar","phone":"(337) 404-4164","price":"$$","reviewCount":4,"reviewScore":4.5,"meta":{"revision":0,"created":1547531152191,"version":0},"$loki":8},{"_id":"5c3d65bd3525a329e0c19307","address":"810 S 3rd St","location":{"type":"Point","coordinates":[-93.261827,31.136028]},"isApproved":true,"items":[],"keys":["Coffee & Tea","Asian Fusion"],"lastUpdated":1547527612834,"name":"Cuore Coffee","phone":"(337) 404-4114","price":"","reviewCount":25,"reviewScore":4.5,"meta":{"revision":0,"created":1547531152191,"version":0},"$loki":9},{"_id":"5c3d65bd3525a329e0c14a8b","address":"103 N Oak St","location":{"type":"Point","coordinates":[-93.2618183,31.1371145]},"isApproved":true,"items":[],"keys":["Pizza","Italian"],"lastUpdated":1547527612728,"name":"Slice Pizza","phone":"(409) 787-0009","price":"","reviewCount":3,"reviewScore":4.5,"meta":{"revision":0,"created":1547531152191,"version":0},"$loki":10},{"_id":"5c3d65bd3525a329e0c015fa","address":"1305 N 5th St","location":{"type":"Point","coordinates":[-93.2653115892523,31.1354362301273]},"isApproved":true,"items":[],"keys":["Asian Fusion"],"lastUpdated":1547527612250,"name":"Jack’s All Ya’need","phone":"(337) 239-6009","price":"","reviewCount":2,"reviewScore":1.5,"meta":{"revision":0,"created":1547531152191,"version":0},"$loki":11},{"_id":"5c3d65bd3525a329e0c02696","address":"501 N 6th St","location":{"type":"Point","coordinates":[-93.2654744,31.1329059]},"isApproved":true,"items":[],"keys":["Fast Food","Burgers","Desserts"],"lastUpdated":1547527612284,"name":"Sonic Drive-In","phone":"(337) 239-0955","price":"$$","reviewCount":9,"reviewScore":2.5,"meta":{"revision":0,"created":1547531152191,"version":0},"$loki":12},{"_id":"5c3d65bd3525a329e0c0f055","address":"1638 US 171","location":{"type":"Point","coordinates":[-93.2659757805979,31.1307717242541]},"isApproved":true,"items":[],"keys":["Coffee & Tea","Burgers","Fast Food"],"lastUpdated":1547527612590,"name":"McDonald’s","phone":"(337) 238-1555","price":"","reviewCount":3,"reviewScore":3,"meta":{"revision":0,"created":1547531152191,"version":0},"$loki":13},{"_id":"5c3d65bd3525a329e0bff8d0","address":"906 S 5th St","location":{"type":"Point","coordinates":[-93.2669485353489,31.1301640473404]},"isApproved":true,"items":[],"keys":["Fast Food","Burgers"],"lastUpdated":1547527612219,"name":"Wendy’s","phone":"(337) 392-2370","price":"$$$$","reviewCount":5,"reviewScore":3,"meta":{"revision":0,"created":1547531152191,"version":0},"$loki":14},{"_id":"5c3d65bd3525a329e0c134fd","address":"4535 Entrance Rd","location":{"type":"Point","coordinates":[-93.2669676,31.1300963]},"isApproved":true,"items":[],"keys":["Italian","Pizza"],"lastUpdated":1547527612695,"name":"Pizza Hut","phone":"(337) 537-2400","price":"$","reviewCount":6,"reviewScore":3,"meta":{"revision":0,"created":1547531152191,"version":0},"$loki":15},{"_id":"5c3d65bd3525a329e0c089d1","address":"7161 Hwy 8","location":{"type":"Point","coordinates":[-93.3318216,31.1554574]},"isApproved":true,"items":[],"keys":["Sandwiches","Bars","Pizza"],"lastUpdated":1547527612429,"name":"Henkel’s Town Pump","phone":"(715) 282-6067","price":"$$","reviewCount":10,"reviewScore":4.5,"meta":{"revision":0,"created":1547531152191,"version":0},"$loki":16},{"_id":"5c3d65bd3525a329e0c158ae","address":"2206 S 5th St","location":{"type":"Point","coordinates":[-93.2705436,31.1188729]},"isApproved":true,"items":[],"keys":["Steakhouses","Burgers","American (Traditional)"],"lastUpdated":1547527612747,"name":"Wagon Master Steak House","phone":"(337) 239-7482","price":"$$","reviewCount":94,"reviewScore":3,"meta":{"revision":0,"created":1547531152191,"version":0},"$loki":17},{"_id":"5c3d65bd3525a329e0c19ba6","address":"1910 S 5th St","location":{"type":"Point","coordinates":[-93.2690672,31.1224734]},"isApproved":true,"items":[],"keys":["Thai"],"lastUpdated":1547527612850,"name":"Tha da Petch","phone":"(337) 239-6222","price":"$$","reviewCount":85,"reviewScore":4.5,"meta":{"revision":0,"created":1547531152191,"version":0},"$loki":18},{"_id":"5c3d65bd3525a329e0c095d6","address":"100-198 Elm St","location":{"type":"Point","coordinates":[-93.2688367,31.125716]},"isApproved":true,"items":[],"keys":["American (Traditional)"],"lastUpdated":1547527612453,"name":"Y’all Come Back Now Dinner","phone":"","price":"$","reviewCount":2,"reviewScore":4.5,"meta":{"revision":0,"created":1547531152191,"version":0},"$loki":19},{"_id":"5c3d65bd3525a329e0c158c1","address":"1404 S 5th St","location":{"type":"Point","coordinates":[-93.26810436693,31.128856737291]},"isApproved":true,"items":[],"keys":["Japanese","Steakhouses","Sushi Bars"],"lastUpdated":1547527612747,"name":"Hana Japanese Steakhouse","phone":"(337) 239-2886","price":"$$","reviewCount":70,"reviewScore":3.5,"meta":{"revision":0,"created":1547531152191,"version":0},"$loki":20},{"_id":"5c3d65bd3525a329e0c139fe","address":"1111 S 5th St","location":{"type":"Point","coordinates":[-93.2673802,31.128767]},"isApproved":true,"items":[],"keys":["Sandwiches","Fast Food"],"lastUpdated":1547527612698,"name":"Subway","phone":"(337) 239-7747","price":"$","reviewCount":1,"reviewScore":4,"meta":{"revision":0,"created":1547531152191,"version":0},"$loki":21},{"_id":"5c3d65bd3525a329e0c12266","address":"1310 S 5th St","location":{"type":"Point","coordinates":[-93.2669413089752,31.1291590244039]},"isApproved":true,"items":[],"keys":["Asian Fusion"],"lastUpdated":1547527612669,"name":"Teriyaki Wok","phone":"(337) 392-8866","price":"$$","reviewCount":11,"reviewScore":4,"meta":{"revision":0,"created":1547531152191,"version":0},"$loki":22},{"_id":"5c3d65bd3525a329e0c0478a","address":"1505 S 5th St","location":{"type":"Point","coordinates":[-93.266649,31.128158]},"isApproved":true,"items":[],"keys":["Diners"],"lastUpdated":1547527612329,"name":"B J’s Family Diner","phone":"(337) 238-4663","price":"$","reviewCount":34,"reviewScore":3.5,"meta":{"revision":0,"created":1547531152191,"version":0},"$loki":23},{"_id":"5c3d65bd3525a329e0c15d9a","address":"601 N Temple Ave","location":{"type":"Point","coordinates":[-93.2672861,31.1270913]},"isApproved":true,"items":[],"keys":["Cafes"],"lastUpdated":1547527612755,"name":"K&B’s Cafe","phone":"(409) 584-2854","price":"","reviewCount":1,"reviewScore":5,"meta":{"revision":0,"created":1547531152191,"version":0},"$loki":24},{"_id":"5c3d65bd3525a329e0c17284","address":"1402 S 5th St","location":{"type":"Point","coordinates":[-93.2676651,31.1270267]},"isApproved":true,"items":[],"keys":["Fast Food","Sandwiches"],"lastUpdated":1547527612783,"name":"Arby’s","phone":"(337) 392-0703","price":"","reviewCount":7,"reviewScore":2,"meta":{"revision":0,"created":1547531152191,"version":0},"$loki":25},{"_id":"5c3d65bd3525a329e0c09366","address":"700 S 3rd St","location":{"type":"Point","coordinates":[-93.2680255957347,31.1257143171613]},"isApproved":true,"items":[],"keys":["Coffee & Tea","Breakfast & Brunch"],"lastUpdated":1547527612452,"name":"Hazel’sTea Parlor","phone":"(337) 378-9080","price":"$$","reviewCount":2,"reviewScore":4.5,"meta":{"revision":0,"created":1547531152191,"version":0},"$loki":26},{"_id":"5c3d65bd3525a329e0c0f2e1","address":"","location":{"type":"Point","coordinates":[-93.2680229135667,31.1260939238244]},"isApproved":true,"items":[],"keys":["Pizza","Food Trucks"],"lastUpdated":1547527612591,"name":"Jim Deggys","phone":"","price":"","reviewCount":1,"reviewScore":5,"meta":{"revision":0,"created":1547531152191,"version":0},"$loki":27},{"_id":"5c3d65bd3525a329e0c03275","address":"1762 S 5th St","location":{"type":"Point","coordinates":[-93.267708,31.124393]},"isApproved":true,"items":[],"keys":["Pizza","Sandwiches"],"lastUpdated":1547527612296,"name":"Fox’s Pizza Den","phone":"(337) 392-4949","price":"$$","reviewCount":22,"reviewScore":4,"meta":{"revision":0,"created":1547531152191,"version":0},"$loki":28},{"_id":"5c3d65bd3525a329e0c14438","address":"3080 Colony Blvd","location":{"type":"Point","coordinates":[-93.2721568637543,31.1095955531777]},"isApproved":true,"items":[],"keys":["Mexican","American (Traditional)","Buffets"],"lastUpdated":1547527612714,"name":"El Flamingo Mexican Restaurant and Bar","phone":"(337) 392-0050","price":"$$","reviewCount":24,"reviewScore":4,"meta":{"revision":0,"created":1547531152191,"version":0},"$loki":29},{"_id":"5c3d65bd3525a329e0c1423c","address":"2606 Colony Lp","location":{"type":"Point","coordinates":[-93.2722761,31.109927]},"isApproved":true,"items":[],"keys":["Bars","American (Traditional)","Tex-Mex"],"lastUpdated":1547527612713,"name":"Chili’s","phone":"(337) 392-8274","price":"$$","reviewCount":50,"reviewScore":2.5,"meta":{"revision":0,"created":1547531152191,"version":0},"$loki":30},{"_id":"5c3d65bd3525a329e0c0ab89","address":"3010 Colony Blvd","location":{"type":"Point","coordinates":[-93.2723924581664,31.1123531049294]},"isApproved":true,"items":[],"keys":["Korean","American (Traditional)"],"lastUpdated":1547527612489,"name":"Kims Kitchen","phone":"(337) 238-6110","price":"$$","reviewCount":18,"reviewScore":2.5,"meta":{"revision":0,"created":1547531152191,"version":0},"$loki":31},{"_id":"5c3d65bd3525a329e0c1ac3d","address":"1604 S 5th St","location":{"type":"Point","coordinates":[-93.2708439,31.1178897]},"isApproved":true,"items":[],"keys":["Pizza","Chicken Wings","Sandwiches"],"lastUpdated":1547527612869,"name":"Domino’s Pizza","phone":"(337) 239-0665","price":"$","reviewCount":14,"reviewScore":1.5,"meta":{"revision":0,"created":1547531152191,"version":0},"$loki":32},{"_id":"5c3d65bd3525a329e0c13c44","address":"680 Sabine St","location":{"type":"Point","coordinates":[-93.2708618239012,31.1179031671702]},"isApproved":true,"items":[],"keys":["Ice Cream & Frozen Yogurt","Burgers","Fast Food"],"lastUpdated":1547527612705,"name":"Dairy Queen","phone":"(409) 787-4694","price":"","reviewCount":2,"reviewScore":3,"meta":{"revision":0,"created":1547531152191,"version":0},"$loki":33},{"_id":"5c3d65bd3525a329e0c01931","address":"2700 Colony Blvd","location":{"type":"Point","coordinates":[-93.2720365002751,31.115620375257]},"isApproved":true,"items":[],"keys":["Barbeque"],"lastUpdated":1547527612251,"name":"Pak A Pig Bar-B-Q","phone":"(337) 238-0894","price":"$","reviewCount":25,"reviewScore":4.5,"meta":{"revision":0,"created":1547531152191,"version":0},"$loki":34},{"_id":"5c3d65bd3525a329e0c0c117","address":"2503 McRae St","location":{"type":"Point","coordinates":[-93.2731725910197,31.1169039595103]},"isApproved":true,"items":[],"keys":["Mexican"],"lastUpdated":1547527612516,"name":"Mexico Lindo of Leesville","phone":"(337) 238-5671","price":"$$","reviewCount":60,"reviewScore":3,"meta":{"revision":0,"created":1547531152191,"version":0},"$loki":35},{"_id":"5c3d65bd3525a329e0c1169f","address":"1308 S 5th St","location":{"type":"Point","coordinates":[-93.2721519083159,31.1153010960414]},"isApproved":true,"items":[],"keys":["Mexican"],"lastUpdated":1547527612649,"name":"Elgiro Mexican Restaurant","phone":"(337) 392-2353","price":"$$","reviewCount":2,"reviewScore":4,"meta":{"revision":0,"created":1547531152191,"version":0},"$loki":36},{"_id":"5c3d65bd3525a329e0c06817","address":"101 Harper St","location":{"type":"Point","coordinates":[-93.2719386,31.1137275]},"isApproved":true,"items":[],"keys":["Southern","Cajun/Creole","Seafood"],"lastUpdated":1547527612378,"name":"Crawfish To Go","phone":"(337) 239-1900","price":"","reviewCount":2,"reviewScore":5,"meta":{"revision":0,"created":1547531152191,"version":0},"$loki":37},{"_id":"5c3d65bd3525a329e0c06ff5","address":"11497 Lake Charles Hwy","location":{"type":"Point","coordinates":[-93.2686966,31.1006306]},"isApproved":true,"items":[],"keys":["Bars","American (Traditional)","Seafood"],"lastUpdated":1547527612388,"name":"Tail’Gators Bar, Grill and Daiquiris","phone":"(337) 238-5112","price":"$$","reviewCount":11,"reviewScore":4,"meta":{"revision":0,"created":1547531152191,"version":0},"$loki":38},{"_id":"5c3d65bd3525a329e0c06355","address":"11275 Lake Charles Hwy","location":{"type":"Point","coordinates":[-93.2694825,31.1063348]},"isApproved":true,"items":[],"keys":["Barbeque","American (Traditional)","Sandwiches"],"lastUpdated":1547527612369,"name":"BubbaQue’s","phone":"(337) 392-6490","price":"$$","reviewCount":80,"reviewScore":3.5,"meta":{"revision":0,"created":1547531152191,"version":0},"$loki":39},{"_id":"5c3d65bd3525a329e0c03d7a","address":"11934 Lake Charles Hwy","location":{"type":"Point","coordinates":[-93.271499,31.089172]},"isApproved":true,"items":[],"keys":["Tacos"],"lastUpdated":1547527612313,"name":"Festival Tacos","phone":"(337) 404-4089","price":"$","reviewCount":57,"reviewScore":3.5,"meta":{"revision":0,"created":1547531152191,"version":0},"$loki":40},{"_id":"5c3d65bd3525a329e0c1103f","address":"1308 S 5th St","location":{"type":"Point","coordinates":[-93.1672041824686,31.1144918823782]},"isApproved":true,"items":[],"keys":["Mexican","Seafood"],"lastUpdated":1547527612640,"name":"El Chile Verde","phone":"(337) 423-5209","price":"","reviewCount":4,"reviewScore":3,"meta":{"revision":0,"created":1547531152191,"version":0},"$loki":41},{"_id":"5c3d65bd3525a329e0c1445b","address":"602 Sabine St","location":{"type":"Point","coordinates":[-93.1832079796181,31.1133895414283]},"isApproved":true,"items":[],"keys":["Sandwiches","Fast Food"],"lastUpdated":1547527612714,"name":"Subway","phone":"(409) 787-9910","price":"","reviewCount":2,"reviewScore":5,"meta":{"revision":0,"created":1547531152191,"version":0},"$loki":42},{"_id":"5c3d65bd3525a329e0c0537f","address":"1745 Chaffee Rd","location":{"type":"Point","coordinates":[-93.1943392753601,31.1181790036285]},"isApproved":true,"items":[],"keys":["German","Greek","Vegetarian"],"lastUpdated":1547527612346,"name":"Schnitzel Haus","phone":"(337) 537-1293","price":"$$","reviewCount":13,"reviewScore":4,"meta":{"revision":0,"created":1547531152191,"version":0},"$loki":43},{"_id":"5c3d65bd3525a329e0c05868","address":"6047 Hwy 111","location":{"type":"Point","coordinates":[-93.374909,31.2398686]},"isApproved":true,"items":[],"keys":["American (Traditional)","Breakfast & Brunch"],"lastUpdated":1547527612354,"name":"Twin Bridges Cafe","phone":"(337) 238-4700","price":"$$","reviewCount":3,"reviewScore":2.5,"meta":{"revision":0,"created":1547531152191,"version":0},"$loki":44},{"_id":"5c3d65bd3525a329e0c09eb6","address":"2243 Port Arthur Ave","location":{"type":"Point","coordinates":[-93.3940909,31.3269085]},"isApproved":true,"items":[],"keys":["Mexican"],"lastUpdated":1547527612471,"name":"Mi Casa Mexican Restaurant","phone":"(318) 645-4473","price":"","reviewCount":1,"reviewScore":1,"meta":{"revision":0,"created":1547531152191,"version":0},"$loki":45}],"idIndex":[1,2,3,4,5,6,7,8,9,10,11,12,13,14,15,16,17,18,19,20,21,22,23,24,25,26,27,28,29,30,31,32,33,34,35,36,37,38,39,40,41,42,43,44,45],"binaryIndices":{},"constraints":null,"uniqueNames":[],"transforms":{},"objType":"restaurants","dirty":true,"cachedIndex":null,"cachedBinaryIndex":null,"cachedData":null,"adaptiveBinaryIndices":true,"transactional":false,"cloneObjects":false,"cloneMethod":"parse-stringify","asyncListeners":false,"disableMeta":false,"disableChangesApi":true,"disableDeltaChangesApi":true,"autoupdate":false,"serializableIndices":true,"ttl":null,"maxId":45,"DynamicViews":[],"events":{"insert":[],"update":[],"pre-insert":[],"pre-update":[],"close":[],"flushbuffer":[],"error":[],"delete":[null],"warning":[null]},"changes":[]}],"databaseVersion":1.5,"engineVersion":1.5,"autosave":false,"autosaveInterval":5000,"autosaveHandle":null,"throttledSaves":true,"options":{"serializationMethod":"normal","destructureDelimiter":"$<\n"},"persistenceMethod":"fs","persistenceAdapter":null,"verbose":false,"events":{"init":[null],"loaded":[],"flushChanges":[],"close":[],"changes":[],"warning":[]},"ENV":"NODEJS"}