{"filename":"-93.25-32","collections":[{"name":"restaurants","data":[{"_id":"5c3d65bd3525a329e0c13be7","address":"6454 Hwy 9","location":{"type":"Point","coordinates":[-92.9742936,32.1646148]},"isApproved":true,"items":[],"keys":["Bars","Seafood","Steakhouses"],"lastUpdated":1547527612705,"name":"La Sea & Sirloin Bar & Grill","phone":"(318) 875-2229","price":"","reviewCount":3,"reviewScore":2.5,"meta":{"revision":0,"created":1547531150807,"version":0},"$loki":1},{"_id":"5c3d65bd3525a329e0c04e00","address":"1401 4th St","location":{"type":"Point","coordinates":[-92.97428,32.164698]},"isApproved":true,"items":[],"keys":["Salad","Burgers"],"lastUpdated":1547527612338,"name":"Munch Box","phone":"(318) 576-3767","price":"$","reviewCount":3,"reviewScore":3,"meta":{"revision":0,"created":1547531150807,"version":0},"$loki":2},{"_id":"5c3d65bd3525a329e0c022fa","address":"5675 Highway 9","location":{"type":"Point","coordinates":[-93.0496243,31.9645197]},"isApproved":true,"items":[],"keys":["Restaurants"],"lastUpdated":1547527612276,"name":"Lakewood Inn Restaurant","phone":"(318) 875-2263","price":"$$","reviewCount":6,"reviewScore":4,"meta":{"revision":0,"created":1547531150807,"version":0},"$loki":3},{"_id":"5c3d65bd3525a329e0c0ac15","address":"211 6th St","location":{"type":"Point","coordinates":[-93.056952,31.940859]},"isApproved":true,"items":[],"keys":["Bakeries","Sandwiches"],"lastUpdated":1547527612490,"name":"Traina’s Bakery & Grocery","phone":"(318) 259-2600","price":"$","reviewCount":6,"reviewScore":5,"meta":{"revision":0,"created":1547531150807,"version":0},"$loki":4},{"_id":"5c3d65bd3525a329e0c135a9","address":"5849 Hwy 71","location":{"type":"Point","coordinates":[-93.0318602129464,31.8231153209554]},"isApproved":true,"items":[],"keys":["Barbeque"],"lastUpdated":1547527612696,"name":"Grayson’s Barbeque","phone":"(318) 357-0166","price":"$","reviewCount":31,"reviewScore":4,"meta":{"revision":0,"created":1547531150807,"version":0},"$loki":5},{"_id":"5c3d65bd3525a329e0c0a1f5","address":"500 Texas St","location":{"type":"Point","coordinates":[-93.0911449,31.7675698]},"isApproved":true,"items":[],"keys":["Burgers"],"lastUpdated":1547527612473,"name":"Marie’s Old Fashioned Hamburgers","phone":"(318) 352-5735","price":"$","reviewCount":11,"reviewScore":4.5,"meta":{"revision":0,"created":1547531150807,"version":0},"$loki":6},{"_id":"5c3d65bd3525a329e0c06fd7","address":"501 Texas St","location":{"type":"Point","coordinates":[-93.0912608,31.7671892]},"isApproved":true,"items":[],"keys":["American (New)","Soul Food","Barbeque"],"lastUpdated":1547527612388,"name":"Red’s Rib’s","phone":"(318) 214-0901","price":"$","reviewCount":5,"reviewScore":4,"meta":{"revision":0,"created":1547531150807,"version":0},"$loki":7},{"_id":"5c3d65bd3525a329e0c18e3e","address":"514 Washington Ave","location":{"type":"Point","coordinates":[-93.090047,31.7670851]},"isApproved":true,"items":[],"keys":["Restaurants"],"lastUpdated":1547527612831,"name":"Dairy Queen Brazier","phone":"(318) 872-2533","price":"$","reviewCount":6,"reviewScore":1,"meta":{"revision":0,"created":1547531150807,"version":0},"$loki":8},{"_id":"5c3d65bd3525a329e0c19b43","address":"135 Richard Zuber Thruway","location":{"type":"Point","coordinates":[-93.0975747,31.7710051]},"isApproved":true,"items":[],"keys":["Chicken Wings","Fast Food"],"lastUpdated":1547527612849,"name":"Popeyes Louisiana Kitchen","phone":"(318) 259-8840","price":"","reviewCount":3,"reviewScore":1,"meta":{"revision":0,"created":1547531150807,"version":0},"$loki":9},{"_id":"5c3d65bd3525a329e0c03058","address":"5820 Hwy 1 Byp","location":{"type":"Point","coordinates":[-93.108495,31.771083]},"isApproved":true,"items":[],"keys":["American (New)"],"lastUpdated":1547527612295,"name":"Almost Home","phone":"(318) 352-2431","price":"$","reviewCount":12,"reviewScore":4,"meta":{"revision":0,"created":1547531150807,"version":0},"$loki":10},{"_id":"5c3d65bd3525a329e0c0f048","address":"5948 Highway 1 Byp","location":{"type":"Point","coordinates":[-93.110245,31.76543]},"isApproved":true,"items":[],"keys":["Seafood","Steakhouses","Cajun/Creole"],"lastUpdated":1547527612590,"name":"Mariner’s Restaurant","phone":"(318) 357-1220","price":"$$","reviewCount":47,"reviewScore":3.5,"meta":{"revision":0,"created":1547531150807,"version":0},"$loki":11},{"_id":"5c3d65bd3525a329e0c11b32","address":"5811 Hwy One Bypass","location":{"type":"Point","coordinates":[-93.1073150038719,31.7714623718975]},"isApproved":true,"items":[],"keys":["Fast Food","Chicken Wings"],"lastUpdated":1547527612652,"name":"Wing Grub","phone":"(318) 238-9464","price":"$","reviewCount":1,"reviewScore":4,"meta":{"revision":0,"created":1547531150807,"version":0},"$loki":12},{"_id":"5c3d65bd3525a329e0c14f0d","address":"1433 Texas St","location":{"type":"Point","coordinates":[-93.0984656,31.7710614]},"isApproved":true,"items":[],"keys":["American (Traditional)","Chicken Wings"],"lastUpdated":1547527612736,"name":"Southern Classic","phone":"(318) 352-7700","price":"","reviewCount":5,"reviewScore":4,"meta":{"revision":0,"created":1547531150807,"version":0},"$loki":13},{"_id":"5c3d65bd3525a329e0c0c262","address":"Alonzo St","location":{"type":"Point","coordinates":[-93.3443195,32.0155004]},"isApproved":true,"items":[],"keys":["Restaurants"],"lastUpdated":1547527612517,"name":"Bailey’s Sandwich Shop","phone":"(318) 932-4896","price":"","reviewCount":3,"reviewScore":4.5,"meta":{"revision":0,"created":1547531150807,"version":0},"$loki":14},{"_id":"5c3d65bd3525a329e0c04d0b","address":"1818 Ringgold Ave","location":{"type":"Point","coordinates":[-93.3448932,32.0175916]},"isApproved":true,"items":[],"keys":["Barbeque","American (Traditional)"],"lastUpdated":1547527612338,"name":"The York Chop","phone":"(318) 932-2467","price":"$$","reviewCount":6,"reviewScore":4.5,"meta":{"revision":0,"created":1547531150807,"version":0},"$loki":15},{"_id":"5c3d65bd3525a329e0c0df3f","address":"1400 Ringgold Ave","location":{"type":"Point","coordinates":[-93.3401887,32.0258479]},"isApproved":true,"items":[],"keys":["Latin American","Mexican"],"lastUpdated":1547527612564,"name":"Los Gallos","phone":"(318) 932-8866","price":"$$","reviewCount":5,"reviewScore":3,"meta":{"revision":0,"created":1547531150807,"version":0},"$loki":16},{"_id":"5c3d65bd3525a329e0c0f9fb","address":"1035 Ringgold Ave","location":{"type":"Point","coordinates":[-93.339056,32.029839]},"isApproved":true,"items":[],"keys":["Fast Food"],"lastUpdated":1547527612601,"name":"Dairy Queen Brazier","phone":"(318) 932-4025","price":"","reviewCount":2,"reviewScore":2.5,"meta":{"revision":0,"created":1547531150807,"version":0},"$loki":17},{"_id":"5c3d65bd3525a329e0c13df1","address":"5035 Cut Off Rd","location":{"type":"Point","coordinates":[-93.338033,32.022464]},"isApproved":true,"items":[],"keys":["Restaurants"],"lastUpdated":1547527612706,"name":"Fausto’s Fried Chicken","phone":"(318) 932-4646","price":"","reviewCount":1,"reviewScore":4,"meta":{"revision":0,"created":1547531150807,"version":0},"$loki":18},{"_id":"5c3d65bd3525a329e0c17c5e","address":"161 Highway 71 84","location":{"type":"Point","coordinates":[-93.3166975,32.0156586]},"isApproved":true,"items":[],"keys":["Soul Food","Cafes"],"lastUpdated":1547527612800,"name":"Dew Drop In Cafe","phone":"(318) 932-3114","price":"","reviewCount":1,"reviewScore":3,"meta":{"revision":0,"created":1547531150807,"version":0},"$loki":19},{"_id":"5c3d65bd3525a329e0c02f71","address":"5181 Cut Off Rd","location":{"type":"Point","coordinates":[-93.3283612,32.0172358]},"isApproved":true,"items":[],"keys":["Cafes"],"lastUpdated":1547527612295,"name":"Kayla’s Cafe","phone":"(318) 932-8202","price":"","reviewCount":1,"reviewScore":3,"meta":{"revision":0,"created":1547531150807,"version":0},"$loki":20}],"idIndex":[1,2,3,4,5,6,7,8,9,10,11,12,13,14,15,16,17,18,19,20],"binaryIndices":{},"constraints":null,"uniqueNames":[],"transforms":{},"objType":"restaurants","dirty":true,"cachedIndex":null,"cachedBinaryIndex":null,"cachedData":null,"adaptiveBinaryIndices":true,"transactional":false,"cloneObjects":false,"cloneMethod":"parse-stringify","asyncListeners":false,"disableMeta":false,"disableChangesApi":true,"disableDeltaChangesApi":true,"autoupdate":false,"serializableIndices":true,"ttl":null,"maxId":20,"DynamicViews":[],"events":{"insert":[],"update":[],"pre-insert":[],"pre-update":[],"close":[],"flushbuffer":[],"error":[],"delete":[null],"warning":[null]},"changes":[]}],"databaseVersion":1.5,"engineVersion":1.5,"autosave":false,"autosaveInterval":5000,"autosaveHandle":null,"throttledSaves":true,"options":{"serializationMethod":"normal","destructureDelimiter":"$<\n"},"persistenceMethod":"fs","persistenceAdapter":null,"verbose":false,"events":{"init":[null],"loaded":[],"flushChanges":[],"close":[],"changes":[],"warning":[]},"ENV":"NODEJS"}