{"filename":"-94-42","collections":[{"name":"restaurants","data":[{"_id":"5c3d65bd3525a329e0c099d1","address":"165 S Jordan Creek Pkwy","location":{"type":"Point","coordinates":[-93.9614206,41.6845986]},"isApproved":true,"items":[],"keys":["Sports Bars","Burgers","American (Traditional)"],"lastUpdated":1547527612463,"name":"165 American Sports Bar & Grill","phone":"(515) 225-7877","price":"$$","reviewCount":12,"reviewScore":3,"meta":{"revision":0,"created":1547531155081,"version":0},"$loki":1},{"_id":"5c3d65bd3525a329e0c04879","address":"5717 Hickman Rd","location":{"type":"Point","coordinates":[-93.9610386,41.6840153]},"isApproved":true,"items":[],"keys":["Chinese"],"lastUpdated":1547527612330,"name":"Shang Yuen Chinese Fast Food","phone":"(515) 277-1000","price":"$","reviewCount":36,"reviewScore":3.5,"meta":{"revision":0,"created":1547531155081,"version":0},"$loki":2},{"_id":"5c3d65bd3525a329e0c0575e","address":"3600 Westown Pkwy","location":{"type":"Point","coordinates":[-93.9554591470442,41.6879599273369]},"isApproved":true,"items":[],"keys":["Italian","Salad"],"lastUpdated":1547527612349,"name":"Olive Garden Italian Restaurant","phone":"(515) 224-0824","price":"$$","reviewCount":59,"reviewScore":3,"meta":{"revision":0,"created":1547531155081,"version":0},"$loki":3},{"_id":"5c3d65bd3525a329e0c021a4","address":"2400 N Loop Dr","location":{"type":"Point","coordinates":[-94.3778412,42.0156271]},"isApproved":true,"items":[],"keys":["American (New)","Breakfast & Brunch","Bars"],"lastUpdated":1547527612275,"name":"Provisions Lot F","phone":"(515) 598-1783","price":"$$","reviewCount":79,"reviewScore":4.5,"meta":{"revision":0,"created":1547531155081,"version":0},"$loki":4},{"_id":"5c3d65bd3525a329e0c0e064","address":"905 W US Highway 30","location":{"type":"Point","coordinates":[-94.3779903,42.020127]},"isApproved":true,"items":[],"keys":["Grocery","American (New)"],"lastUpdated":1547527612564,"name":"Hy-Vee","phone":"(712) 792-6333","price":"","reviewCount":2,"reviewScore":5,"meta":{"revision":0,"created":1547531155081,"version":0},"$loki":5},{"_id":"5c3d65bd3525a329e0c17345","address":"108 W State St","location":{"type":"Point","coordinates":[-94.3772109,42.0282571]},"isApproved":true,"items":[],"keys":["American (New)","Breakfast & Brunch"],"lastUpdated":1547527612783,"name":"Uptown Cafe","phone":"(515) 386-4979","price":"$","reviewCount":13,"reviewScore":4,"meta":{"revision":0,"created":1547531155081,"version":0},"$loki":6},{"_id":"5c3d65bd3525a329e0c01801","address":"777 Wild Rose Rd","location":{"type":"Point","coordinates":[-94.3770514,42.0232886]},"isApproved":true,"items":[],"keys":["American (Traditional)","Sports Bars"],"lastUpdated":1547527612251,"name":"Coaches Corner at The Wild Rose Casino","phone":"(515) 386-7777","price":"$$","reviewCount":3,"reviewScore":3.5,"meta":{"revision":0,"created":1547531155081,"version":0},"$loki":7},{"_id":"5c3d65bd3525a329e0c17eb9","address":"127 E St","location":{"type":"Point","coordinates":[-94.375459,42.018784]},"isApproved":true,"items":[],"keys":["Mexican"],"lastUpdated":1547527612802,"name":"Las Margaritas","phone":"(712) 659-2272","price":"","reviewCount":4,"reviewScore":5,"meta":{"revision":0,"created":1547531155081,"version":0},"$loki":8},{"_id":"5c3d65bd3525a329e0c13dad","address":"1409 N Elm St","location":{"type":"Point","coordinates":[-94.373368094697,42.0156995665347]},"isApproved":true,"items":[],"keys":["Mexican"],"lastUpdated":1547527612706,"name":"Casa De Oro","phone":"(515) 386-4877","price":"$","reviewCount":9,"reviewScore":4,"meta":{"revision":0,"created":1547531155081,"version":0},"$loki":9},{"_id":"5c3d65bd3525a329e0c09d4b","address":"1205 Hwy 30","location":{"type":"Point","coordinates":[-94.3742383,42.0149954]},"isApproved":true,"items":[],"keys":["Italian"],"lastUpdated":1547527612465,"name":"Napoli’s Italian Restaurant - Carroll","phone":"(712) 775-2565","price":"$$","reviewCount":14,"reviewScore":4.5,"meta":{"revision":0,"created":1547531155081,"version":0},"$loki":10},{"_id":"5c3d65bd3525a329e0c0e4dc","address":"901 N Elm St","location":{"type":"Point","coordinates":[-94.3745614,42.0149952]},"isApproved":true,"items":[],"keys":["Barbeque"],"lastUpdated":1547527612573,"name":"Bett & Bev’s Bbq","phone":"(515) 386-4999","price":"$","reviewCount":3,"reviewScore":4,"meta":{"revision":0,"created":1547531155081,"version":0},"$loki":11},{"_id":"5c3d65bd3525a329e0c0fa42","address":"101 E Lincolnway St","location":{"type":"Point","coordinates":[-94.3749085,42.0162768]},"isApproved":true,"items":[],"keys":["Chinese"],"lastUpdated":1547527612601,"name":"Peony Chinese Restaurant","phone":"(515) 386-3928","price":"$","reviewCount":2,"reviewScore":5,"meta":{"revision":0,"created":1547531155081,"version":0},"$loki":12},{"_id":"5c3d65bd3525a329e0c05f7a","address":"708 Simon Ave","location":{"type":"Point","coordinates":[-94.3790102,42.0121235]},"isApproved":true,"items":[],"keys":["Chinese"],"lastUpdated":1547527612368,"name":"Hunan Chinese Restaurant","phone":"(712) 792-5587","price":"$$","reviewCount":5,"reviewScore":3,"meta":{"revision":0,"created":1547531155081,"version":0},"$loki":13},{"_id":"5c3d65bd3525a329e0c1a071","address":"225 Main St","location":{"type":"Point","coordinates":[-94.2324944,42.0357798]},"isApproved":true,"items":[],"keys":["Steakhouses"],"lastUpdated":1547527612857,"name":"Open Flame Steak & Lounge","phone":"(515) 232-9745","price":"$$","reviewCount":14,"reviewScore":4,"meta":{"revision":0,"created":1547531155081,"version":0},"$loki":14},{"_id":"5c3d65bd3525a329e0c09368","address":"419 Sand St","location":{"type":"Point","coordinates":[-94.0289378,42.0391672]},"isApproved":true,"items":[],"keys":["American (Traditional)","Bars"],"lastUpdated":1547527612452,"name":"Churdan Bar & Grill","phone":"(515) 389-3385","price":"","reviewCount":1,"reviewScore":5,"meta":{"revision":0,"created":1547531155081,"version":0},"$loki":15},{"_id":"5c3d65bd3525a329e0c1596c","address":"1730 US Hwy 71","location":{"type":"Point","coordinates":[-94.0318097,42.0388]},"isApproved":true,"items":[],"keys":["Restaurants","Bars"],"lastUpdated":1547527612747,"name":"Swizzle Stick","phone":"(712) 792-5600","price":"","reviewCount":1,"reviewScore":2,"meta":{"revision":0,"created":1547531155081,"version":0},"$loki":16},{"_id":"5c3d65bd3525a329e0c1776d","address":"326 Main St","location":{"type":"Point","coordinates":[-93.8159637,41.9671939]},"isApproved":true,"items":[],"keys":["Restaurants"],"lastUpdated":1547527612791,"name":"Deb’s Corner Cafe","phone":"(712) 655-2423","price":"$$","reviewCount":3,"reviewScore":5,"meta":{"revision":0,"created":1547531155081,"version":0},"$loki":17},{"_id":"5c3d65bd3525a329e0c02eee","address":"1235 Plaza Dr","location":{"type":"Point","coordinates":[-93.8804454,42.0429442]},"isApproved":true,"items":[],"keys":["Sports Bars","American (Traditional)"],"lastUpdated":1547527612294,"name":"Bloomers Sports Bar and Grill","phone":"(712) 792-9101","price":"$$","reviewCount":18,"reviewScore":3.5,"meta":{"revision":0,"created":1547531155081,"version":0},"$loki":18},{"_id":"5c3d65bd3525a329e0c1315e","address":"1127 Story St","location":{"type":"Point","coordinates":[-93.8804454,42.0371514]},"isApproved":true,"items":[],"keys":["Pizza"],"lastUpdated":1547527612688,"name":"Casey’s Carry Out Pizza","phone":"(515) 432-2022","price":"$","reviewCount":3,"reviewScore":5,"meta":{"revision":0,"created":1547531155081,"version":0},"$loki":19},{"_id":"5c3d65bd3525a329e0c067ac","address":"513 E 6th St","location":{"type":"Point","coordinates":[-93.8796991,42.0371484]},"isApproved":true,"items":[],"keys":["Mexican","Fast Food"],"lastUpdated":1547527612378,"name":"Taco John’s","phone":"(712) 792-2646","price":"$","reviewCount":2,"reviewScore":1,"meta":{"revision":0,"created":1547531155081,"version":0},"$loki":20},{"_id":"5c3d65bd3525a329e0c0570d","address":"717 Story St","location":{"type":"Point","coordinates":[-93.8777604,42.0389992]},"isApproved":true,"items":[],"keys":["Barbeque"],"lastUpdated":1547527612348,"name":"Jimmy’s Barbeque Pit","phone":"(515) 433-1227","price":"$","reviewCount":36,"reviewScore":3.5,"meta":{"revision":0,"created":1547531155081,"version":0},"$loki":21},{"_id":"5c3d65bd3525a329e0c04fcb","address":"328 Main St","location":{"type":"Point","coordinates":[-93.8789935,42.0380686]},"isApproved":true,"items":[],"keys":["Delis"],"lastUpdated":1547527612339,"name":"Downtown Deli","phone":"(515) 232-3626","price":"$","reviewCount":42,"reviewScore":4.5,"meta":{"revision":0,"created":1547531155081,"version":0},"$loki":22},{"_id":"5c3d65bd3525a329e0c1b148","address":"3417 Lincoln Way","location":{"type":"Point","coordinates":[-93.8789186,42.0423866]},"isApproved":true,"items":[],"keys":["Chinese"],"lastUpdated":1547527612877,"name":"May House Cuisine","phone":"(515) 292-2089","price":"$","reviewCount":26,"reviewScore":3.5,"meta":{"revision":0,"created":1547531155081,"version":0},"$loki":23},{"_id":"5c3d65bd3525a329e0c0c099","address":"120 Welch Ave","location":{"type":"Point","coordinates":[-93.8792642763758,42.0413735546505]},"isApproved":true,"items":[],"keys":["Vietnamese","Asian Fusion","Chinese"],"lastUpdated":1547527612516,"name":"Wok N Roll","phone":"(515) 292-6688","price":"","reviewCount":3,"reviewScore":5,"meta":{"revision":0,"created":1547531155081,"version":0},"$loki":24},{"_id":"5c3d65bd3525a329e0c12860","address":"323 N Main St","location":{"type":"Point","coordinates":[-93.8802664,42.0633936]},"isApproved":true,"items":[],"keys":["Mexican"],"lastUpdated":1547527612678,"name":"Rancho Grande","phone":"(712) 792-9399","price":"$$","reviewCount":22,"reviewScore":3,"meta":{"revision":0,"created":1547531155081,"version":0},"$loki":25},{"_id":"5c3d65bd3525a329e0c1aed7","address":"502 Burnett Ave","location":{"type":"Point","coordinates":[-93.8798606,42.06334]},"isApproved":true,"items":[],"keys":["Cafes","Bakeries","Sandwiches"],"lastUpdated":1547527612876,"name":"Great Harvest Bakery & Cafe","phone":"(515) 598-2624","price":"$","reviewCount":4,"reviewScore":5,"meta":{"revision":0,"created":1547531155081,"version":0},"$loki":26},{"_id":"5c3d65bd3525a329e0bff4aa","address":"400 Main St","location":{"type":"Point","coordinates":[-93.8797136,42.0640633]},"isApproved":true,"items":[],"keys":["Italian"],"lastUpdated":1547527612216,"name":"Bar La Tosca","phone":"(515) 232-8484","price":"$$","reviewCount":35,"reviewScore":4,"meta":{"revision":0,"created":1547531155081,"version":0},"$loki":27},{"_id":"5c3d65bd3525a329e0c11872","address":"210 And 510 Ave","location":{"type":"Point","coordinates":[-93.8797294,42.0640486]},"isApproved":true,"items":[],"keys":["American (Traditional)","Ice Cream & Frozen Yogurt","Sandwiches"],"lastUpdated":1547527612650,"name":"Cole’s Ice Cream","phone":"(515) 473-1336","price":"$","reviewCount":11,"reviewScore":2.5,"meta":{"revision":0,"created":1547531155081,"version":0},"$loki":28},{"_id":"5c3d65bd3525a329e0c1aa2d","address":"716 Keeler St","location":{"type":"Point","coordinates":[-93.8797095,42.0646862]},"isApproved":true,"items":[],"keys":["Pizza","Italian","Steakhouses"],"lastUpdated":1547527612868,"name":"Tic Toc Ristorante","phone":"(515) 432-3375","price":"$$","reviewCount":20,"reviewScore":4,"meta":{"revision":0,"created":1547531155081,"version":0},"$loki":29},{"_id":"5c3d65bd3525a329e0c0beca","address":"403 Iowa Ave","location":{"type":"Point","coordinates":[-93.8798401,42.0670464]},"isApproved":true,"items":[],"keys":["Barbeque","Beer Bar","American (Traditional)"],"lastUpdated":1547527612515,"name":"Whatcha Smokin’ BBQ & Brew","phone":"(515) 257-7490","price":"$$","reviewCount":44,"reviewScore":4.5,"meta":{"revision":0,"created":1547531155081,"version":0},"$loki":30},{"_id":"5c3d65bd3525a329e0c0f11f","address":"169 Oak Ridge Dr","location":{"type":"Point","coordinates":[-93.8805214,42.0676839]},"isApproved":true,"items":[],"keys":["Food Trucks","Barbeque"],"lastUpdated":1547527612590,"name":"Barrel Smoke BBQ","phone":"(712) 263-8833","price":"$","reviewCount":3,"reviewScore":5,"meta":{"revision":0,"created":1547531155081,"version":0},"$loki":31},{"_id":"5c3d65bd3525a329e0c19273","address":"18152 IA-141","location":{"type":"Point","coordinates":[-93.8808201625943,42.0632998914694]},"isApproved":true,"items":[],"keys":["Restaurants"],"lastUpdated":1547527612833,"name":"Corner Station Cafe","phone":"","price":"","reviewCount":1,"reviewScore":5,"meta":{"revision":0,"created":1547531155081,"version":0},"$loki":32},{"_id":"5c3d65bd3525a329e0c0aeb4","address":"320 S 16th St","location":{"type":"Point","coordinates":[-93.8815111666918,42.0627911159317]},"isApproved":true,"items":[],"keys":["American (Traditional)","Irish Pub","Beer Bar"],"lastUpdated":1547527612491,"name":"Dublin Bay Irish Pub & Grill","phone":"(515) 956-3580","price":"$$","reviewCount":117,"reviewScore":4,"meta":{"revision":0,"created":1547531155081,"version":0},"$loki":33},{"_id":"5c3d65bd3525a329e0bff630","address":"2733 Stange Rd","location":{"type":"Point","coordinates":[-93.8804454,42.0620172]},"isApproved":true,"items":[],"keys":["Sports Bars","American (Traditional)","Wraps"],"lastUpdated":1547527612217,"name":"Wallaby’s Bar & Grill","phone":"(515) 292-1167","price":"$$","reviewCount":54,"reviewScore":3,"meta":{"revision":0,"created":1547531155081,"version":0},"$loki":34},{"_id":"5c3d65bd3525a329e0c0f21f","address":"4518 Mortensen Rd","location":{"type":"Point","coordinates":[-93.8797095,42.0602856]},"isApproved":true,"items":[],"keys":["American (Traditional)","Pubs"],"lastUpdated":1547527612591,"name":"West Towne Pub","phone":"(515) 292-4555","price":"$$","reviewCount":57,"reviewScore":2.5,"meta":{"revision":0,"created":1547531155081,"version":0},"$loki":35},{"_id":"5c3d65bd3525a329e0c0ab9a","address":"2100 Green Hills Dr","location":{"type":"Point","coordinates":[-93.8792918,42.0612455]},"isApproved":true,"items":[],"keys":["Breakfast & Brunch","American (New)","Cocktail Bars"],"lastUpdated":1547527612489,"name":"The IowaStater Restaurant","phone":"(515) 268-2238","price":"$$","reviewCount":27,"reviewScore":3.5,"meta":{"revision":0,"created":1547531155081,"version":0},"$loki":36},{"_id":"5c3d65bd3525a329e0c1aa58","address":"1720 S Story St","location":{"type":"Point","coordinates":[-93.6212855,42.0549276]},"isApproved":true,"items":[],"keys":["Fast Food"],"lastUpdated":1547527612868,"name":"Burger King","phone":"(515) 432-1805","price":"","reviewCount":3,"reviewScore":1,"meta":{"revision":0,"created":1547531155081,"version":0},"$loki":37},{"_id":"5c3d65bd3525a329e0c10bd5","address":"524 Lincoln Way","location":{"type":"Point","coordinates":[-93.6210283,42.046158]},"isApproved":true,"items":[],"keys":["Bakeries","Breakfast & Brunch","Diners"],"lastUpdated":1547527612632,"name":"Village Inn","phone":"(515) 232-5111","price":"$","reviewCount":19,"reviewScore":3,"meta":{"revision":0,"created":1547531155081,"version":0},"$loki":38},{"_id":"5c3d65bd3525a329e0c087e6","address":"2402 Lincoln Way","location":{"type":"Point","coordinates":[-93.6210453067463,42.0469813629016]},"isApproved":true,"items":[],"keys":["Pizza","Sandwiches"],"lastUpdated":1547527612428,"name":"Jeff’s Pizza Shop","phone":"(515) 292-2321","price":"$$","reviewCount":64,"reviewScore":3.5,"meta":{"revision":0,"created":1547531155081,"version":0},"$loki":39},{"_id":"5c3d65bd3525a329e0c15ca0","address":"2504 Lincoln Way","location":{"type":"Point","coordinates":[-93.6028940230608,42.0226689027505]},"isApproved":true,"items":[],"keys":["Brazilian","Cafes"],"lastUpdated":1547527612755,"name":"Cafe Beaudelaire","phone":"(515) 292-7429","price":"$$","reviewCount":98,"reviewScore":4.5,"meta":{"revision":0,"created":1547531155081,"version":0},"$loki":40},{"_id":"5c3d65bd3525a329e0c140fd","address":"3800 Lincoln Way","location":{"type":"Point","coordinates":[-93.6113642268182,42.0250269158171]},"isApproved":true,"items":[],"keys":["Cafes"],"lastUpdated":1547527612707,"name":"Hy-Vee Market Cafe","phone":"(515) 292-5580","price":"$$","reviewCount":11,"reviewScore":3,"meta":{"revision":0,"created":1547531155081,"version":0},"$loki":41},{"_id":"5c3d65bd3525a329e0c19e5b","address":"122 Hayward Ave","location":{"type":"Point","coordinates":[-93.6116099,42.0230365]},"isApproved":true,"items":[],"keys":["Chicken Wings","Pizza","Sandwiches"],"lastUpdated":1547527612851,"name":"Domino’s Pizza","phone":"(515) 292-3030","price":"","reviewCount":3,"reviewScore":4.5,"meta":{"revision":0,"created":1547531155081,"version":0},"$loki":42},{"_id":"5c3d65bd3525a329e0c08205","address":"415 Lincoln Way","location":{"type":"Point","coordinates":[-93.6117448459717,42.0221453692401]},"isApproved":true,"items":[],"keys":["Chinese"],"lastUpdated":1547527612420,"name":"Mandarin Restaurant","phone":"(515) 233-5300","price":"$$","reviewCount":29,"reviewScore":3.5,"meta":{"revision":0,"created":1547531155081,"version":0},"$loki":43},{"_id":"5c3d65bd3525a329e0c01c8f","address":"428 Lincoln Way","location":{"type":"Point","coordinates":[-93.612653,42.0230625]},"isApproved":true,"items":[],"keys":["Pizza"],"lastUpdated":1547527612259,"name":"Casey’s Carry-Out Pizza","phone":"(515) 232-2958","price":"","reviewCount":3,"reviewScore":3.5,"meta":{"revision":0,"created":1547531155081,"version":0},"$loki":44},{"_id":"5c3d65bd3525a329e0c089af","address":"3308 Orion Dr","location":{"type":"Point","coordinates":[-93.613987,42.022524]},"isApproved":true,"items":[],"keys":["Ice Cream & Frozen Yogurt","Fast Food"],"lastUpdated":1547527612429,"name":"Dairy Queen","phone":"(515) 663-0819","price":"$","reviewCount":2,"reviewScore":4,"meta":{"revision":0,"created":1547531155081,"version":0},"$loki":45},{"_id":"5c3d65bd3525a329e0c0ff73","address":"135 Welch Ave","location":{"type":"Point","coordinates":[-93.6164586,42.0225809]},"isApproved":true,"items":[],"keys":["Sandwiches","Delis","Fast Food"],"lastUpdated":1547527612609,"name":"Jimmy John’s","phone":"(515) 292-2868","price":"$","reviewCount":12,"reviewScore":3,"meta":{"revision":0,"created":1547531155081,"version":0},"$loki":46},{"_id":"5c3d65bd3525a329e0c12577","address":"223 Welch Ave","location":{"type":"Point","coordinates":[-93.6160925589312,42.0230560393264]},"isApproved":true,"items":[],"keys":["Indonesian","Chinese","Asian Fusion"],"lastUpdated":1547527612670,"name":"Trio Modern Asian Cuisine","phone":"(515) 292-7719","price":"$$","reviewCount":26,"reviewScore":3.5,"meta":{"revision":0,"created":1547531155081,"version":0},"$loki":47},{"_id":"5c3d65bd3525a329e0c07140","address":"2420 Lincoln Way","location":{"type":"Point","coordinates":[-93.6145333425938,42.0249641020784]},"isApproved":true,"items":[],"keys":["Burgers","American (Traditional)","Ice Cream & Frozen Yogurt"],"lastUpdated":1547527612389,"name":"Freddy’s Frozen Custard and Steakburgers","phone":"(515) 735-4010","price":"$","reviewCount":11,"reviewScore":4,"meta":{"revision":0,"created":1547531155081,"version":0},"$loki":48},{"_id":"5c3d65bd3525a329e0c08696","address":"427 E 6th St","location":{"type":"Point","coordinates":[-93.6149361,42.0248389]},"isApproved":true,"items":[],"keys":["Sandwiches","Fast Food","Delis"],"lastUpdated":1547527612427,"name":"Jimmy John’s","phone":"(712) 775-2468","price":"","reviewCount":3,"reviewScore":4.5,"meta":{"revision":0,"created":1547531155081,"version":0},"$loki":49},{"_id":"5c3d65bd3525a329e0c16a38","address":"926 S 16th St","location":{"type":"Point","coordinates":[-93.6156766707959,42.0249912978246]},"isApproved":true,"items":[],"keys":["Noodles","Chinese","Asian Fusion"],"lastUpdated":1547527612773,"name":"Grandpa Noodle Gallery","phone":"(515) 450-5398","price":"$$","reviewCount":37,"reviewScore":4,"meta":{"revision":0,"created":1547531155081,"version":0},"$loki":50},{"_id":"5c3d65bd3525a329e0c17ffb","address":"2801 Grand Ave","location":{"type":"Point","coordinates":[-93.615549213933,42.0249828314806]},"isApproved":true,"items":[],"keys":["Mexican","Food Trucks","Fast Food"],"lastUpdated":1547527612802,"name":"Carlos Quesadillas","phone":"(515) 450-5132","price":"$","reviewCount":15,"reviewScore":4.5,"meta":{"revision":0,"created":1547531155081,"version":0},"$loki":51},{"_id":"5c3d65bd3525a329e0c12578","address":"1301 Buckeye Ave","location":{"type":"Point","coordinates":[-93.6153336,42.0261819]},"isApproved":true,"items":[],"keys":["Barbeque","American (Traditional)","Sports Bars"],"lastUpdated":1547527612670,"name":"Jethro’s BBQ Steak n’ Chop","phone":"(515) 598-1200","price":"$$","reviewCount":22,"reviewScore":3.5,"meta":{"revision":0,"created":1547531155081,"version":0},"$loki":52},{"_id":"5c3d65bd3525a329e0c01c5c","address":"4800 Mortensen Rd","location":{"type":"Point","coordinates":[-93.611877,42.0249717]},"isApproved":true,"items":[],"keys":["American (Traditional)","Coffee & Tea"],"lastUpdated":1547527612259,"name":"Cafe Milo","phone":"(515) 268-3166","price":"$","reviewCount":29,"reviewScore":3.5,"meta":{"revision":0,"created":1547531155081,"version":0},"$loki":53},{"_id":"5c3d65bd3525a329e0c0be2c","address":"2320 Lincoln Way","location":{"type":"Point","coordinates":[-93.6215032,42.0251983]},"isApproved":true,"items":[],"keys":["Salad","Fast Food","Pizza"],"lastUpdated":1547527612515,"name":"Blaze Fast-Fire’d Pizza","phone":"(515) 854-1904","price":"$","reviewCount":46,"reviewScore":4.5,"meta":{"revision":0,"created":1547531155081,"version":0},"$loki":54},{"_id":"5c3d65bd3525a329e0c13b32","address":"508 N Elm St","location":{"type":"Point","coordinates":[-93.6190831661224,42.025307743985]},"isApproved":true,"items":[],"keys":["Pizza"],"lastUpdated":1547527612704,"name":"Casey’s Carry Out Pizza","phone":"(515) 386-4463","price":"","reviewCount":1,"reviewScore":4,"meta":{"revision":0,"created":1547531155081,"version":0},"$loki":55},{"_id":"5c3d65bd3525a329e0c0ab94","address":"809 Wheeler St","location":{"type":"Point","coordinates":[-93.618812,42.0237375]},"isApproved":true,"items":[],"keys":["Chinese"],"lastUpdated":1547527612489,"name":"888 Restaurant","phone":"(515) 232-3366","price":"$","reviewCount":32,"reviewScore":3,"meta":{"revision":0,"created":1547531155081,"version":0},"$loki":56},{"_id":"5c3d65bd3525a329e0c01300","address":"707 24th St","location":{"type":"Point","coordinates":[-93.6189755673151,42.0232350286124]},"isApproved":true,"items":[],"keys":["Pizza"],"lastUpdated":1547527612241,"name":"Papa John’s Pizza","phone":"(515) 956-3737","price":"","reviewCount":3,"reviewScore":2.5,"meta":{"revision":0,"created":1547531155081,"version":0},"$loki":57},{"_id":"5c3d65bd3525a329e0c16522","address":"620 Lincoln Way","location":{"type":"Point","coordinates":[-93.618096,42.022678]},"isApproved":true,"items":[],"keys":["Pizza","Italian","Chicken Wings"],"lastUpdated":1547527612764,"name":"Pizza Hut","phone":"(515) 233-1000","price":"","reviewCount":3,"reviewScore":2,"meta":{"revision":0,"created":1547531155081,"version":0},"$loki":58},{"_id":"5c3d65bd3525a329e0c096a3","address":"117 Welch Ave","location":{"type":"Point","coordinates":[-93.6174863,42.0231417]},"isApproved":true,"items":[],"keys":["Mexican"],"lastUpdated":1547527612454,"name":"Fighting Burrito","phone":"(515) 292-2222","price":"$","reviewCount":58,"reviewScore":3.5,"meta":{"revision":0,"created":1547531155081,"version":0},"$loki":59},{"_id":"5c3d65bd3525a329e0c0f62d","address":"804 Story St","location":{"type":"Point","coordinates":[-93.6176726673489,42.023146501289]},"isApproved":true,"items":[],"keys":["Chinese","Buffets"],"lastUpdated":1547527612598,"name":"Asian Buffet","phone":"(515) 432-1765","price":"","reviewCount":1,"reviewScore":3,"meta":{"revision":0,"created":1547531155081,"version":0},"$loki":60},{"_id":"5c3d65bd3525a329e0c12789","address":"Hwy 30 E","location":{"type":"Point","coordinates":[-93.6172127510182,42.0225874564559]},"isApproved":true,"items":[],"keys":["Sandwiches","Fast Food"],"lastUpdated":1547527612672,"name":"Subway","phone":"(712) 792-6422","price":"","reviewCount":1,"reviewScore":2,"meta":{"revision":0,"created":1547531155081,"version":0},"$loki":61},{"_id":"5c3d65bd3525a329e0c03169","address":"3335 Lincoln Way","location":{"type":"Point","coordinates":[-93.6181392,42.021479]},"isApproved":true,"items":[],"keys":["Pizza"],"lastUpdated":1547527612296,"name":"Papa John’s Pizza","phone":"(515) 296-4949","price":"$","reviewCount":6,"reviewScore":3,"meta":{"revision":0,"created":1547531155081,"version":0},"$loki":62},{"_id":"5c3d65bd3525a329e0c11e4d","address":"1320 Dickinson Ave","location":{"type":"Point","coordinates":[-93.646992,42.02269]},"isApproved":true,"items":[],"keys":["Pizza"],"lastUpdated":1547527612662,"name":"Kingpin Pizza","phone":"(515) 598-2288","price":"$$","reviewCount":6,"reviewScore":3,"meta":{"revision":0,"created":1547531155081,"version":0},"$loki":63},{"_id":"5c3d65bd3525a329e0c0fba2","address":"113 Welch Ave","location":{"type":"Point","coordinates":[-93.6456354,42.0235144]},"isApproved":true,"items":[],"keys":["Sandwiches","Fast Food"],"lastUpdated":1547527612601,"name":"Subway","phone":"(515) 292-7917","price":"","reviewCount":3,"reviewScore":2.5,"meta":{"revision":0,"created":1547531155081,"version":0},"$loki":64},{"_id":"5c3d65bd3525a329e0c15924","address":"539 Lincoln Way","location":{"type":"Point","coordinates":[-93.6458879512395,42.0239040909008]},"isApproved":true,"items":[],"keys":["Pizza","Italian"],"lastUpdated":1547527612747,"name":"Little Caesars Pizza","phone":"(515) 232-7499","price":"$$","reviewCount":6,"reviewScore":3,"meta":{"revision":0,"created":1547531155081,"version":0},"$loki":65},{"_id":"5c3d65bd3525a329e0c00f28","address":"123 Lincoln Way","location":{"type":"Point","coordinates":[-93.6495975549314,42.0226023974021]},"isApproved":true,"items":[],"keys":["Pizza"],"lastUpdated":1547527612237,"name":"Papa Murphy’s","phone":"(515) 232-3196","price":"","reviewCount":3,"reviewScore":4.5,"meta":{"revision":0,"created":1547531155081,"version":0},"$loki":66},{"_id":"5c3d65bd3525a329e0c15571","address":"134 Main St","location":{"type":"Point","coordinates":[-93.649273,42.02266]},"isApproved":true,"items":[],"keys":["Sports Bars","American (Traditional)"],"lastUpdated":1547527612745,"name":"Whiskey River","phone":"(515) 232-2858","price":"$","reviewCount":32,"reviewScore":3,"meta":{"revision":0,"created":1547531155081,"version":0},"$loki":67},{"_id":"5c3d65bd3525a329e0c097b4","address":"517 Lincoln Way","location":{"type":"Point","coordinates":[-93.649118,42.022613]},"isApproved":true,"items":[],"keys":["Sandwiches","Juice Bars & Smoothies"],"lastUpdated":1547527612461,"name":"Tropical Smoothie Cafe","phone":"(515) 233-5460","price":"$","reviewCount":16,"reviewScore":4.5,"meta":{"revision":0,"created":1547531155081,"version":0},"$loki":68},{"_id":"5c3d65bd3525a329e0c155e1","address":"1320 Dickinson Ave","location":{"type":"Point","coordinates":[-93.6487322,42.022571]},"isApproved":true,"items":[],"keys":["Pizza","Bowling","Arcades"],"lastUpdated":1547527612746,"name":"Perfect Games","phone":"(515) 598-2695","price":"$$","reviewCount":18,"reviewScore":3,"meta":{"revision":0,"created":1547531155081,"version":0},"$loki":69},{"_id":"5c3d65bd3525a329e0bffc45","address":"533 Lincoln Way","location":{"type":"Point","coordinates":[-93.6475155,42.0225792]},"isApproved":true,"items":[],"keys":["Mexican"],"lastUpdated":1547527612221,"name":"Abelardo’s Mexican Fresh","phone":"(515) 232-1539","price":"$","reviewCount":27,"reviewScore":3.5,"meta":{"revision":0,"created":1547531155081,"version":0},"$loki":70},{"_id":"5c3d65bd3525a329e0c0ba62","address":"2508 Lincoln Way","location":{"type":"Point","coordinates":[-93.6490924260228,42.0212585970573]},"isApproved":true,"items":[],"keys":["Mexican"],"lastUpdated":1547527612507,"name":"Mr. Burrito","phone":"(515) 292-3002","price":"$","reviewCount":43,"reviewScore":4.5,"meta":{"revision":0,"created":1547531155081,"version":0},"$loki":71},{"_id":"5c3d65bd3525a329e0c09fcb","address":"112 Hayward Ave","location":{"type":"Point","coordinates":[-93.6504623,42.020432]},"isApproved":true,"items":[],"keys":["Dim Sum","Szechuan"],"lastUpdated":1547527612472,"name":"Joy’s Mongolian Grill","phone":"(515) 292-9077","price":"$","reviewCount":22,"reviewScore":4,"meta":{"revision":0,"created":1547531155081,"version":0},"$loki":72},{"_id":"5c3d65bd3525a329e0c111e4","address":"2420 Lincoln Way","location":{"type":"Point","coordinates":[-93.6505019,42.0210557]},"isApproved":true,"items":[],"keys":["Pizza","Salad"],"lastUpdated":1547527612641,"name":"Smokin’ Oak Wood-Fired Pizza","phone":"(515) 450-5727","price":"$","reviewCount":16,"reviewScore":3.5,"meta":{"revision":0,"created":1547531155081,"version":0},"$loki":73},{"_id":"5c3d65bd3525a329e0c015d9","address":"3505 Lincoln Way","location":{"type":"Point","coordinates":[-93.6502229888284,42.0216607349204]},"isApproved":true,"items":[],"keys":["Soup","Sandwiches"],"lastUpdated":1547527612250,"name":"Erbert and Gerbert’s","phone":"(515) 292-0000","price":"$","reviewCount":4,"reviewScore":2,"meta":{"revision":0,"created":1547531155081,"version":0},"$loki":74},{"_id":"5c3d65bd3525a329e0c01d25","address":"823 Wheeler St","location":{"type":"Point","coordinates":[-93.6499563509408,42.0220876293093]},"isApproved":true,"items":[],"keys":["Mexican"],"lastUpdated":1547527612259,"name":"Los Altos Mexican Restaurant","phone":"(515) 450-5175","price":"$","reviewCount":21,"reviewScore":4,"meta":{"revision":0,"created":1547531155081,"version":0},"$loki":75},{"_id":"5c3d65bd3525a329e0c192db","address":"218 W 6th St","location":{"type":"Point","coordinates":[-93.6499079,42.0219632]},"isApproved":true,"items":[],"keys":["Italian","Pizza","Sandwiches"],"lastUpdated":1547527612833,"name":"Santa Maria Restaurant","phone":"","price":"$$","reviewCount":6,"reviewScore":2,"meta":{"revision":0,"created":1547531155081,"version":0},"$loki":76},{"_id":"5c3d65bd3525a329e0c0b85a","address":"511 Lincoln Way","location":{"type":"Point","coordinates":[-93.6499126,42.0219628]},"isApproved":true,"items":[],"keys":["Mexican"],"lastUpdated":1547527612506,"name":"Taco Time","phone":"(515) 232-6391","price":"$","reviewCount":24,"reviewScore":3.5,"meta":{"revision":0,"created":1547531155081,"version":0},"$loki":77},{"_id":"5c3d65bd3525a329e0c04e7b","address":"2801 Grand Ave","location":{"type":"Point","coordinates":[-93.650359448721,42.0222662291]},"isApproved":true,"items":[],"keys":["Sandwiches","Delis","Fast Food"],"lastUpdated":1547527612339,"name":"Jimmy John’s","phone":"(515) 232-7827","price":"","reviewCount":3,"reviewScore":3.5,"meta":{"revision":0,"created":1547531155081,"version":0},"$loki":78},{"_id":"5c3d65bd3525a329e0c0447f","address":"1703 S Story St","location":{"type":"Point","coordinates":[-93.6505584482272,42.0226614041178]},"isApproved":true,"items":[],"keys":["Pizza"],"lastUpdated":1547527612322,"name":"Pizza Ranch","phone":"(515) 432-2222","price":"$$","reviewCount":8,"reviewScore":3.5,"meta":{"revision":0,"created":1547531155081,"version":0},"$loki":79},{"_id":"5c3d65bd3525a329e0c09b24","address":"624 W US Hwy 30","location":{"type":"Point","coordinates":[-93.6505337,42.0225866]},"isApproved":true,"items":[],"keys":["Pizza"],"lastUpdated":1547527612464,"name":"Godfather’s Pizza","phone":"(712) 792-5470","price":"","reviewCount":1,"reviewScore":5,"meta":{"revision":0,"created":1547531155081,"version":0},"$loki":80},{"_id":"5c3d65bd3525a329e0c00bf8","address":"1620 S Kellogg Ave","location":{"type":"Point","coordinates":[-93.6503435,42.0220653]},"isApproved":true,"items":[],"keys":["Mongolian","Buffets","Chinese"],"lastUpdated":1547527612230,"name":"W & Z Mangolian Buffet","phone":"(515) 232-2338","price":"$$","reviewCount":46,"reviewScore":2.5,"meta":{"revision":0,"created":1547531155081,"version":0},"$loki":81},{"_id":"5c3d65bd3525a329e0bff690","address":"2650 Lincoln Way","location":{"type":"Point","coordinates":[-93.6503209487312,42.0215794849818]},"isApproved":true,"items":[],"keys":["Mexican"],"lastUpdated":1547527612217,"name":"Taco Bell","phone":"","price":"","reviewCount":1,"reviewScore":3,"meta":{"revision":0,"created":1547531155081,"version":0},"$loki":82},{"_id":"5c3d65bd3525a329e0c1186d","address":"124 Main St","location":{"type":"Point","coordinates":[-93.651548,42.021913]},"isApproved":true,"items":[],"keys":["Breakfast & Brunch"],"lastUpdated":1547527612650,"name":"Grove Cafe","phone":"(515) 232-9784","price":"$","reviewCount":60,"reviewScore":4,"meta":{"revision":0,"created":1547531155081,"version":0},"$loki":83},{"_id":"5c3d65bd3525a329e0bffdbf","address":"912 W Highway 30 St","location":{"type":"Point","coordinates":[-93.651404,42.021935]},"isApproved":true,"items":[],"keys":["Burgers","Fast Food","Coffee & Tea"],"lastUpdated":1547527612222,"name":"McDonald’s","phone":"(712) 792-1227","price":"","reviewCount":1,"reviewScore":5,"meta":{"revision":0,"created":1547531155082,"version":0},"$loki":84},{"_id":"5c3d65bd3525a329e0c09e70","address":"801 Plaza Dr","location":{"type":"Point","coordinates":[-93.6515315,42.0222595]},"isApproved":true,"items":[],"keys":["Pizza","Italian","Chicken Wings"],"lastUpdated":1547527612471,"name":"Pizza Hut","phone":"(712) 792-1280","price":"","reviewCount":1,"reviewScore":3,"meta":{"revision":0,"created":1547531155082,"version":0},"$loki":85},{"_id":"5c3d65bd3525a329e0c0eebf","address":"2229 Lincoln Way","location":{"type":"Point","coordinates":[-93.653888,42.022487]},"isApproved":true,"items":[],"keys":["Chinese","Fast Food"],"lastUpdated":1547527612583,"name":"Panda Express","phone":"(515) 294-4194","price":"$","reviewCount":5,"reviewScore":2.5,"meta":{"revision":0,"created":1547531155082,"version":0},"$loki":86},{"_id":"5c3d65bd3525a329e0c12893","address":"547 Main St","location":{"type":"Point","coordinates":[-93.6436943,42.0486881]},"isApproved":true,"items":[],"keys":["American (New)"],"lastUpdated":1547527612678,"name":"Aunt Maude’s","phone":"(515) 233-4136","price":"$$","reviewCount":88,"reviewScore":4,"meta":{"revision":0,"created":1547531155082,"version":0},"$loki":87},{"_id":"5c3d65bd3525a329e0c1401d","address":"2810 West St","location":{"type":"Point","coordinates":[-93.6446216,42.0486491]},"isApproved":true,"items":[],"keys":["Delis"],"lastUpdated":1547527612707,"name":"West Street Deli","phone":"(515) 268-4605","price":"$","reviewCount":68,"reviewScore":4.5,"meta":{"revision":0,"created":1547531155082,"version":0},"$loki":88},{"_id":"5c3d65bd3525a329e0c0389a","address":"2640 Stange Rd","location":{"type":"Point","coordinates":[-93.6447579,42.0491358]},"isApproved":true,"items":[],"keys":["Italian","Pizza","Wine Bars"],"lastUpdated":1547527612304,"name":"+39 Restaurant Market & Cantina","phone":"(515) 292-0039","price":"$$","reviewCount":108,"reviewScore":3.5,"meta":{"revision":0,"created":1547531155082,"version":0},"$loki":89},{"_id":"5c3d65bd3525a329e0c11670","address":"1608 S Story St","location":{"type":"Point","coordinates":[-93.6455455,42.0499952]},"isApproved":true,"items":[],"keys":["Pizza","Italian","Chicken Wings"],"lastUpdated":1547527612649,"name":"Pizza Hut","phone":"(515) 432-5000","price":"$","reviewCount":7,"reviewScore":2,"meta":{"revision":0,"created":1547531155082,"version":0},"$loki":90},{"_id":"5c3d65bd3525a329e0c193c4","address":"716 Story St","location":{"type":"Point","coordinates":[-93.6454136,42.050246]},"isApproved":true,"items":[],"keys":["Chinese"],"lastUpdated":1547527612840,"name":"New China Restaurant","phone":"(515) 432-8089","price":"$","reviewCount":13,"reviewScore":4,"meta":{"revision":0,"created":1547531155082,"version":0},"$loki":91},{"_id":"5c3d65bd3525a329e0c15d1f","address":"","location":{"type":"Point","coordinates":[-93.6225906,42.049311]},"isApproved":true,"items":[],"keys":["Food Stands"],"lastUpdated":1547527612755,"name":"Super Dog Stand","phone":"","price":"$","reviewCount":9,"reviewScore":4,"meta":{"revision":0,"created":1547531155082,"version":0},"$loki":92},{"_id":"5c3d65bd3525a329e0c0a8ef","address":"2727 Stange Rd","location":{"type":"Point","coordinates":[-93.6227301,42.0493019]},"isApproved":true,"items":[],"keys":["Mexican"],"lastUpdated":1547527612482,"name":"El Azteca","phone":"(515) 292-9494","price":"$","reviewCount":62,"reviewScore":4,"meta":{"revision":0,"created":1547531155082,"version":0},"$loki":93},{"_id":"5c3d65bd3525a329e0c12e64","address":"3605 Lincoln Way","location":{"type":"Point","coordinates":[-93.623011931777,42.0540748392521]},"isApproved":true,"items":[],"keys":["Szechuan"],"lastUpdated":1547527612681,"name":"Szechuan House","phone":"(515) 292-7888","price":"$$","reviewCount":63,"reviewScore":3.5,"meta":{"revision":0,"created":1547531155082,"version":0},"$loki":94},{"_id":"5c3d65bd3525a329e0c03750","address":"118 S Sherman Ave","location":{"type":"Point","coordinates":[-93.621996,42.05495]},"isApproved":true,"items":[],"keys":["Mexican","Food Trucks"],"lastUpdated":1547527612304,"name":"La Bamba","phone":"","price":"$","reviewCount":2,"reviewScore":3.5,"meta":{"revision":0,"created":1547531155082,"version":0},"$loki":95},{"_id":"5c3d65bd3525a329e0c0ca4d","address":"2801 Grand Ave","location":{"type":"Point","coordinates":[-93.6231259,42.0544642]},"isApproved":true,"items":[],"keys":["American (Traditional)","Greek"],"lastUpdated":1547527612532,"name":"Flame & Skewer","phone":"(515) 232-0931","price":"$$","reviewCount":11,"reviewScore":3.5,"meta":{"revision":0,"created":1547531155082,"version":0},"$loki":96},{"_id":"5c3d65bd3525a329e0c18c2a","address":"425 US Hwy 30 W","location":{"type":"Point","coordinates":[-93.6231259,42.0544642]},"isApproved":true,"items":[],"keys":["Pizza"],"lastUpdated":1547527612824,"name":"Pizza Ranch","phone":"(712) 792-3456","price":"$","reviewCount":4,"reviewScore":3,"meta":{"revision":0,"created":1547531155082,"version":0},"$loki":97},{"_id":"5c3d65bd3525a329e0c09de8","address":"2704 Stange Rd","location":{"type":"Point","coordinates":[-93.6497396,42.1077242]},"isApproved":true,"items":[],"keys":["Burgers","Hot Dogs","American (New)"],"lastUpdated":1547527612471,"name":"Brick City Grill","phone":"(515) 268-4224","price":"$$","reviewCount":83,"reviewScore":3.5,"meta":{"revision":0,"created":1547531155082,"version":0},"$loki":98},{"_id":"5c3d65bd3525a329e0c150e0","address":"127 Dotson Dr","location":{"type":"Point","coordinates":[-93.6497693,42.1087744]},"isApproved":true,"items":[],"keys":["Indian"],"lastUpdated":1547527612737,"name":"Indian Delight","phone":"(515) 292-3419","price":"$$","reviewCount":51,"reviewScore":3.5,"meta":{"revision":0,"created":1547531155082,"version":0},"$loki":99},{"_id":"5c3d65bd3525a329e0c18f83","address":"303 Welch Ave","location":{"type":"Point","coordinates":[-93.682608,42.0390586]},"isApproved":true,"items":[],"keys":["Bars","Cafes","Modern European"],"lastUpdated":1547527612832,"name":"Stomping Grounds","phone":"(515) 292-5258","price":"$$","reviewCount":111,"reviewScore":3.5,"meta":{"revision":0,"created":1547531155082,"version":0},"$loki":100},{"_id":"5c3d65bd3525a329e0c08a32","address":"2435 Grand Ave","location":{"type":"Point","coordinates":[-93.6811419,42.0371351]},"isApproved":true,"items":[],"keys":["Italian"],"lastUpdated":1547527612430,"name":"Fazoli’s","phone":"(515) 232-6009","price":"$","reviewCount":23,"reviewScore":2.5,"meta":{"revision":0,"created":1547531155082,"version":0},"$loki":101},{"_id":"5c3d65bd3525a329e0c0f359","address":"1525 Radiant Rd","location":{"type":"Point","coordinates":[-93.6672321606748,42.0230669395446]},"isApproved":true,"items":[],"keys":["American (Traditional)"],"lastUpdated":1547527612592,"name":"Family Table Restaurant","phone":"(712) 792-3260","price":"","reviewCount":2,"reviewScore":1.5,"meta":{"revision":0,"created":1547531155082,"version":0},"$loki":102},{"_id":"5c3d65bd3525a329e0c1367d","address":"525 Gilchrist St","location":{"type":"Point","coordinates":[-93.6664131646098,42.0229788682068]},"isApproved":true,"items":[],"keys":["Fast Food","Burgers","Ice Cream & Frozen Yogurt"],"lastUpdated":1547527612696,"name":"Culver’s","phone":"(515) 233-1760","price":"$","reviewCount":13,"reviewScore":3.5,"meta":{"revision":0,"created":1547531155082,"version":0},"$loki":103},{"_id":"5c3d65bd3525a329e0c08440","address":"4625 Reliable St","location":{"type":"Point","coordinates":[-93.6657106,42.0231995]},"isApproved":true,"items":[],"keys":["Cafes"],"lastUpdated":1547527612421,"name":"Lockwood Cafe - Temp. CLOSED","phone":"(415) 261-7001","price":"","reviewCount":5,"reviewScore":4,"meta":{"revision":0,"created":1547531155082,"version":0},"$loki":104},{"_id":"5c3d65bd3525a329e0c05be0","address":"823 Wheeler St","location":{"type":"Point","coordinates":[-93.6636706,42.0235156]},"isApproved":true,"items":[],"keys":["Italian","Pizza"],"lastUpdated":1547527612356,"name":"Ge-Angelo’s Italian Restaurant & Lounge","phone":"(515) 233-0959","price":"$$","reviewCount":28,"reviewScore":3.5,"meta":{"revision":0,"created":1547531155082,"version":0},"$loki":105},{"_id":"5c3d65bd3525a329e0c18cfb","address":"405 W US Hwy 30","location":{"type":"Point","coordinates":[-93.6636706,42.0235156]},"isApproved":true,"items":[],"keys":["Burgers","Fast Food","Ice Cream & Frozen Yogurt"],"lastUpdated":1547527612825,"name":"Culvers","phone":"(712) 775-2600","price":"$","reviewCount":1,"reviewScore":5,"meta":{"revision":0,"created":1547531155082,"version":0},"$loki":106},{"_id":"5c3d65bd3525a329e0c00202","address":"1311 Buckeye Ave","location":{"type":"Point","coordinates":[-93.66437162478,42.0231116772911]},"isApproved":true,"items":[],"keys":["Sandwiches","Fast Food"],"lastUpdated":1547527612225,"name":"Subway","phone":"(515) 232-4515","price":"","reviewCount":3,"reviewScore":3,"meta":{"revision":0,"created":1547531155082,"version":0},"$loki":107},{"_id":"5c3d65bd3525a329e0c1929d","address":"500 Lincoln Way","location":{"type":"Point","coordinates":[-93.669663098349,42.0215966833364]},"isApproved":true,"items":[],"keys":["Fast Food","Mexican"],"lastUpdated":1547527612833,"name":"Taco John’s","phone":"(515) 232-3176","price":"$","reviewCount":12,"reviewScore":3.5,"meta":{"revision":0,"created":1547531155082,"version":0},"$loki":108},{"_id":"5c3d65bd3525a329e0c158a9","address":"3312 Cedar Ln","location":{"type":"Point","coordinates":[-93.6688005,42.0216014]},"isApproved":true,"items":[],"keys":["Bakeries","Desserts","Gluten-Free"],"lastUpdated":1547527612747,"name":"My Father’s Joy - Temp. CLOSED","phone":"(515) 231-4449","price":"$","reviewCount":1,"reviewScore":5,"meta":{"revision":0,"created":1547531155082,"version":0},"$loki":109},{"_id":"5c3d65bd3525a329e0c12443","address":"3712 Lincoln Way","location":{"type":"Point","coordinates":[-93.6685574,42.0233396]},"isApproved":true,"items":[],"keys":["Sandwiches","Fast Food"],"lastUpdated":1547527612670,"name":"Subway","phone":"(515) 292-6430","price":"","reviewCount":8,"reviewScore":2,"meta":{"revision":0,"created":1547531155082,"version":0},"$loki":110},{"_id":"5c3d65bd3525a329e0c13458","address":"113 Colorado Ave","location":{"type":"Point","coordinates":[-93.6717472,42.0218555]},"isApproved":true,"items":[],"keys":["Vietnamese","Chinese"],"lastUpdated":1547527612690,"name":"Le’s Restaurant","phone":"(515) 292-0002","price":"$","reviewCount":52,"reviewScore":3,"meta":{"revision":0,"created":1547531155082,"version":0},"$loki":111},{"_id":"5c3d65bd3525a329e0c17ca2","address":"118 S Sherman Ave","location":{"type":"Point","coordinates":[-93.6990644021236,42.0229366113544]},"isApproved":true,"items":[],"keys":["Food Trucks","Mexican"],"lastUpdated":1547527612800,"name":"Taqueria Rositas","phone":"(515) 233-4051","price":"$","reviewCount":3,"reviewScore":4.5,"meta":{"revision":0,"created":1547531155082,"version":0},"$loki":112},{"_id":"5c3d65bd3525a329e0c00d39","address":"522 N Clark St","location":{"type":"Point","coordinates":[-93.7004028,42.0220697]},"isApproved":true,"items":[],"keys":["Breakfast & Brunch","Coffee & Tea","Comfort Food"],"lastUpdated":1547527612236,"name":"Queen Beans Coffee House","phone":"(712) 792-1222","price":"$","reviewCount":12,"reviewScore":4,"meta":{"revision":0,"created":1547531155082,"version":0},"$loki":113},{"_id":"5c3d65bd3525a329e0c0c878","address":"504 16th St N","location":{"type":"Point","coordinates":[-93.6847651669099,42.0126203917909]},"isApproved":true,"items":[],"keys":["Pizza"],"lastUpdated":1547527612526,"name":"Casey’s Carry-Out Pizza","phone":"(515) 738-2434","price":"","reviewCount":1,"reviewScore":1,"meta":{"revision":0,"created":1547531155082,"version":0},"$loki":114},{"_id":"5c3d65bd3525a329e0c0d4dd","address":"2410 Chamberlain St","location":{"type":"Point","coordinates":[-93.6792386950552,42.0111294198109]},"isApproved":true,"items":[],"keys":["Thai","Bubble Tea"],"lastUpdated":1547527612547,"name":"Thai Kitchen","phone":"(515) 292-4788","price":"$","reviewCount":87,"reviewScore":4,"meta":{"revision":0,"created":1547531155082,"version":0},"$loki":115},{"_id":"5c3d65bd3525a329e0c0027e","address":"2229 Lincoln Way","location":{"type":"Point","coordinates":[-93.6795569,42.0110687]},"isApproved":true,"items":[],"keys":["Sandwiches","Fast Food"],"lastUpdated":1547527612225,"name":"Subway","phone":"(515) 296-0950","price":"","reviewCount":3,"reviewScore":3.5,"meta":{"revision":0,"created":1547531155082,"version":0},"$loki":116},{"_id":"5c3d65bd3525a329e0c1253e","address":"302 Lincoln Way","location":{"type":"Point","coordinates":[-93.6811173,42.0106594]},"isApproved":true,"items":[],"keys":["Sandwiches","Fast Food"],"lastUpdated":1547527612670,"name":"Subway","phone":"(515) 232-2181","price":"$","reviewCount":3,"reviewScore":4.5,"meta":{"revision":0,"created":1547531155082,"version":0},"$loki":117},{"_id":"5c3d65bd3525a329e0c1663f","address":"Welch Ave And Chamberlain St","location":{"type":"Point","coordinates":[-93.6811022,42.0105942]},"isApproved":true,"items":[],"keys":["Food Stands"],"lastUpdated":1547527612765,"name":"The Gyro Stand","phone":"","price":"$","reviewCount":7,"reviewScore":4,"meta":{"revision":0,"created":1547531155082,"version":0},"$loki":118},{"_id":"5c3d65bd3525a329e0c086dc","address":"316 Main St","location":{"type":"Point","coordinates":[-93.6505613,42.0200299]},"isApproved":true,"items":[],"keys":["Breweries","American (New)","Sandwiches"],"lastUpdated":1547527612428,"name":"Olde Main Brewing Company","phone":"(515) 232-0553","price":"$$","reviewCount":131,"reviewScore":3,"meta":{"revision":0,"created":1547531155082,"version":0},"$loki":119},{"_id":"5c3d65bd3525a329e0c0d2c9","address":"2514 Chamberlain St","location":{"type":"Point","coordinates":[-93.6427607,42.0011473]},"isApproved":true,"items":[],"keys":["Chinese"],"lastUpdated":1547527612545,"name":"Little Taipei","phone":"(515) 292-6123","price":"$","reviewCount":28,"reviewScore":3,"meta":{"revision":0,"created":1547531155082,"version":0},"$loki":120},{"_id":"5c3d65bd3525a329e0c0fea1","address":"4518 Mortensen Rd","location":{"type":"Point","coordinates":[-93.6486605,41.990786]},"isApproved":true,"items":[],"keys":["Sandwiches","Delis","Fast Food"],"lastUpdated":1547527612609,"name":"Jimmy John’s","phone":"(515) 292-4444","price":"$","reviewCount":8,"reviewScore":2,"meta":{"revision":0,"created":1547531155082,"version":0},"$loki":121},{"_id":"5c3d65bd3525a329e0c1175d","address":"6008 W Lincoln Way","location":{"type":"Point","coordinates":[-93.6389994,42.0008411]},"isApproved":true,"items":[],"keys":["Coffee & Tea","Sandwiches"],"lastUpdated":1547527612650,"name":"The Cornucopia","phone":"(515) 450-5874","price":"","reviewCount":2,"reviewScore":4.5,"meta":{"revision":0,"created":1547531155082,"version":0},"$loki":122},{"_id":"5c3d65bd3525a329e0c0ad4f","address":"1312 S Story St","location":{"type":"Point","coordinates":[-93.635572,42.000704]},"isApproved":true,"items":[],"keys":["American (Traditional)","Buffets","Breakfast & Brunch"],"lastUpdated":1547527612490,"name":"Saints Avenue Cafe","phone":"(515) 432-7399","price":"$$","reviewCount":16,"reviewScore":4,"meta":{"revision":0,"created":1547531155082,"version":0},"$loki":123},{"_id":"5c3d65bd3525a329e0c0dec7","address":"605 Story St","location":{"type":"Point","coordinates":[-93.6243,42.007966]},"isApproved":true,"items":[],"keys":["Bakeries","Breakfast & Brunch","Sandwiches"],"lastUpdated":1547527612564,"name":"Dutch Oven Bakery","phone":"(515) 432-9567","price":"$","reviewCount":24,"reviewScore":4.5,"meta":{"revision":0,"created":1547531155082,"version":0},"$loki":124},{"_id":"5c3d65bd3525a329e0c0f747","address":"915 US Hwy 30 W","location":{"type":"Point","coordinates":[-93.6206531134918,42.0193054339867]},"isApproved":true,"items":[],"keys":["Burgers"],"lastUpdated":1547527612599,"name":"Burger King","phone":"(712) 792-1065","price":"","reviewCount":4,"reviewScore":1,"meta":{"revision":0,"created":1547531155082,"version":0},"$loki":125},{"_id":"5c3d65bd3525a329e0c067c3","address":"413 Northwestern Ave","location":{"type":"Point","coordinates":[-93.6117681,42.0068784]},"isApproved":true,"items":[],"keys":["Grocery","Delis","Coffee & Tea"],"lastUpdated":1547527612378,"name":"Wheatsfield Cooperative","phone":"(515) 232-4094","price":"$$","reviewCount":33,"reviewScore":4,"meta":{"revision":0,"created":1547531155082,"version":0},"$loki":126},{"_id":"5c3d65bd3525a329e0c1623e","address":"417 Main St","location":{"type":"Point","coordinates":[-93.614684,42.0080436]},"isApproved":true,"items":[],"keys":["American (Traditional)"],"lastUpdated":1547527612763,"name":"Cliffs Place","phone":"(712) 655-3130","price":"","reviewCount":3,"reviewScore":3.5,"meta":{"revision":0,"created":1547531155082,"version":0},"$loki":127},{"_id":"5c3d65bd3525a329e0c05afc","address":"125 Main St","location":{"type":"Point","coordinates":[-93.6129552,42.0114789]},"isApproved":true,"items":[],"keys":["Salad","Tacos","Sandwiches"],"lastUpdated":1547527612356,"name":"The Vault","phone":"(515) 232-1686","price":"","reviewCount":1,"reviewScore":5,"meta":{"revision":0,"created":1547531155082,"version":0},"$loki":128},{"_id":"5c3d65bd3525a329e0c1a13b","address":"3621 Lincoln Way","location":{"type":"Point","coordinates":[-93.6131286621094,42.0112632165407]},"isApproved":true,"items":[],"keys":["Fast Food","Burgers","Coffee & Tea"],"lastUpdated":1547527612857,"name":"McDonald’s","phone":"(515) 292-5200","price":"$","reviewCount":7,"reviewScore":3,"meta":{"revision":0,"created":1547531155082,"version":0},"$loki":129},{"_id":"5c3d65bd3525a329e0c14954","address":"2310 Lincoln Way","location":{"type":"Point","coordinates":[-93.6115398748069,42.0066074774389]},"isApproved":true,"items":[],"keys":["Sandwiches","Salad","Fast Food"],"lastUpdated":1547527612728,"name":"Potbelly Sandwich Shop","phone":"(515) 520-8651","price":"$","reviewCount":10,"reviewScore":3.5,"meta":{"revision":0,"created":1547531155082,"version":0},"$loki":130},{"_id":"5c3d65bd3525a329e0c0c3a8","address":"528 Story Street","location":{"type":"Point","coordinates":[-93.6781698241447,41.8780419895465]},"isApproved":true,"items":[],"keys":["Pizza"],"lastUpdated":1547527612523,"name":"Papa Murphy’s","phone":"(515) 432-1086","price":"","reviewCount":1,"reviewScore":4,"meta":{"revision":0,"created":1547531155082,"version":0},"$loki":131},{"_id":"5c3d65bd3525a329e0c1aa25","address":"2616 Northridge Pkwy","location":{"type":"Point","coordinates":[-93.6872159,41.88204]},"isApproved":true,"items":[],"keys":["Bakeries","Breakfast & Brunch","Coffee & Tea"],"lastUpdated":1547527612868,"name":"The Cafe","phone":"(515) 292-0100","price":"$$","reviewCount":316,"reviewScore":4.5,"meta":{"revision":0,"created":1547531155082,"version":0},"$loki":132}],"idIndex":[1,2,3,4,5,6,7,8,9,10,11,12,13,14,15,16,17,18,19,20,21,22,23,24,25,26,27,28,29,30,31,32,33,34,35,36,37,38,39,40,41,42,43,44,45,46,47,48,49,50,51,52,53,54,55,56,57,58,59,60,61,62,63,64,65,66,67,68,69,70,71,72,73,74,75,76,77,78,79,80,81,82,83,84,85,86,87,88,89,90,91,92,93,94,95,96,97,98,99,100,101,102,103,104,105,106,107,108,109,110,111,112,113,114,115,116,117,118,119,120,121,122,123,124,125,126,127,128,129,130,131,132],"binaryIndices":{},"constraints":null,"uniqueNames":[],"transforms":{},"objType":"restaurants","dirty":true,"cachedIndex":null,"cachedBinaryIndex":null,"cachedData":null,"adaptiveBinaryIndices":true,"transactional":false,"cloneObjects":false,"cloneMethod":"parse-stringify","asyncListeners":false,"disableMeta":false,"disableChangesApi":true,"disableDeltaChangesApi":true,"autoupdate":false,"serializableIndices":true,"ttl":null,"maxId":132,"DynamicViews":[],"events":{"insert":[],"update":[],"pre-insert":[],"pre-update":[],"close":[],"flushbuffer":[],"error":[],"delete":[null],"warning":[null]},"changes":[]}],"databaseVersion":1.5,"engineVersion":1.5,"autosave":false,"autosaveInterval":5000,"autosaveHandle":null,"throttledSaves":true,"options":{"serializationMethod":"normal","destructureDelimiter":"$<\n"},"persistenceMethod":"fs","persistenceAdapter":null,"verbose":false,"events":{"init":[null],"loaded":[],"flushChanges":[],"close":[],"changes":[],"warning":[]},"ENV":"NODEJS"}