{"filename":"-94-42.75","collections":[{"name":"restaurants","data":[{"_id":"5c3d65bd3525a329e0c02e53","address":"528 2nd St","location":{"type":"Point","coordinates":[-93.9931963384151,42.4702230756262]},"isApproved":true,"items":[],"keys":["Chinese"],"lastUpdated":1547527612294,"name":"Chuong Garden","phone":"(515) 832-6288","price":"$","reviewCount":4,"reviewScore":3.5,"meta":{"revision":0,"created":1547531149499,"version":0},"$loki":1},{"_id":"5c3d65bd3525a329e0c13012","address":"602 G Ave","location":{"type":"Point","coordinates":[-93.8162616,42.4624196]},"isApproved":true,"items":[],"keys":["Pizza","Italian","Chicken Wings"],"lastUpdated":1547527612688,"name":"Pizza Hut","phone":"(319) 824-5443","price":"","reviewCount":3,"reviewScore":3.5,"meta":{"revision":0,"created":1547531149499,"version":0},"$loki":2},{"_id":"5c3d65bd3525a329e0c06702","address":"16250 N Ave","location":{"type":"Point","coordinates":[-93.8172438804933,42.466696946447]},"isApproved":true,"items":[],"keys":["Sandwiches","Fast Food"],"lastUpdated":1547527612378,"name":"Arby’s","phone":"(319) 824-2729","price":"","reviewCount":2,"reviewScore":1,"meta":{"revision":0,"created":1547531149499,"version":0},"$loki":3},{"_id":"5c3d65bd3525a329e0c0cc7c","address":"2401 Superior St","location":{"type":"Point","coordinates":[-93.8161822,42.4636483]},"isApproved":true,"items":[],"keys":["Italian","Pizza","Chicken Wings"],"lastUpdated":1547527612534,"name":"Pizza Hut","phone":"(515) 832-2552","price":"","reviewCount":1,"reviewScore":5,"meta":{"revision":0,"created":1547531149499,"version":0},"$loki":4},{"_id":"5c3d65bd3525a329e0c05efa","address":"720 Superior St","location":{"type":"Point","coordinates":[-93.8155862,42.4685719]},"isApproved":true,"items":[],"keys":["Fast Food","Sandwiches"],"lastUpdated":1547527612367,"name":"Subway","phone":"(515) 832-5332","price":"","reviewCount":1,"reviewScore":3,"meta":{"revision":0,"created":1547531149499,"version":0},"$loki":5},{"_id":"5c3d65bd3525a329e0c0ec67","address":"1914 Edgington Ave","location":{"type":"Point","coordinates":[-93.8173328262678,42.4692105865024]},"isApproved":true,"items":[],"keys":["Pizza"],"lastUpdated":1547527612582,"name":"Pizza Ranch","phone":"(641) 858-2323","price":"","reviewCount":1,"reviewScore":4,"meta":{"revision":0,"created":1547531149499,"version":0},"$loki":6},{"_id":"5c3d65bd3525a329e0c18979","address":"819 Main St","location":{"type":"Point","coordinates":[-93.8184071,42.469206]},"isApproved":true,"items":[],"keys":["Restaurants"],"lastUpdated":1547527612823,"name":"Ingalls Little House Cafe","phone":"(319) 983-2702","price":"$$","reviewCount":2,"reviewScore":4,"meta":{"revision":0,"created":1547531149499,"version":0},"$loki":7},{"_id":"5c3d65bd3525a329e0c05040","address":"609 2nd St","location":{"type":"Point","coordinates":[-93.8197884,42.4697013]},"isApproved":true,"items":[],"keys":["American (New)"],"lastUpdated":1547527612339,"name":"Lunch Box","phone":"(515) 832-1678","price":"$","reviewCount":5,"reviewScore":4.5,"meta":{"revision":0,"created":1547531149499,"version":0},"$loki":8},{"_id":"5c3d65bd3525a329e0c17e07","address":"719 Des Moines St","location":{"type":"Point","coordinates":[-93.8205129,42.4691398]},"isApproved":true,"items":[],"keys":["Coffee & Tea","Breakfast & Brunch","Cafes"],"lastUpdated":1547527612801,"name":"Mornin Glory Coffee","phone":"(515) 832-1897","price":"$","reviewCount":5,"reviewScore":5,"meta":{"revision":0,"created":1547531149499,"version":0},"$loki":9},{"_id":"5c3d65bd3525a329e0c14f52","address":"301 N Commercial Ave","location":{"type":"Point","coordinates":[-93.8212877,42.469704]},"isApproved":true,"items":[],"keys":["Restaurants"],"lastUpdated":1547527612736,"name":"Twiins Shoppe","phone":"(515) 448-4413","price":"","reviewCount":1,"reviewScore":4,"meta":{"revision":0,"created":1547531149499,"version":0},"$loki":10},{"_id":"5c3d65bd3525a329e0c068d4","address":"River Hills Plz","location":{"type":"Point","coordinates":[-93.821819,42.468751]},"isApproved":true,"items":[],"keys":["Fast Food","Sandwiches"],"lastUpdated":1547527612379,"name":"Subway","phone":"(641) 648-2531","price":"$","reviewCount":2,"reviewScore":3,"meta":{"revision":0,"created":1547531149499,"version":0},"$loki":11},{"_id":"5c3d65bd3525a329e0c16589","address":"1121 E 2nd St","location":{"type":"Point","coordinates":[-93.7951497,42.4694947]},"isApproved":true,"items":[],"keys":["Sports Bars","American (Traditional)","Lounges"],"lastUpdated":1547527612764,"name":"Grid Iron Grill & Sports Bar","phone":"(515) 832-2255","price":"$$","reviewCount":9,"reviewScore":4,"meta":{"revision":0,"created":1547531149499,"version":0},"$loki":12},{"_id":"5c3d65bd3525a329e0c0cef6","address":"605 W Elm Ave","location":{"type":"Point","coordinates":[-93.6857470569084,42.7759450577807]},"isApproved":true,"items":[],"keys":["Pizza"],"lastUpdated":1547527612535,"name":"Casey’s Carry Out Pizza","phone":"(712) 335-3237","price":"","reviewCount":1,"reviewScore":3,"meta":{"revision":0,"created":1547531149499,"version":0},"$loki":13},{"_id":"5c3d65bd3525a329e0c18ca1","address":"319 E Hwy 3","location":{"type":"Point","coordinates":[-93.7223876,42.7320563]},"isApproved":true,"items":[],"keys":["Pizza"],"lastUpdated":1547527612825,"name":"Casey’s Carry Out Pizza","phone":"(515) 825-3470","price":"","reviewCount":1,"reviewScore":3,"meta":{"revision":0,"created":1547531149499,"version":0},"$loki":14},{"_id":"5c3d65bd3525a329e0c016a9","address":"104 Central Ave E","location":{"type":"Point","coordinates":[-93.7324807,42.7313841]},"isApproved":true,"items":[],"keys":["Chinese"],"lastUpdated":1547527612250,"name":"Sam’s Chinese Kitchen","phone":"(515) 532-2989","price":"$","reviewCount":12,"reviewScore":4.5,"meta":{"revision":0,"created":1547531149499,"version":0},"$loki":15},{"_id":"5c3d65bd3525a329e0c03e78","address":"106 S Main St","location":{"type":"Point","coordinates":[-93.7331058,42.7313366]},"isApproved":true,"items":[],"keys":["Restaurants"],"lastUpdated":1547527612313,"name":"New Home Cafe","phone":"(515) 602-6386","price":"","reviewCount":2,"reviewScore":4.5,"meta":{"revision":0,"created":1547531149499,"version":0},"$loki":16},{"_id":"5c3d65bd3525a329e0c087db","address":"1006 Central Ave W","location":{"type":"Point","coordinates":[-93.7331356,42.7314404]},"isApproved":true,"items":[],"keys":["Breakfast & Brunch"],"lastUpdated":1547527612428,"name":"Snack Village","phone":"(515) 532-2558","price":"","reviewCount":1,"reviewScore":5,"meta":{"revision":0,"created":1547531149499,"version":0},"$loki":17},{"_id":"5c3d65bd3525a329e0c0476b","address":"118 N Main St","location":{"type":"Point","coordinates":[-93.7328718,42.7322149]},"isApproved":true,"items":[],"keys":["American (New)","Breakfast & Brunch","Coffee & Tea"],"lastUpdated":1547527612329,"name":"Grounded","phone":"(515) 602-6212","price":"$","reviewCount":12,"reviewScore":4.5,"meta":{"revision":0,"created":1547531149499,"version":0},"$loki":18},{"_id":"5c3d65bd3525a329e0c08e16","address":"223 N Main St","location":{"type":"Point","coordinates":[-93.7328311,42.7327837]},"isApproved":true,"items":[],"keys":["Sports Bars","Italian"],"lastUpdated":1547527612438,"name":"Fuel","phone":"(515) 532-3835","price":"$$","reviewCount":13,"reviewScore":4.5,"meta":{"revision":0,"created":1547531149499,"version":0},"$loki":19},{"_id":"5c3d65bd3525a329e0c1b3ea","address":"903 Central Ave E","location":{"type":"Point","coordinates":[-93.7370427,42.7319422]},"isApproved":true,"items":[],"keys":["Pizza"],"lastUpdated":1547527612885,"name":"Casey’s Carry Out Pizza","phone":"(515) 532-3030","price":"","reviewCount":2,"reviewScore":3.5,"meta":{"revision":0,"created":1547531149499,"version":0},"$loki":20},{"_id":"5c3d65bd3525a329e0c15323","address":"222 N Ann St","location":{"type":"Point","coordinates":[-94.04949,42.690221]},"isApproved":true,"items":[],"keys":["American (New)"],"lastUpdated":1547527612738,"name":"Unkie’s Entertainer","phone":"(515) 378-3309","price":"$$","reviewCount":14,"reviewScore":4,"meta":{"revision":0,"created":1547531149499,"version":0},"$loki":21},{"_id":"5c3d65bd3525a329e0c16024","address":"102 S Main St","location":{"type":"Point","coordinates":[-93.9169362,42.7313185]},"isApproved":true,"items":[],"keys":["Pizza"],"lastUpdated":1547527612756,"name":"Pizza Ranch","phone":"(515) 532-3215","price":"$$","reviewCount":5,"reviewScore":4.5,"meta":{"revision":0,"created":1547531149499,"version":0},"$loki":22},{"_id":"5c3d65bd3525a329e0c142a8","address":"1403 Superior St","location":{"type":"Point","coordinates":[-93.9047962,42.6664032]},"isApproved":true,"items":[],"keys":["Restaurants"],"lastUpdated":1547527612713,"name":"Dairy Queen Store","phone":"(515) 832-2051","price":"","reviewCount":2,"reviewScore":3,"meta":{"revision":0,"created":1547531149499,"version":0},"$loki":23},{"_id":"5c3d65bd3525a329e0c1a3a6","address":"705 S Oak St","location":{"type":"Point","coordinates":[-93.9040799,42.6584895]},"isApproved":true,"items":[],"keys":["Pizza","Italian","Chicken Wings"],"lastUpdated":1547527612859,"name":"Pizza Hut","phone":"(641) 648-4628","price":"","reviewCount":1,"reviewScore":4,"meta":{"revision":0,"created":1547531149499,"version":0},"$loki":24},{"_id":"5c3d65bd3525a329e0c05ee7","address":"Claond Country Club","location":{"type":"Point","coordinates":[-93.7446595,42.7313891]},"isApproved":true,"items":[],"keys":["Restaurants"],"lastUpdated":1547527612367,"name":"Clarmond At Water’s Edge","phone":"","price":"$$","reviewCount":1,"reviewScore":4,"meta":{"revision":0,"created":1547531149499,"version":0},"$loki":25},{"_id":"5c3d65bd3525a329e0c17c5d","address":"17 DeWitt St","location":{"type":"Point","coordinates":[-94.084455,42.913125]},"isApproved":true,"items":[],"keys":["Steakhouses"],"lastUpdated":1547527612800,"name":"The Handlebar Restaurant","phone":"(515) 882-9024","price":"$$","reviewCount":1,"reviewScore":5,"meta":{"revision":0,"created":1547531149499,"version":0},"$loki":26},{"_id":"5c3d65bd3525a329e0c1b275","address":"","location":{"type":"Point","coordinates":[-94.0845981,42.9082323]},"isApproved":true,"items":[],"keys":["Pizza","Pubs"],"lastUpdated":1547527612878,"name":"Flip Side Pizza And Pub","phone":"","price":"","reviewCount":1,"reviewScore":5,"meta":{"revision":0,"created":1547531149499,"version":0},"$loki":27},{"_id":"5c3d65bd3525a329e0c1a566","address":"607 13th St N","location":{"type":"Point","coordinates":[-94.226684,42.7283369416151]},"isApproved":true,"items":[],"keys":["Italian","Pizza"],"lastUpdated":1547527612860,"name":"Pasquale’s Italian Restaurants","phone":"(515) 332-1736","price":"$$","reviewCount":14,"reviewScore":4.5,"meta":{"revision":0,"created":1547531149499,"version":0},"$loki":28},{"_id":"5c3d65bd3525a329e0c00a38","address":"1203 10th Ave N","location":{"type":"Point","coordinates":[-94.2263271,42.7322691]},"isApproved":true,"items":[],"keys":["Fast Food","American (Traditional)"],"lastUpdated":1547527612230,"name":"Hardee’s","phone":"(515) 332-5626","price":"$","reviewCount":3,"reviewScore":2.5,"meta":{"revision":0,"created":1547531149499,"version":0},"$loki":29},{"_id":"5c3d65bd3525a329e0c0645c","address":"1010 13th St N","location":{"type":"Point","coordinates":[-94.227382,42.733476]},"isApproved":true,"items":[],"keys":["Coffee & Tea","Breakfast & Brunch"],"lastUpdated":1547527612371,"name":"Caribbean Coffeehouse","phone":"(515) 332-5282","price":"","reviewCount":2,"reviewScore":3.5,"meta":{"revision":0,"created":1547531149499,"version":0},"$loki":30},{"_id":"5c3d65bd3525a329e0c01a50","address":"504 13th St N","location":{"type":"Point","coordinates":[-94.227182,42.726807]},"isApproved":true,"items":[],"keys":["Diners"],"lastUpdated":1547527612257,"name":"Backseat Diner Restaurant","phone":"(515) 332-1336","price":"$$","reviewCount":5,"reviewScore":3.5,"meta":{"revision":0,"created":1547531149499,"version":0},"$loki":31},{"_id":"5c3d65bd3525a329e0c0d983","address":"600 13th St SW","location":{"type":"Point","coordinates":[-94.2275185,42.7142934]},"isApproved":true,"items":[],"keys":["American (Traditional)"],"lastUpdated":1547527612555,"name":"Family Table","phone":"(515) 332-2123","price":"","reviewCount":1,"reviewScore":3,"meta":{"revision":0,"created":1547531149499,"version":0},"$loki":32},{"_id":"5c3d65bd3525a329e0c050ee","address":"600 13th St S","location":{"type":"Point","coordinates":[-94.2275285,42.7143063]},"isApproved":true,"items":[],"keys":["Steakhouses","Breakfast & Brunch"],"lastUpdated":1547527612340,"name":"Miller’s Landing","phone":"(515) 332-2123","price":"$$","reviewCount":9,"reviewScore":4.5,"meta":{"revision":0,"created":1547531149499,"version":0},"$loki":33},{"_id":"5c3d65bd3525a329e0c005f2","address":"607 Summers Ave","location":{"type":"Point","coordinates":[-94.2152402,42.7208047]},"isApproved":true,"items":[],"keys":["Mexican"],"lastUpdated":1547527612227,"name":"El sol de México Mexican Bar & Grill","phone":"(515) 604-6370","price":"","reviewCount":1,"reviewScore":4,"meta":{"revision":0,"created":1547531149499,"version":0},"$loki":34},{"_id":"5c3d65bd3525a329e0c192b2","address":"612 Sumner Ave","location":{"type":"Point","coordinates":[-94.2166372,42.7207361]},"isApproved":true,"items":[],"keys":["Chinese"],"lastUpdated":1547527612833,"name":"Chang’s Chinese Kitchen","phone":"(515) 604-6252","price":"","reviewCount":2,"reviewScore":3.5,"meta":{"revision":0,"created":1547531149499,"version":0},"$loki":35},{"_id":"5c3d65bd3525a329e0c19978","address":"716 Sumner Ave","location":{"type":"Point","coordinates":[-94.2181586,42.7207564]},"isApproved":true,"items":[],"keys":["Sports Bars","American (Traditional)"],"lastUpdated":1547527612843,"name":"Gordys at Rustix","phone":"(515) 332-1441","price":"","reviewCount":4,"reviewScore":4,"meta":{"revision":0,"created":1547531149499,"version":0},"$loki":36},{"_id":"5c3d65bd3525a329e0c1b3f5","address":"507 Main St","location":{"type":"Point","coordinates":[-94.200104,42.721559]},"isApproved":true,"items":[],"keys":["Barbeque"],"lastUpdated":1547527612885,"name":"Vinny’s Bbq","phone":"(515) 332-2046","price":"$$","reviewCount":5,"reviewScore":4,"meta":{"revision":0,"created":1547531149499,"version":0},"$loki":37}],"idIndex":[1,2,3,4,5,6,7,8,9,10,11,12,13,14,15,16,17,18,19,20,21,22,23,24,25,26,27,28,29,30,31,32,33,34,35,36,37],"binaryIndices":{},"constraints":null,"uniqueNames":[],"transforms":{},"objType":"restaurants","dirty":true,"cachedIndex":null,"cachedBinaryIndex":null,"cachedData":null,"adaptiveBinaryIndices":true,"transactional":false,"cloneObjects":false,"cloneMethod":"parse-stringify","asyncListeners":false,"disableMeta":false,"disableChangesApi":true,"disableDeltaChangesApi":true,"autoupdate":false,"serializableIndices":true,"ttl":null,"maxId":37,"DynamicViews":[],"events":{"insert":[],"update":[],"pre-insert":[],"pre-update":[],"close":[],"flushbuffer":[],"error":[],"delete":[null],"warning":[null]},"changes":[]}],"databaseVersion":1.5,"engineVersion":1.5,"autosave":false,"autosaveInterval":5000,"autosaveHandle":null,"throttledSaves":true,"options":{"serializationMethod":"normal","destructureDelimiter":"$<\n"},"persistenceMethod":"fs","persistenceAdapter":null,"verbose":false,"events":{"init":[null],"loaded":[],"flushChanges":[],"close":[],"changes":[],"warning":[]},"ENV":"NODEJS"}