{"filename":"-94.5-31","collections":[{"name":"restaurants","data":[{"_id":"5c3d65bd3525a329e0c15688","address":"Old Hwy 190-F M 2457","location":{"type":"Point","coordinates":[-94.4216508851245,30.9142222421372]},"isApproved":true,"items":[],"keys":["Cafes"],"lastUpdated":1547527612746,"name":"Pitt-Stop Cafe","phone":"(936) 967-5220","price":"","reviewCount":1,"reviewScore":5,"meta":{"revision":0,"created":1547531151461,"version":0},"$loki":1},{"_id":"5c3d65bd3525a329e0c1852e","address":"17091 N Hwy 75","location":{"type":"Point","coordinates":[-94.421493,30.905335]},"isApproved":true,"items":[],"keys":["Seafood","Breakfast & Brunch","American (Traditional)"],"lastUpdated":1547527612815,"name":"Fish Pond Restaurant","phone":"(936) 344-8800","price":"$$","reviewCount":75,"reviewScore":4.5,"meta":{"revision":0,"created":1547531151461,"version":0},"$loki":2},{"_id":"5c3d65bd3525a329e0c0ac99","address":"114 N Robb","location":{"type":"Point","coordinates":[-94.4238931,30.9078036]},"isApproved":true,"items":[],"keys":["Cafes"],"lastUpdated":1547527612490,"name":"Trinity Cafe","phone":"(936) 594-2804","price":"$","reviewCount":15,"reviewScore":3.5,"meta":{"revision":0,"created":1547531151461,"version":0},"$loki":3},{"_id":"5c3d65bd3525a329e0c0ce98","address":"923 S Home St","location":{"type":"Point","coordinates":[-94.8271547,30.9817023]},"isApproved":true,"items":[],"keys":["American (Traditional)"],"lastUpdated":1547527612534,"name":"Johnson’s Cafe","phone":"(936) 398-2706","price":"$","reviewCount":5,"reviewScore":5,"meta":{"revision":0,"created":1547531151461,"version":0},"$loki":4},{"_id":"5c3d65bd3525a329e0c0caae","address":"849 Alamo St","location":{"type":"Point","coordinates":[-94.827485,30.986386]},"isApproved":true,"items":[],"keys":["American (Traditional)"],"lastUpdated":1547527612533,"name":"Grand Central Station","phone":"(936) 594-1500","price":"","reviewCount":1,"reviewScore":4,"meta":{"revision":0,"created":1547531151461,"version":0},"$loki":5},{"_id":"5c3d65bd3525a329e0c10b36","address":"421 S Washington Ave","location":{"type":"Point","coordinates":[-94.4140695,30.7737202]},"isApproved":true,"items":[],"keys":["Mexican"],"lastUpdated":1547527612632,"name":"La Casita Mexican Restauraunt","phone":"(936) 328-5833","price":"$","reviewCount":18,"reviewScore":3,"meta":{"revision":0,"created":1547531151461,"version":0},"$loki":6},{"_id":"5c3d65bd3525a329e0bff6aa","address":"6505D Fm 1374 Rd","location":{"type":"Point","coordinates":[-94.4154893644963,30.7686035664607]},"isApproved":true,"items":[],"keys":["Fast Food"],"lastUpdated":1547527612217,"name":"Burger King","phone":"(936) 344-8899","price":"","reviewCount":4,"reviewScore":3,"meta":{"revision":0,"created":1547531151461,"version":0},"$loki":7},{"_id":"5c3d65bd3525a329e0c18e89","address":"1525 W Church St","location":{"type":"Point","coordinates":[-94.4154961,30.767907]},"isApproved":true,"items":[],"keys":["Fast Food","Burgers"],"lastUpdated":1547527612831,"name":"Burger King","phone":"(936) 327-3081","price":"$","reviewCount":7,"reviewScore":2,"meta":{"revision":0,"created":1547531151461,"version":0},"$loki":8},{"_id":"5c3d65bd3525a329e0c113c1","address":"1603 W Church St","location":{"type":"Point","coordinates":[-94.414169050915,30.768385]},"isApproved":true,"items":[],"keys":["Chicken Wings","Fast Food"],"lastUpdated":1547527612642,"name":"Popeyes Louisiana Kitchen","phone":"(936) 327-8904","price":"$$","reviewCount":8,"reviewScore":2.5,"meta":{"revision":0,"created":1547531151461,"version":0},"$loki":9},{"_id":"5c3d65bd3525a329e0c15609","address":"377 FM 2457","location":{"type":"Point","coordinates":[-94.4155765,30.7674643]},"isApproved":true,"items":[],"keys":["Burgers"],"lastUpdated":1547527612746,"name":"L&L Drive Thru Burgers","phone":"(936) 967-4143","price":"","reviewCount":4,"reviewScore":3.5,"meta":{"revision":0,"created":1547531151461,"version":0},"$loki":10},{"_id":"5c3d65bd3525a329e0c0e1a8","address":"1110 S Magnolia","location":{"type":"Point","coordinates":[-94.415343,30.765225]},"isApproved":true,"items":[],"keys":["Pizza","Italian","Chicken Wings"],"lastUpdated":1547527612565,"name":"Pizza Hut","phone":"(409) 283-3332","price":"","reviewCount":2,"reviewScore":3.5,"meta":{"revision":0,"created":1547531151461,"version":0},"$loki":11},{"_id":"5c3d65bd3525a329e0c17cd4","address":"103 S Robb St","location":{"type":"Point","coordinates":[-94.4165315,30.7639735]},"isApproved":true,"items":[],"keys":["Mexican"],"lastUpdated":1547527612800,"name":"Taqueria San Luis","phone":"(936) 594-0073","price":"","reviewCount":2,"reviewScore":2,"meta":{"revision":0,"created":1547531151461,"version":0},"$loki":12},{"_id":"5c3d65bd3525a329e0c0e125","address":"505 S Robb St","location":{"type":"Point","coordinates":[-94.416437,30.764427]},"isApproved":true,"items":[],"keys":["Fast Food","Burgers","Coffee & Tea"],"lastUpdated":1547527612565,"name":"McDonald’s","phone":"(936) 594-0148","price":"","reviewCount":6,"reviewScore":1.5,"meta":{"revision":0,"created":1547531151461,"version":0},"$loki":13},{"_id":"5c3d65bd3525a329e0c167b2","address":"2615 Montgomery Rd","location":{"type":"Point","coordinates":[-94.4163518692683,30.7626972379515]},"isApproved":true,"items":[],"keys":["Food Trucks","Cajun/Creole"],"lastUpdated":1547527612771,"name":"Arnaud’s Cajun Kitchen","phone":"(936) 239-1139","price":"","reviewCount":15,"reviewScore":5,"meta":{"revision":0,"created":1547531151461,"version":0},"$loki":14},{"_id":"5c3d65bd3525a329e0c1abd8","address":"13504 U S 190","location":{"type":"Point","coordinates":[-94.4311775855228,30.7394079914254]},"isApproved":true,"items":[],"keys":["Pizza","Italian","Sandwiches"],"lastUpdated":1547527612869,"name":"Simple Simon’s Pizza","phone":"(936) 646-7743","price":"$$","reviewCount":12,"reviewScore":3,"meta":{"revision":0,"created":1547531151461,"version":0},"$loki":15},{"_id":"5c3d65bd3525a329e0c1a22e","address":"195 Pr 6000","location":{"type":"Point","coordinates":[-94.434015,30.774906]},"isApproved":true,"items":[],"keys":["American (Traditional)"],"lastUpdated":1547527612858,"name":"Pickett House-Heritage Museum","phone":"(409) 283-3371","price":"$$","reviewCount":35,"reviewScore":4,"meta":{"revision":0,"created":1547531151461,"version":0},"$loki":16},{"_id":"5c3d65bd3525a329e0c112a8","address":"313 E Church St","location":{"type":"Point","coordinates":[-94.4151883037991,30.7767038360776]},"isApproved":true,"items":[],"keys":["Fast Food"],"lastUpdated":1547527612642,"name":"Jack in the Box","phone":"(936) 327-8225","price":"$","reviewCount":7,"reviewScore":2.5,"meta":{"revision":0,"created":1547531151461,"version":0},"$loki":17},{"_id":"5c3d65bd3525a329e0c0c25c","address":"1221 N Washington Ave","location":{"type":"Point","coordinates":[-94.4146969071937,30.7761509881024]},"isApproved":true,"items":[],"keys":["Pizza","Italian","Chicken Wings"],"lastUpdated":1547527612517,"name":"Pizza Hut","phone":"(936) 327-3115","price":"","reviewCount":6,"reviewScore":3,"meta":{"revision":0,"created":1547531151461,"version":0},"$loki":18},{"_id":"5c3d65bd3525a329e0bffe91","address":"100 Southpoint Lp","location":{"type":"Point","coordinates":[-94.4152124317473,30.7779741150567]},"isApproved":true,"items":[],"keys":["Mexican","Tex-Mex"],"lastUpdated":1547527612222,"name":"El Burrito Mexican Restaurant","phone":"(936) 327-3770","price":"$","reviewCount":27,"reviewScore":2.5,"meta":{"revision":0,"created":1547531151461,"version":0},"$loki":19},{"_id":"5c3d65bd3525a329e0c0f89d","address":"4591 US Hwy 59 S","location":{"type":"Point","coordinates":[-94.4072120636702,30.776952622276]},"isApproved":true,"items":[],"keys":["American (Traditional)","Breakfast & Brunch"],"lastUpdated":1547527612600,"name":"Lone Star Charlie’s Family Restaurant","phone":"(936) 365-3017","price":"","reviewCount":3,"reviewScore":3,"meta":{"revision":0,"created":1547531151461,"version":0},"$loki":20}],"idIndex":[1,2,3,4,5,6,7,8,9,10,11,12,13,14,15,16,17,18,19,20],"binaryIndices":{},"constraints":null,"uniqueNames":[],"transforms":{},"objType":"restaurants","dirty":true,"cachedIndex":null,"cachedBinaryIndex":null,"cachedData":null,"adaptiveBinaryIndices":true,"transactional":false,"cloneObjects":false,"cloneMethod":"parse-stringify","asyncListeners":false,"disableMeta":false,"disableChangesApi":true,"disableDeltaChangesApi":true,"autoupdate":false,"serializableIndices":true,"ttl":null,"maxId":20,"DynamicViews":[],"events":{"insert":[],"update":[],"pre-insert":[],"pre-update":[],"close":[],"flushbuffer":[],"error":[],"delete":[null],"warning":[null]},"changes":[]}],"databaseVersion":1.5,"engineVersion":1.5,"autosave":false,"autosaveInterval":5000,"autosaveHandle":null,"throttledSaves":true,"options":{"serializationMethod":"normal","destructureDelimiter":"$<\n"},"persistenceMethod":"fs","persistenceAdapter":null,"verbose":false,"events":{"init":[null],"loaded":[],"flushChanges":[],"close":[],"changes":[],"warning":[]},"ENV":"NODEJS"}