{"filename":"-94.25-39.5","collections":[{"name":"restaurants","data":[{"_id":"5c3d65bd3525a329e0c09e49","address":"801 Commercial St","location":{"type":"Point","coordinates":[-94.5695148,39.4977323]},"isApproved":true,"items":[],"keys":["Mexican"],"lastUpdated":1547527612471,"name":"Maria’s Mexican Restaurant","phone":"(913) 367-5556","price":"$$","reviewCount":23,"reviewScore":3.5,"meta":{"revision":0,"created":1547531151277,"version":0},"$loki":1},{"_id":"5c3d65bd3525a329e0c12910","address":"4766 State Hwy Pp","location":{"type":"Point","coordinates":[-94.6328076,39.5048545]},"isApproved":true,"items":[],"keys":["Diners"],"lastUpdated":1547527612679,"name":"Betty’s Place","phone":"(816) 264-0141","price":"","reviewCount":10,"reviewScore":4.5,"meta":{"revision":0,"created":1547531151277,"version":0},"$loki":2},{"_id":"5c3d65bd3525a329e0c03fa4","address":"800 W 184th St","location":{"type":"Point","coordinates":[-94.4470962,39.5652723]},"isApproved":true,"items":[],"keys":["American (Traditional)","Pubs"],"lastUpdated":1547527612319,"name":"Mulligans Eatery and Pub","phone":"(816) 296-3301","price":"$$","reviewCount":4,"reviewScore":4,"meta":{"revision":0,"created":1547531151277,"version":0},"$loki":3},{"_id":"5c3d65bd3525a329e0c05181","address":"1303 Grand Dd SE","location":{"type":"Point","coordinates":[-94.4474349,39.5659421]},"isApproved":true,"items":[],"keys":["American (Traditional)","Sports Bars"],"lastUpdated":1547527612340,"name":"Big Rigs Family Restaurant","phone":"(818) 238-0582","price":"$","reviewCount":5,"reviewScore":4,"meta":{"revision":0,"created":1547531151277,"version":0},"$loki":4},{"_id":"5c3d65bd3525a329e0c1b55e","address":"7749 NW Prairie View Rd","location":{"type":"Point","coordinates":[-94.5145298,39.4275888]},"isApproved":true,"items":[],"keys":["Desserts","Breakfast & Brunch","American (Traditional)"],"lastUpdated":1547527612886,"name":"BC Bistro","phone":"(816) 587-0899","price":"$$","reviewCount":131,"reviewScore":4.5,"meta":{"revision":0,"created":1547531151277,"version":0},"$loki":5},{"_id":"5c3d65bd3525a329e0c0af14","address":"918 S 291st Hwy","location":{"type":"Point","coordinates":[-94.4240525265289,39.2686111197526]},"isApproved":true,"items":[],"keys":["Fast Food","Burgers","Coffee & Tea"],"lastUpdated":1547527612491,"name":"McDonald’s","phone":"(816) 792-1122","price":"$","reviewCount":15,"reviewScore":1.5,"meta":{"revision":0,"created":1547531151277,"version":0},"$loki":6},{"_id":"5c3d65bd3525a329e0c01e29","address":"18700 E 38th Ter S","location":{"type":"Point","coordinates":[-94.4043754,39.2528162]},"isApproved":true,"items":[],"keys":["American (Traditional)","Bars"],"lastUpdated":1547527612260,"name":"54th Street Grill & Bar","phone":"(816) 795-7077","price":"$$","reviewCount":86,"reviewScore":3.5,"meta":{"revision":0,"created":1547531151277,"version":0},"$loki":7},{"_id":"5c3d65bd3525a329e0c0645a","address":"8541 NW Prairie View Rd","location":{"type":"Point","coordinates":[-94.4043754,39.2528162]},"isApproved":true,"items":[],"keys":["Mexican","Tex-Mex"],"lastUpdated":1547527612371,"name":"Abuelo’s","phone":"(816) 584-8557","price":"$$","reviewCount":138,"reviewScore":3.5,"meta":{"revision":0,"created":1547531151277,"version":0},"$loki":8},{"_id":"5c3d65bd3525a329e0c142a2","address":"5201 NE Antioch Rd","location":{"type":"Point","coordinates":[-94.4159985,39.2450426]},"isApproved":true,"items":[],"keys":["Chicken Wings","Fast Food","Salad"],"lastUpdated":1547527612713,"name":"Zaxby’s Chicken Fingers & Buffalo Wings","phone":"(816) 326-8724","price":"","reviewCount":10,"reviewScore":3.5,"meta":{"revision":0,"created":1547531151277,"version":0},"$loki":9},{"_id":"5c3d65bd3525a329e0c1482d","address":"806 Slumber Ln","location":{"type":"Point","coordinates":[-94.4159985,39.2450426]},"isApproved":true,"items":[],"keys":["Fast Food","Chicken Wings","Chicken Shop"],"lastUpdated":1547527612727,"name":"KFC","phone":"(816) 776-5900","price":"$","reviewCount":9,"reviewScore":3.5,"meta":{"revision":0,"created":1547531151277,"version":0},"$loki":10},{"_id":"5c3d65bd3525a329e0c00de6","address":"6411 NW 72nd St","location":{"type":"Point","coordinates":[-94.4209218,39.2462477]},"isApproved":true,"items":[],"keys":["Chinese"],"lastUpdated":1547527612237,"name":"Ironwok","phone":"(816) 587-8886","price":"$","reviewCount":40,"reviewScore":3.5,"meta":{"revision":0,"created":1547531151277,"version":0},"$loki":11},{"_id":"5c3d65bd3525a329e0c08f7d","address":"6 E Franklin St","location":{"type":"Point","coordinates":[-94.4209218,39.2462477]},"isApproved":true,"items":[],"keys":["Coffee & Tea","Breakfast & Brunch"],"lastUpdated":1547527612438,"name":"Morning Day Cafe","phone":"(816) 883-8258","price":"$","reviewCount":121,"reviewScore":4,"meta":{"revision":0,"created":1547531151277,"version":0},"$loki":12},{"_id":"5c3d65bd3525a329e0c0aefc","address":"321 SE Main St","location":{"type":"Point","coordinates":[-94.4218529015779,39.2458679471746]},"isApproved":true,"items":[],"keys":["Bars","Tacos","American (Traditional)"],"lastUpdated":1547527612491,"name":"Stuey McBrew’s Tavern and Tables","phone":"(816) 600-5560","price":"$$","reviewCount":105,"reviewScore":4,"meta":{"revision":0,"created":1547531151277,"version":0},"$loki":13},{"_id":"5c3d65bd3525a329e0c108a6","address":"11200 NW Ambassador Dr","location":{"type":"Point","coordinates":[-94.4218529015779,39.2458679471746]},"isApproved":true,"items":[],"keys":["Delis","Pizza","Sandwiches"],"lastUpdated":1547527612625,"name":"U-Gene’s Deli & Pizza","phone":"(816) 270-1480","price":"$","reviewCount":50,"reviewScore":3.5,"meta":{"revision":0,"created":1547531151277,"version":0},"$loki":14},{"_id":"5c3d65bd3525a329e0c0555d","address":"10440 E US Highway 40","location":{"type":"Point","coordinates":[-94.420108,39.245836]},"isApproved":true,"items":[],"keys":["Barbeque","Sandwiches"],"lastUpdated":1547527612347,"name":"Gates on East 40 Hwy","phone":"(816) 353-5880","price":"$$","reviewCount":119,"reviewScore":3.5,"meta":{"revision":0,"created":1547531151277,"version":0},"$loki":15},{"_id":"5c3d65bd3525a329e0c08826","address":"610 Commercial St","location":{"type":"Point","coordinates":[-94.420108,39.245836]},"isApproved":true,"items":[],"keys":["Pizza"],"lastUpdated":1547527612428,"name":"Gambino’s Pizza","phone":"(913) 367-4100","price":"$","reviewCount":7,"reviewScore":3.5,"meta":{"revision":0,"created":1547531151277,"version":0},"$loki":16},{"_id":"5c3d65bd3525a329e0c03009","address":"6600 Blue Ridge Blvd","location":{"type":"Point","coordinates":[-94.4206077,39.2465941]},"isApproved":true,"items":[],"keys":["Bars","American (Traditional)"],"lastUpdated":1547527612295,"name":"Dirty Bird Bar & Grill","phone":"(816) 353-7465","price":"$","reviewCount":14,"reviewScore":3.5,"meta":{"revision":0,"created":1547531151277,"version":0},"$loki":17},{"_id":"5c3d65bd3525a329e0c142a4","address":"484 N Main St","location":{"type":"Point","coordinates":[-94.4206077,39.2465941]},"isApproved":true,"items":[],"keys":["American (Traditional)","Breakfast & Brunch","Burgers"],"lastUpdated":1547527612713,"name":"IHOP","phone":"(913) 727-1111","price":"$$","reviewCount":30,"reviewScore":2.5,"meta":{"revision":0,"created":1547531151277,"version":0},"$loki":18},{"_id":"5c3d65bd3525a329e0c01164","address":"","location":{"type":"Point","coordinates":[-94.420507,39.246716]},"isApproved":true,"items":[],"keys":["Food Delivery Services","Vegan","Caterers"],"lastUpdated":1547527612239,"name":"Organic Soul KC","phone":"(816) 527-6838","price":"","reviewCount":2,"reviewScore":5,"meta":{"revision":0,"created":1547531151277,"version":0},"$loki":19},{"_id":"5c3d65bd3525a329e0c0e515","address":"301 N M 291 Hwy","location":{"type":"Point","coordinates":[-94.420059,39.24706]},"isApproved":true,"items":[],"keys":["American (Traditional)"],"lastUpdated":1547527612573,"name":"Little Richard’s Restaurant","phone":"(816) 257-7295","price":"$","reviewCount":23,"reviewScore":3.5,"meta":{"revision":0,"created":1547531151277,"version":0},"$loki":20},{"_id":"5c3d65bd3525a329e0c10859","address":"2437 NW Prairie View Rd","location":{"type":"Point","coordinates":[-94.420059,39.24706]},"isApproved":true,"items":[],"keys":["Pizza"],"lastUpdated":1547527612620,"name":"Pizza Shoppe","phone":"(816) 858-5333","price":"$$","reviewCount":22,"reviewScore":3,"meta":{"revision":0,"created":1547531151277,"version":0},"$loki":21},{"_id":"5c3d65bd3525a329e0c0353b","address":"19520 E US Hwy 40","location":{"type":"Point","coordinates":[-94.4200262330843,39.246886606557]},"isApproved":true,"items":[],"keys":["Mexican"],"lastUpdated":1547527612303,"name":"California Taco Shop","phone":"(816) 503-6767","price":"$","reviewCount":55,"reviewScore":3,"meta":{"revision":0,"created":1547531151277,"version":0},"$loki":22},{"_id":"5c3d65bd3525a329e0c0d613","address":"211 NW Barry Rd","location":{"type":"Point","coordinates":[-94.4200262330843,39.246886606557]},"isApproved":true,"items":[],"keys":["Breakfast & Brunch","Seafood","American (Traditional)"],"lastUpdated":1547527612548,"name":"Red Apple Diner","phone":"(816) 982-9902","price":"","reviewCount":36,"reviewScore":3,"meta":{"revision":0,"created":1547531151277,"version":0},"$loki":23},{"_id":"5c3d65bd3525a329e0c059cf","address":"114 N Liberty St","location":{"type":"Point","coordinates":[-94.418349,39.2463916]},"isApproved":true,"items":[],"keys":["Hot Dogs"],"lastUpdated":1547527612355,"name":"Up Dog","phone":"(816) 836-2900","price":"$","reviewCount":33,"reviewScore":3.5,"meta":{"revision":0,"created":1547531151277,"version":0},"$loki":24},{"_id":"5c3d65bd3525a329e0c1aac3","address":"842 S State Rte 291","location":{"type":"Point","coordinates":[-94.4334232807159,39.2369514959818]},"isApproved":true,"items":[],"keys":["Sandwiches","Fast Food"],"lastUpdated":1547527612868,"name":"Subway","phone":"(816) 407-0800","price":"$","reviewCount":4,"reviewScore":1.5,"meta":{"revision":0,"created":1547531151277,"version":0},"$loki":25},{"_id":"5c3d65bd3525a329e0c03fb8","address":"1077 SW Highway 7","location":{"type":"Point","coordinates":[-94.4361373409629,39.2370626405046]},"isApproved":true,"items":[],"keys":["American (New)","Breakfast & Brunch","Cafes"],"lastUpdated":1547527612319,"name":"First Watch","phone":"(816) 427-7005","price":"","reviewCount":3,"reviewScore":2,"meta":{"revision":0,"created":1547531151277,"version":0},"$loki":26},{"_id":"5c3d65bd3525a329e0c0b129","address":"401 Regent St","location":{"type":"Point","coordinates":[-94.4361373409629,39.2370626405046]},"isApproved":true,"items":[],"keys":["American (New)","Bars"],"lastUpdated":1547527612497,"name":"Eighty-Eight At the Elms","phone":"","price":"$$","reviewCount":46,"reviewScore":3,"meta":{"revision":0,"created":1547531151277,"version":0},"$loki":27},{"_id":"5c3d65bd3525a329e0c18a9d","address":"615 S 291st Hwy","location":{"type":"Point","coordinates":[-94.4349467754364,39.2372020902761]},"isApproved":true,"items":[],"keys":["Fast Food","Burgers","Ice Cream & Frozen Yogurt"],"lastUpdated":1547527612823,"name":"Sonic Drive-In","phone":"(816) 792-8242","price":"$","reviewCount":10,"reviewScore":2.5,"meta":{"revision":0,"created":1547531151277,"version":0},"$loki":28},{"_id":"5c3d65bd3525a329e0c13c54","address":"101 E Battlefield Rd","location":{"type":"Point","coordinates":[-94.4350281,39.2386974]},"isApproved":true,"items":[],"keys":["Sandwiches","Fast Food"],"lastUpdated":1547527612705,"name":"Subway","phone":"(816) 566-0600","price":"","reviewCount":1,"reviewScore":1,"meta":{"revision":0,"created":1547531151277,"version":0},"$loki":29},{"_id":"5c3d65bd3525a329e0c034db","address":"219 SE Main St","location":{"type":"Point","coordinates":[-94.4349708,39.2390619]},"isApproved":true,"items":[],"keys":["Bars","Burgers","American (Traditional)"],"lastUpdated":1547527612303,"name":"The Peanut","phone":"(816) 524-9966","price":"$","reviewCount":43,"reviewScore":2.5,"meta":{"revision":0,"created":1547531151277,"version":0},"$loki":30},{"_id":"5c3d65bd3525a329e0c133da","address":"1001 Main St","location":{"type":"Point","coordinates":[-94.4349708,39.2390619]},"isApproved":true,"items":[],"keys":["Fast Food","Burgers","Ice Cream & Frozen Yogurt"],"lastUpdated":1547527612690,"name":"Sonic Drive-In","phone":"(913) 367-4878","price":"$","reviewCount":3,"reviewScore":3,"meta":{"revision":0,"created":1547531151277,"version":0},"$loki":31},{"_id":"5c3d65bd3525a329e0c0a568","address":"4400 NE Chouteau Trfy","location":{"type":"Point","coordinates":[-94.4381406,39.2401989]},"isApproved":true,"items":[],"keys":["Burgers","Fast Food","Coffee & Tea"],"lastUpdated":1547527612480,"name":"McDonald’s","phone":"(816) 453-4583","price":"$","reviewCount":9,"reviewScore":3,"meta":{"revision":0,"created":1547531151277,"version":0},"$loki":32},{"_id":"5c3d65bd3525a329e0c17dda","address":"300 SE 3rd","location":{"type":"Point","coordinates":[-94.4381406,39.2401989]},"isApproved":true,"items":[],"keys":["Fast Food","Burgers","Ice Cream & Frozen Yogurt"],"lastUpdated":1547527612801,"name":"Sonic Drive-In","phone":"(816) 525-6315","price":"$","reviewCount":8,"reviewScore":2,"meta":{"revision":0,"created":1547531151277,"version":0},"$loki":33},{"_id":"5c3d65bd3525a329e0c131a9","address":"530 NW State Route 7","location":{"type":"Point","coordinates":[-94.437624,39.241065]},"isApproved":true,"items":[],"keys":["Breakfast & Brunch"],"lastUpdated":1547527612689,"name":"The Big Biscuit","phone":"(816) 229-3108","price":"$","reviewCount":47,"reviewScore":3.5,"meta":{"revision":0,"created":1547531151277,"version":0},"$loki":34},{"_id":"5c3d65bd3525a329e0c1a053","address":"6304 N Oak","location":{"type":"Point","coordinates":[-94.437624,39.241065]},"isApproved":true,"items":[],"keys":["Barbeque","Smokehouse"],"lastUpdated":1547527612857,"name":"Smokehouse Bar-B-Que","phone":"(816) 454-4500","price":"$$","reviewCount":96,"reviewScore":3.5,"meta":{"revision":0,"created":1547531151277,"version":0},"$loki":35},{"_id":"5c3d65bd3525a329e0c035a6","address":"11700 E Hwy 24","location":{"type":"Point","coordinates":[-94.438328,39.240521]},"isApproved":true,"items":[],"keys":["Burgers","Fast Food","Coffee & Tea"],"lastUpdated":1547527612303,"name":"McDonald’s","phone":"(816) 254-8900","price":"$","reviewCount":4,"reviewScore":2.5,"meta":{"revision":0,"created":1547531151277,"version":0},"$loki":36},{"_id":"5c3d65bd3525a329e0c02704","address":"911 N Noland Rd","location":{"type":"Point","coordinates":[-94.4362695960262,39.2388125730431]},"isApproved":true,"items":[],"keys":["Fast Food","Sandwiches"],"lastUpdated":1547527612284,"name":"Subway","phone":"(816) 461-8948","price":"","reviewCount":5,"reviewScore":2.5,"meta":{"revision":0,"created":1547531151277,"version":0},"$loki":37},{"_id":"5c3d65bd3525a329e0c03a06","address":"2105 Taney St","location":{"type":"Point","coordinates":[-94.4362695960262,39.2388125730431]},"isApproved":true,"items":[],"keys":["Sandwiches","Fast Food"],"lastUpdated":1547527612311,"name":"Subway","phone":"(816) 471-6939","price":"$","reviewCount":3,"reviewScore":2.5,"meta":{"revision":0,"created":1547531151277,"version":0},"$loki":38},{"_id":"5c3d65bd3525a329e0c01dbd","address":"2221 Happy Ln","location":{"type":"Point","coordinates":[-94.436225,39.23872]},"isApproved":true,"items":[],"keys":["Burgers","Fast Food","Coffee & Tea"],"lastUpdated":1547527612260,"name":"McDonald’s","phone":"(816) 630-4121","price":"$","reviewCount":3,"reviewScore":2,"meta":{"revision":0,"created":1547531151277,"version":0},"$loki":39},{"_id":"5c3d65bd3525a329e0c0de20","address":"10101 NE Cookingham Rd","location":{"type":"Point","coordinates":[-94.436225,39.23872]},"isApproved":true,"items":[],"keys":["Fast Food","Burgers","Ice Cream & Frozen Yogurt"],"lastUpdated":1547527612563,"name":"Sonic Drive-In","phone":"(816) 407-9880","price":"$","reviewCount":5,"reviewScore":1.5,"meta":{"revision":0,"created":1547531151277,"version":0},"$loki":40},{"_id":"5c3d65bd3525a329e0c04d45","address":"1016 NW Woods Chapel Rd","location":{"type":"Point","coordinates":[-94.4364918621795,39.2377233044762]},"isApproved":true,"items":[],"keys":["Mexican"],"lastUpdated":1547527612338,"name":"Las Playas","phone":"(816) 224-4227","price":"$","reviewCount":28,"reviewScore":3,"meta":{"revision":0,"created":1547531151277,"version":0},"$loki":41},{"_id":"5c3d65bd3525a329e0c18cd2","address":"320 NE 72nd St","location":{"type":"Point","coordinates":[-94.4364918621795,39.2377233044762]},"isApproved":true,"items":[],"keys":["Bars","Pizza","Sandwiches"],"lastUpdated":1547527612825,"name":"Hard Core Cafe","phone":"(816) 897-0087","price":"$$","reviewCount":3,"reviewScore":3.5,"meta":{"revision":0,"created":1547531151277,"version":0},"$loki":42},{"_id":"5c3d65bd3525a329e0c10440","address":"3939 S Noland","location":{"type":"Point","coordinates":[-94.4391318,39.2396483]},"isApproved":true,"items":[],"keys":["American (Traditional)","Breakfast & Brunch","Diners"],"lastUpdated":1547527612618,"name":"Denny’s","phone":"(816) 836-2255","price":"$$","reviewCount":20,"reviewScore":2,"meta":{"revision":0,"created":1547531151277,"version":0},"$loki":43},{"_id":"5c3d65bd3525a329e0c16c0a","address":"510 Platte Clay Way","location":{"type":"Point","coordinates":[-94.4391318,39.2396483]},"isApproved":true,"items":[],"keys":["Fast Food","Burgers","Ice Cream & Frozen Yogurt"],"lastUpdated":1547527612774,"name":"Sonic Drive-In","phone":"(816) 628-5656","price":"$","reviewCount":3,"reviewScore":3.5,"meta":{"revision":0,"created":1547531151277,"version":0},"$loki":44},{"_id":"5c3d65bd3525a329e0c04509","address":"11320 E 23rd St","location":{"type":"Point","coordinates":[-94.4408606,39.2423777]},"isApproved":true,"items":[],"keys":["Burgers","Fast Food","Ice Cream & Frozen Yogurt"],"lastUpdated":1547527612322,"name":"Sonic Drive-In","phone":"(816) 254-6633","price":"$","reviewCount":8,"reviewScore":2,"meta":{"revision":0,"created":1547531151277,"version":0},"$loki":45},{"_id":"5c3d65bd3525a329e0c0d3a2","address":"2707 NW Vivion Rd","location":{"type":"Point","coordinates":[-94.4408606,39.2423777]},"isApproved":true,"items":[],"keys":["Fast Food","Burgers","Ice Cream & Frozen Yogurt"],"lastUpdated":1547527612546,"name":"Sonic Drive-In","phone":"(816) 741-1760","price":"$","reviewCount":10,"reviewScore":2.5,"meta":{"revision":0,"created":1547531151277,"version":0},"$loki":46},{"_id":"5c3d65bd3525a329e0c003c7","address":"500 W 92nd Hwy","location":{"type":"Point","coordinates":[-94.440606,39.242142]},"isApproved":true,"items":[],"keys":["Burgers","Fast Food","Coffee & Tea"],"lastUpdated":1547527612226,"name":"McDonald’s","phone":"(816) 628-3442","price":"$","reviewCount":11,"reviewScore":1.5,"meta":{"revision":0,"created":1547531151277,"version":0},"$loki":47},{"_id":"5c3d65bd3525a329e0c14450","address":"422 SE State Route 291","location":{"type":"Point","coordinates":[-94.440606,39.242142]},"isApproved":true,"items":[],"keys":["Pizza"],"lastUpdated":1547527612714,"name":"Papa John’s Pizza","phone":"(816) 554-2777","price":"$$","reviewCount":12,"reviewScore":2.5,"meta":{"revision":0,"created":1547531151277,"version":0},"$loki":48},{"_id":"5c3d65bd3525a329e0c109f7","address":"800 NE Coronado Dr","location":{"type":"Point","coordinates":[-94.4402798,39.2438784]},"isApproved":true,"items":[],"keys":["Bakeries","Cafes","Sandwiches"],"lastUpdated":1547527612626,"name":"Kneaders Bakery & Cafe","phone":"","price":"$","reviewCount":25,"reviewScore":4,"meta":{"revision":0,"created":1547531151277,"version":0},"$loki":49},{"_id":"5c3d65bd3525a329e0c1a207","address":"120 S 2nd St","location":{"type":"Point","coordinates":[-94.4402798,39.2438784]},"isApproved":true,"items":[],"keys":["American (Traditional)","Sports Bars"],"lastUpdated":1547527612858,"name":"Mueller’s Lockeroom","phone":"(913) 367-2727","price":"$$","reviewCount":11,"reviewScore":3,"meta":{"revision":0,"created":1547531151277,"version":0},"$loki":50},{"_id":"5c3d65bd3525a329e0c01c32","address":"3201 S 4th St","location":{"type":"Point","coordinates":[-94.4408003,39.2451952]},"isApproved":true,"items":[],"keys":["Fast Food","Seafood"],"lastUpdated":1547527612258,"name":"Long John Silver’s","phone":"(913) 682-5255","price":"","reviewCount":7,"reviewScore":2,"meta":{"revision":0,"created":1547531151277,"version":0},"$loki":51},{"_id":"5c3d65bd3525a329e0c0902c","address":"8320 N Church Rd","location":{"type":"Point","coordinates":[-94.4408003,39.2451952]},"isApproved":true,"items":[],"keys":["Chinese","American (New)","Buffets"],"lastUpdated":1547527612439,"name":"Joy Wok Super Buffet","phone":"(816) 415-9888","price":"$$","reviewCount":75,"reviewScore":2.5,"meta":{"revision":0,"created":1547531151277,"version":0},"$loki":52},{"_id":"5c3d65bd3525a329e0c1078c","address":"18921 E Valley View Pkwy","location":{"type":"Point","coordinates":[-94.4415643,39.2433434]},"isApproved":true,"items":[],"keys":["Pizza","Salad","Sandwiches"],"lastUpdated":1547527612619,"name":"Pie Five Pizza","phone":"(816) 886-0229","price":"$","reviewCount":29,"reviewScore":3.5,"meta":{"revision":0,"created":1547531151277,"version":0},"$loki":53},{"_id":"5c3d65bd3525a329e0c11d99","address":"7753 NW Prairie View Rd","location":{"type":"Point","coordinates":[-94.4415643,39.2433434]},"isApproved":true,"items":[],"keys":["Sushi Bars","Japanese","Steakhouses"],"lastUpdated":1547527612661,"name":"KC Sushi","phone":"(816) 741-8882","price":"$$","reviewCount":111,"reviewScore":4,"meta":{"revision":0,"created":1547531151277,"version":0},"$loki":54},{"_id":"5c3d65bd3525a329e0c10f51","address":"11541 E 63rd St","location":{"type":"Point","coordinates":[-94.441869,39.2429712]},"isApproved":true,"items":[],"keys":["Mexican"],"lastUpdated":1547527612640,"name":"Carlitos Mexican Food","phone":"(816) 358-5232","price":"$","reviewCount":13,"reviewScore":3,"meta":{"revision":0,"created":1547531151277,"version":0},"$loki":55},{"_id":"5c3d65bd3525a329e0c0a1c8","address":"9440 E State Rt 350","location":{"type":"Point","coordinates":[-94.442021,39.2423]},"isApproved":true,"items":[],"keys":["Chinese"],"lastUpdated":1547527612473,"name":"China Town","phone":"(816) 313-7800","price":"$","reviewCount":23,"reviewScore":4,"meta":{"revision":0,"created":1547531151277,"version":0},"$loki":56},{"_id":"5c3d65bd3525a329e0c03f52","address":"16235 E Hwy 24","location":{"type":"Point","coordinates":[-94.4423939,39.241588]},"isApproved":true,"items":[],"keys":["Burgers","Fast Food","Coffee & Tea"],"lastUpdated":1547527612319,"name":"McDonald’s","phone":"(816) 257-0700","price":"","reviewCount":4,"reviewScore":2,"meta":{"revision":0,"created":1547531151277,"version":0},"$loki":57},{"_id":"5c3d65bd3525a329e0c0ed38","address":"1406 Magnolia St W","location":{"type":"Point","coordinates":[-94.4423939,39.241588]},"isApproved":true,"items":[],"keys":["Chinese"],"lastUpdated":1547527612582,"name":"Peking Chinese Restaurant","phone":"(715) 369-1556","price":"$$","reviewCount":2,"reviewScore":2.5,"meta":{"revision":0,"created":1547531151277,"version":0},"$loki":58},{"_id":"5c3d65bd3525a329e0c0452f","address":"L P Cookingham Dr","location":{"type":"Point","coordinates":[-94.44272,39.242171]},"isApproved":true,"items":[],"keys":["Tex-Mex"],"lastUpdated":1547527612322,"name":"Cuervo Taqueria","phone":"","price":"","reviewCount":3,"reviewScore":1.5,"meta":{"revision":0,"created":1547531151277,"version":0},"$loki":59},{"_id":"5c3d65bd3525a329e0c11808","address":"2531 S State Route 291","location":{"type":"Point","coordinates":[-94.44272,39.242171]},"isApproved":true,"items":[],"keys":["Fast Food","Sandwiches"],"lastUpdated":1547527612650,"name":"Arbys","phone":"(816) 373-5236","price":"$","reviewCount":1,"reviewScore":4,"meta":{"revision":0,"created":1547531151277,"version":0},"$loki":60},{"_id":"5c3d65bd3525a329e0c161cd","address":"123 Crown Hill Rd","location":{"type":"Point","coordinates":[-94.4442680908848,39.2439111478575]},"isApproved":true,"items":[],"keys":["Sandwiches","Fast Food"],"lastUpdated":1547527612763,"name":"Subway","phone":"(816) 630-0959","price":"","reviewCount":3,"reviewScore":2.5,"meta":{"revision":0,"created":1547531151277,"version":0},"$loki":61},{"_id":"5c3d65bd3525a329e0c1a501","address":"1300-B South Noland Rd","location":{"type":"Point","coordinates":[-94.4442680908848,39.2439111478575]},"isApproved":true,"items":[],"keys":["Pizza","Italian","Chicken Wings"],"lastUpdated":1547527612859,"name":"Pizza Hut","phone":"(816) 254-4660","price":"","reviewCount":8,"reviewScore":1.5,"meta":{"revision":0,"created":1547531151277,"version":0},"$loki":62},{"_id":"5c3d65bd3525a329e0c17a1a","address":"506 SE M291 Hwy","location":{"type":"Point","coordinates":[-94.4442858,39.2449757]},"isApproved":true,"items":[],"keys":["Pizza"],"lastUpdated":1547527612793,"name":"Sarpino’s Pizzeria - Lee’s Summit","phone":"(816) 554-4884","price":"$$","reviewCount":39,"reviewScore":3.5,"meta":{"revision":0,"created":1547531151277,"version":0},"$loki":63},{"_id":"5c3d65bd3525a329e0c0aadb","address":"10921 Winner Rd","location":{"type":"Point","coordinates":[-94.4457928677368,39.2461210823674]},"isApproved":true,"items":[],"keys":["American (Traditional)"],"lastUpdated":1547527612489,"name":"Mugs Up Diner","phone":"(816) 503-9550","price":"$","reviewCount":6,"reviewScore":4,"meta":{"revision":0,"created":1547531151277,"version":0},"$loki":64},{"_id":"5c3d65bd3525a329e0c095a1","address":"7657 NW Prairie View Rd","location":{"type":"Point","coordinates":[-94.4457552994763,39.2459120246241]},"isApproved":true,"items":[],"keys":["Pizza","Italian","Chicken Wings"],"lastUpdated":1547527612453,"name":"Pizza Hut","phone":"(816) 741-5790","price":"$$","reviewCount":4,"reviewScore":3.5,"meta":{"revision":0,"created":1547531151277,"version":0},"$loki":65},{"_id":"5c3d65bd3525a329e0c0c35a","address":"9021 E. Highway 350","location":{"type":"Point","coordinates":[-94.4457552994763,39.2459120246241]},"isApproved":true,"items":[],"keys":["Fast Food","Mexican","Tex-Mex"],"lastUpdated":1547527612518,"name":"Taco Bell","phone":"(816) 356-4200","price":"$","reviewCount":15,"reviewScore":3,"meta":{"revision":0,"created":1547531151277,"version":0},"$loki":66},{"_id":"5c3d65bd3525a329e0c0208a","address":"9945 E State Route 350","location":{"type":"Point","coordinates":[-94.4468145,39.2439094]},"isApproved":true,"items":[],"keys":["Burgers","Fast Food"],"lastUpdated":1547527612275,"name":"Burger King","phone":"(816) 737-0454","price":"$","reviewCount":7,"reviewScore":1.5,"meta":{"revision":0,"created":1547531151277,"version":0},"$loki":67},{"_id":"5c3d65bd3525a329e0c0784a","address":"713 Metropolitan St","location":{"type":"Point","coordinates":[-94.4474975708813,39.245668494029]},"isApproved":true,"items":[],"keys":["Sandwiches","Fast Food"],"lastUpdated":1547527612408,"name":"Subway","phone":"(913) 682-5995","price":"$","reviewCount":4,"reviewScore":1.5,"meta":{"revision":0,"created":1547531151277,"version":0},"$loki":68},{"_id":"5c3d65bd3525a329e0c0eef9","address":"10802 Hwy 40 E","location":{"type":"Point","coordinates":[-94.4474975708813,39.245668494029]},"isApproved":true,"items":[],"keys":["Burgers","Fast Food","Ice Cream & Frozen Yogurt"],"lastUpdated":1547527612583,"name":"Sonic Drive-In","phone":"(816) 737-5599","price":"$","reviewCount":3,"reviewScore":3.5,"meta":{"revision":0,"created":1547531151277,"version":0},"$loki":69},{"_id":"5c3d65bd3525a329e0c0138f","address":"3801 Noland Rd","location":{"type":"Point","coordinates":[-94.4485608,39.2449402]},"isApproved":true,"items":[],"keys":["Delis","Sandwiches"],"lastUpdated":1547527612248,"name":"Goodcents Deli Fresh Subs","phone":"(816) 252-5533","price":"","reviewCount":3,"reviewScore":3.5,"meta":{"revision":0,"created":1547531151277,"version":0},"$loki":70},{"_id":"5c3d65bd3525a329e0c07a47","address":"430 NE Barry Rd","location":{"type":"Point","coordinates":[-94.4485608,39.2449402]},"isApproved":true,"items":[],"keys":["Fast Food","Mexican","Tex-Mex"],"lastUpdated":1547527612409,"name":"Taco Bell","phone":"(816) 436-3390","price":"$","reviewCount":10,"reviewScore":2.5,"meta":{"revision":0,"created":1547531151277,"version":0},"$loki":71},{"_id":"5c3d65bd3525a329e0bff80f","address":"8301 N Church Rd","location":{"type":"Point","coordinates":[-94.459256,39.2431]},"isApproved":true,"items":[],"keys":["Sandwiches","Fast Food"],"lastUpdated":1547527612218,"name":"Subway","phone":"(816) 792-2233","price":"","reviewCount":2,"reviewScore":1,"meta":{"revision":0,"created":1547531151277,"version":0},"$loki":72},{"_id":"5c3d65bd3525a329e0c0c2af","address":"1715 W Jesse James Rd","location":{"type":"Point","coordinates":[-94.459256,39.2431]},"isApproved":true,"items":[],"keys":["Fast Food","Burgers","Ice Cream & Frozen Yogurt"],"lastUpdated":1547527612518,"name":"Sonic Drive-In","phone":"(816) 637-9025","price":"$$","reviewCount":1,"reviewScore":1,"meta":{"revision":0,"created":1547531151277,"version":0},"$loki":73},{"_id":"5c3d65bd3525a329e0c0731c","address":"4151 Sterling Ave","location":{"type":"Point","coordinates":[-94.4586756,39.2453099]},"isApproved":true,"items":[],"keys":["Mexican","Fast Food"],"lastUpdated":1547527612399,"name":"Chipotle Mexican Grill","phone":"(816) 245-7324","price":"$","reviewCount":20,"reviewScore":3,"meta":{"revision":0,"created":1547531151277,"version":0},"$loki":74},{"_id":"5c3d65bd3525a329e0c097b0","address":"77 Beirut Cir","location":{"type":"Point","coordinates":[-94.4586756,39.2453099]},"isApproved":true,"items":[],"keys":["Brasseries"],"lastUpdated":1547527612461,"name":"MCI Club","phone":"","price":"","reviewCount":1,"reviewScore":1,"meta":{"revision":0,"created":1547531151277,"version":0},"$loki":75},{"_id":"5c3d65bd3525a329e0c16d1c","address":"1000 N 4th St","location":{"type":"Point","coordinates":[-94.4537892,39.2454781]},"isApproved":true,"items":[],"keys":["Fast Food","Burgers","Ice Cream & Frozen Yogurt"],"lastUpdated":1547527612774,"name":"Sonic Drive-In","phone":"(913) 651-4680","price":"$","reviewCount":16,"reviewScore":2.5,"meta":{"revision":0,"created":1547531151277,"version":0},"$loki":76},{"_id":"5c3d65bd3525a329e0c16e03","address":"4001 S Jackson Dr","location":{"type":"Point","coordinates":[-94.4537892,39.2454781]},"isApproved":true,"items":[],"keys":["Fast Food","Ice Cream & Frozen Yogurt","Burgers"],"lastUpdated":1547527612780,"name":"Sonic Drive-In","phone":"(816) 795-7403","price":"$$","reviewCount":8,"reviewScore":2.5,"meta":{"revision":0,"created":1547531151277,"version":0},"$loki":77},{"_id":"5c3d65bd3525a329e0c0f3d0","address":"118 N Conistor Ln","location":{"type":"Point","coordinates":[-94.4517398233841,39.2459652028058]},"isApproved":true,"items":[],"keys":["Pizza","Chicken Wings","Sandwiches"],"lastUpdated":1547527612592,"name":"Domino’s Pizza","phone":"(816) 415-9400","price":"$$","reviewCount":18,"reviewScore":1.5,"meta":{"revision":0,"created":1547531151277,"version":0},"$loki":78},{"_id":"5c3d65bd3525a329e0c025aa","address":"8580 N Church Rd","location":{"type":"Point","coordinates":[-94.451668,39.245858]},"isApproved":true,"items":[],"keys":["Sandwiches","Salad","Soup"],"lastUpdated":1547527612278,"name":"Panera Bread","phone":"(816) 792-1991","price":"$","reviewCount":22,"reviewScore":3.5,"meta":{"revision":0,"created":1547531151277,"version":0},"$loki":79},{"_id":"5c3d65bd3525a329e0c1a1a6","address":"301 S 5th St","location":{"type":"Point","coordinates":[-94.451668,39.245858]},"isApproved":true,"items":[],"keys":["Sandwiches","Fast Food"],"lastUpdated":1547527612857,"name":"Subway","phone":"(913) 367-7505","price":"$$","reviewCount":2,"reviewScore":3,"meta":{"revision":0,"created":1547531151277,"version":0},"$loki":80},{"_id":"5c3d65bd3525a329e0c05337","address":"2305 Vintage Ct","location":{"type":"Point","coordinates":[-94.451814,39.245191]},"isApproved":true,"items":[],"keys":["Diners","Breakfast & Brunch","American (Traditional)"],"lastUpdated":1547527612346,"name":"Waffle House","phone":"(816) 637-2281","price":"$","reviewCount":6,"reviewScore":4,"meta":{"revision":0,"created":1547531151277,"version":0},"$loki":81},{"_id":"5c3d65bd3525a329e0c0889d","address":"314 S 291st Hwy","location":{"type":"Point","coordinates":[-94.451814,39.245191]},"isApproved":true,"items":[],"keys":["Sandwiches","Delis"],"lastUpdated":1547527612428,"name":"Goodcents Deli Fresh Subs","phone":"(816) 792-9700","price":"","reviewCount":2,"reviewScore":4.5,"meta":{"revision":0,"created":1547531151277,"version":0},"$loki":82},{"_id":"5c3d65bd3525a329e0c02329","address":"1699 NE Douglas St","location":{"type":"Point","coordinates":[-94.452132,39.244059]},"isApproved":true,"items":[],"keys":["Diners","Breakfast & Brunch","American (Traditional)"],"lastUpdated":1547527612276,"name":"Waffle House","phone":"(816) 246-5690","price":"$","reviewCount":17,"reviewScore":4,"meta":{"revision":0,"created":1547531151277,"version":0},"$loki":83},{"_id":"5c3d65bd3525a329e0c1788c","address":"905 Isley Blvd","location":{"type":"Point","coordinates":[-94.452132,39.244059]},"isApproved":true,"items":[],"keys":["Restaurants"],"lastUpdated":1547527612792,"name":"Pickle’s Diner","phone":"(816) 637-9500","price":"$","reviewCount":1,"reviewScore":4,"meta":{"revision":0,"created":1547531151277,"version":0},"$loki":84},{"_id":"5c3d65bd3525a329e0c053a8","address":"9774 N Ash Ave","location":{"type":"Point","coordinates":[-94.4538211449981,39.2438644540356]},"isApproved":true,"items":[],"keys":["Chinese"],"lastUpdated":1547527612346,"name":"Kam Sheng","phone":"(816) 792-8188","price":"$","reviewCount":26,"reviewScore":4,"meta":{"revision":0,"created":1547531151277,"version":0},"$loki":85},{"_id":"5c3d65bd3525a329e0c15018","address":"3400 S 4th St","location":{"type":"Point","coordinates":[-94.4538211449981,39.2438644540356]},"isApproved":true,"items":[],"keys":["Pizza"],"lastUpdated":1547527612736,"name":"Papa Murphy’s","phone":"(913) 682-6500","price":"$","reviewCount":4,"reviewScore":4,"meta":{"revision":0,"created":1547531151277,"version":0},"$loki":86},{"_id":"5c3d65bd3525a329e0c13352","address":"4528 South Noland Road","location":{"type":"Point","coordinates":[-94.452813,39.243152]},"isApproved":true,"items":[],"keys":["Meat Shops","Delis","Sandwiches"],"lastUpdated":1547527612689,"name":"Honey Baked Ham Company","phone":"(816) 478-1000","price":"","reviewCount":3,"reviewScore":4.5,"meta":{"revision":0,"created":1547531151277,"version":0},"$loki":87},{"_id":"5c3d65bd3525a329e0c18a94","address":"1108 NW Woods Chapel Rd","location":{"type":"Point","coordinates":[-94.452108,39.243053]},"isApproved":true,"items":[],"keys":["Chinese"],"lastUpdated":1547527612823,"name":"China Kitchen","phone":"(816) 228-5597","price":"$$","reviewCount":12,"reviewScore":4,"meta":{"revision":0,"created":1547531151277,"version":0},"$loki":88},{"_id":"5c3d65bd3525a329e0c1b1fb","address":"502 NW Englewood Rd","location":{"type":"Point","coordinates":[-94.452108,39.243053]},"isApproved":true,"items":[],"keys":["Chinese"],"lastUpdated":1547527612877,"name":"New China Star Restaurant","phone":"(816) 454-7300","price":"$","reviewCount":32,"reviewScore":3.5,"meta":{"revision":0,"created":1547531151277,"version":0},"$loki":89},{"_id":"5c3d65bd3525a329e0c18099","address":"10225 N Oak Trafficway","location":{"type":"Point","coordinates":[-94.4519259917531,39.2430138296045]},"isApproved":true,"items":[],"keys":["Shaved Ice","Food Stands"],"lastUpdated":1547527612803,"name":"Summer Sno","phone":"(816) 838-3452","price":"$","reviewCount":1,"reviewScore":4,"meta":{"revision":0,"created":1547531151277,"version":0},"$loki":90},{"_id":"5c3d65bd3525a329e0c1a5eb","address":"214 W Maple Ave","location":{"type":"Point","coordinates":[-94.4519259917531,39.2430138296045]},"isApproved":true,"items":[],"keys":["Bakeries","Sandwiches","Donuts"],"lastUpdated":1547527612860,"name":"Dave’s Bakery & Deli","phone":"(816) 461-0756","price":"$","reviewCount":26,"reviewScore":4.5,"meta":{"revision":0,"created":1547531151277,"version":0},"$loki":91},{"_id":"5c3d65bd3525a329e0c00b51","address":"6005 NW Barry Road","location":{"type":"Point","coordinates":[-94.4502497,39.2439117]},"isApproved":true,"items":[],"keys":["Meat Shops","Delis","Sandwiches"],"lastUpdated":1547527612230,"name":"Honey Baked Ham Company","phone":"(816) 584-0300","price":"","reviewCount":4,"reviewScore":2.5,"meta":{"revision":0,"created":1547531151277,"version":0},"$loki":92},{"_id":"5c3d65bd3525a329e0c01f5c","address":"17911 E US Hwy 24","location":{"type":"Point","coordinates":[-94.4502497,39.2439117]},"isApproved":true,"items":[],"keys":["Cantonese","Szechuan"],"lastUpdated":1547527612269,"name":"China Wok","phone":"(816) 257-2999","price":"$","reviewCount":7,"reviewScore":2.5,"meta":{"revision":0,"created":1547531151277,"version":0},"$loki":93},{"_id":"5c3d65bd3525a329e0c16fb4","address":"1919 Star Rd","location":{"type":"Point","coordinates":[-94.4510942,39.2436689]},"isApproved":true,"items":[],"keys":["Burgers","American (Traditional)"],"lastUpdated":1547527612782,"name":"Red Robin Gourmet Burgers","phone":"(816) 792-3030","price":"$$","reviewCount":65,"reviewScore":3,"meta":{"revision":0,"created":1547531151277,"version":0},"$loki":94},{"_id":"5c3d65bd3525a329e0c007ad","address":"1901 North Highway 7","location":{"type":"Point","coordinates":[-94.4510868508574,39.2437594091224]},"isApproved":true,"items":[],"keys":["Pizza","Italian","Chicken Wings"],"lastUpdated":1547527612228,"name":"Pizza Hut","phone":"(816) 228-1900","price":"","reviewCount":2,"reviewScore":1,"meta":{"revision":0,"created":1547531151277,"version":0},"$loki":95},{"_id":"5c3d65bd3525a329e0c0b44b","address":"795 NE Rice Rd","location":{"type":"Point","coordinates":[-94.4504770034822,39.2458520075179]},"isApproved":true,"items":[],"keys":["Pizza","Chicken Wings","Sandwiches"],"lastUpdated":1547527612499,"name":"Domino’s Pizza","phone":"(816) 525-2244","price":"$","reviewCount":14,"reviewScore":3,"meta":{"revision":0,"created":1547531151277,"version":0},"$loki":96},{"_id":"5c3d65bd3525a329e0c0d48a","address":"4319 N Chouteau Trafficway","location":{"type":"Point","coordinates":[-94.4504770034822,39.2458520075179]},"isApproved":true,"items":[],"keys":["Pizza"],"lastUpdated":1547527612547,"name":"Papa Murphy’s","phone":"(816) 452-9800","price":"$","reviewCount":6,"reviewScore":4,"meta":{"revision":0,"created":1547531151277,"version":0},"$loki":97},{"_id":"5c3d65bd3525a329e0c0dde2","address":"190 NE Tudor Rd","location":{"type":"Point","coordinates":[-94.4503072625217,39.2451517861241]},"isApproved":true,"items":[],"keys":["Sandwiches","Delis"],"lastUpdated":1547527612563,"name":"Schlotzsky’s","phone":"(816) 554-4574","price":"$","reviewCount":8,"reviewScore":3.5,"meta":{"revision":0,"created":1547531151277,"version":0},"$loki":98},{"_id":"5c3d65bd3525a329e0c1b62f","address":"5255 N Antioch Rd","location":{"type":"Point","coordinates":[-94.4503072625217,39.2451517861241]},"isApproved":true,"items":[],"keys":["Mexican","Fast Food"],"lastUpdated":1547527612886,"name":"QDOBA Mexican Eats","phone":"(816) 459-4919","price":"","reviewCount":13,"reviewScore":3,"meta":{"revision":0,"created":1547531151277,"version":0},"$loki":99},{"_id":"5c3d65bd3525a329e0c061ce","address":"8441 NW Prairie View Rd","location":{"type":"Point","coordinates":[-94.449597,39.2458809]},"isApproved":true,"items":[],"keys":["Sports Bars","Chicken Wings","American (Traditional)"],"lastUpdated":1547527612369,"name":"Buffalo Wild Wings","phone":"(816) 741-5174","price":"$$","reviewCount":102,"reviewScore":2.5,"meta":{"revision":0,"created":1547531151277,"version":0},"$loki":100},{"_id":"5c3d65bd3525a329e0c071d2","address":"4125 N Mulberry Dr","location":{"type":"Point","coordinates":[-94.449597,39.2458809]},"isApproved":true,"items":[],"keys":["Mexican"],"lastUpdated":1547527612398,"name":"Jose Peppers","phone":"(816) 382-3839","price":"$$","reviewCount":47,"reviewScore":3,"meta":{"revision":0,"created":1547531151277,"version":0},"$loki":101},{"_id":"5c3d65bd3525a329e0c1353a","address":"2 E US Highway 24","location":{"type":"Point","coordinates":[-94.449597,39.2458809]},"isApproved":true,"items":[],"keys":["Fast Food","Sandwiches"],"lastUpdated":1547527612696,"name":"Subway","phone":"(816) 249-9194","price":"$","reviewCount":1,"reviewScore":4,"meta":{"revision":0,"created":1547531151277,"version":0},"$loki":102},{"_id":"5c3d65bd3525a329e0c17fa3","address":"1912 Star Dr","location":{"type":"Point","coordinates":[-94.449597,39.2458809]},"isApproved":true,"items":[],"keys":["Fast Food","Pizza"],"lastUpdated":1547527612802,"name":"MOD Pizza","phone":"(816) 407-9482","price":"$$","reviewCount":51,"reviewScore":4.5,"meta":{"revision":0,"created":1547531151277,"version":0},"$loki":103},{"_id":"5c3d65bd3525a329e0c14691","address":"311 W 6th St","location":{"type":"Point","coordinates":[-94.45313,39.24684]},"isApproved":true,"items":[],"keys":["Convenience Stores","Pizza"],"lastUpdated":1547527612716,"name":"Casey’s General Store","phone":"(816) 296-3076","price":"","reviewCount":2,"reviewScore":3,"meta":{"revision":0,"created":1547531151277,"version":0},"$loki":104},{"_id":"5c3d65bd3525a329e0c1a8b9","address":"168 N. Stewart Court","location":{"type":"Point","coordinates":[-94.453779,39.247011]},"isApproved":true,"items":[],"keys":["Steakhouses","American (Traditional)","Barbeque"],"lastUpdated":1547527612867,"name":"Texas Roadhouse","phone":"(816) 781-9899","price":"$$","reviewCount":78,"reviewScore":4,"meta":{"revision":0,"created":1547531151277,"version":0},"$loki":105},{"_id":"5c3d65bd3525a329e0c0e25a","address":"1901 E Langsford Rd","location":{"type":"Point","coordinates":[-94.449711,39.252328]},"isApproved":true,"items":[],"keys":["Fast Food","Ice Cream & Frozen Yogurt","Burgers"],"lastUpdated":1547527612566,"name":"Sonic Drive-In","phone":"(816) 554-7800","price":"$","reviewCount":15,"reviewScore":2.5,"meta":{"revision":0,"created":1547531151277,"version":0},"$loki":106},{"_id":"5c3d65bd3525a329e0c16ed0","address":"307 NE Englewood Rd","location":{"type":"Point","coordinates":[-94.449711,39.252328]},"isApproved":true,"items":[],"keys":["Pizza","Buffets"],"lastUpdated":1547527612781,"name":"Pizza Street","phone":"(816) 455-1333","price":"$","reviewCount":15,"reviewScore":3,"meta":{"revision":0,"created":1547531151277,"version":0},"$loki":107},{"_id":"5c3d65bd3525a329e0c18f70","address":"238 Main St","location":{"type":"Point","coordinates":[-94.448549,39.254821]},"isApproved":true,"items":[],"keys":["Burgers","Pubs"],"lastUpdated":1547527612832,"name":"The Pool Hall","phone":"(816) 858-9989","price":"$","reviewCount":18,"reviewScore":4,"meta":{"revision":0,"created":1547531151277,"version":0},"$loki":108},{"_id":"5c3d65bd3525a329e0c195f2","address":"579 SE Melody Ln","location":{"type":"Point","coordinates":[-94.448549,39.254821]},"isApproved":true,"items":[],"keys":["Thai"],"lastUpdated":1547527612841,"name":"Mali Thai Bistro","phone":"(816) 944-4119","price":"$$","reviewCount":134,"reviewScore":4.5,"meta":{"revision":0,"created":1547531151277,"version":0},"$loki":109},{"_id":"5c3d65bd3525a329e0c0b0cc","address":"6301 N Chatham Ave","location":{"type":"Point","coordinates":[-94.446131586708,39.2466568926191]},"isApproved":true,"items":[],"keys":["Fast Food"],"lastUpdated":1547527612497,"name":"Wendy’s","phone":"(816) 897-4799","price":"","reviewCount":7,"reviewScore":1.5,"meta":{"revision":0,"created":1547531151277,"version":0},"$loki":110},{"_id":"5c3d65bd3525a329e0c1308d","address":"18900 E 39th St S","location":{"type":"Point","coordinates":[-94.446131586708,39.2466568926191]},"isApproved":true,"items":[],"keys":["American (Traditional)","Bars","Tex-Mex"],"lastUpdated":1547527612688,"name":"Chili’s","phone":"(816) 795-0100","price":"$$","reviewCount":39,"reviewScore":2,"meta":{"revision":0,"created":1547531151277,"version":0},"$loki":111},{"_id":"5c3d65bd3525a329e0c08f64","address":"4400 S Noland Rd","location":{"type":"Point","coordinates":[-94.4483533494378,39.2669413056374]},"isApproved":true,"items":[],"keys":["Buffets","Chinese"],"lastUpdated":1547527612438,"name":"MaMa Garden","phone":"(816) 373-0666","price":"$","reviewCount":75,"reviewScore":3,"meta":{"revision":0,"created":1547531151277,"version":0},"$loki":112},{"_id":"5c3d65bd3525a329e0c06bc8","address":"9701 N Ash Ave","location":{"type":"Point","coordinates":[-94.4510427117348,39.267850161431]},"isApproved":true,"items":[],"keys":["Fast Food","Burgers","Coffee & Tea"],"lastUpdated":1547527612385,"name":"McDonald’s","phone":"(816) 781-4466","price":"$","reviewCount":13,"reviewScore":1,"meta":{"revision":0,"created":1547531151277,"version":0},"$loki":113},{"_id":"5c3d65bd3525a329e0c12863","address":"5501 Leavenworth","location":{"type":"Point","coordinates":[-94.450491,39.267719]},"isApproved":true,"items":[],"keys":["Fast Food","Chicken Wings"],"lastUpdated":1547527612678,"name":"Church’s Chicken","phone":"(913) 287-5282","price":"","reviewCount":2,"reviewScore":3.5,"meta":{"revision":0,"created":1547531151277,"version":0},"$loki":114},{"_id":"5c3d65bd3525a329e0c1542e","address":"1201 W College St","location":{"type":"Point","coordinates":[-94.450491,39.267719]},"isApproved":true,"items":[],"keys":["Mexican","Tex-Mex","Fast Food"],"lastUpdated":1547527612739,"name":"Taco Bell","phone":"(660) 886-3200","price":"","reviewCount":1,"reviewScore":2,"meta":{"revision":0,"created":1547531151277,"version":0},"$loki":115},{"_id":"5c3d65bd3525a329e0c139aa","address":"5111 Ararat Dr","location":{"type":"Point","coordinates":[-94.4535532593727,39.2688012167668]},"isApproved":true,"items":[],"keys":["Pizza","Italian","Chicken Wings"],"lastUpdated":1547527612698,"name":"Pizza Hut","phone":"(816) 921-4001","price":"$$","reviewCount":9,"reviewScore":1.5,"meta":{"revision":0,"created":1547531151277,"version":0},"$loki":116},{"_id":"5c3d65bd3525a329e0c055e4","address":"1500 NW Woods Chapel Rd","location":{"type":"Point","coordinates":[-94.4531335563446,39.269366359904]},"isApproved":true,"items":[],"keys":["Diners","Breakfast & Brunch","American (Traditional)"],"lastUpdated":1547527612348,"name":"Waffle House","phone":"(816) 229-7531","price":"$","reviewCount":17,"reviewScore":3.5,"meta":{"revision":0,"created":1547531151277,"version":0},"$loki":117},{"_id":"5c3d65bd3525a329e0c15b48","address":"4313 N Chouteau Trfy","location":{"type":"Point","coordinates":[-94.4531335563446,39.269366359904]},"isApproved":true,"items":[],"keys":["Chicken Wings"],"lastUpdated":1547527612753,"name":"Wingstop","phone":"(816) 454-9464","price":"$","reviewCount":37,"reviewScore":3.5,"meta":{"revision":0,"created":1547531151277,"version":0},"$loki":118},{"_id":"5c3d65bd3525a329e0c00e46","address":"6633 Raytown Rd","location":{"type":"Point","coordinates":[-94.4528139092911,39.2692289056074]},"isApproved":true,"items":[],"keys":["Seafood"],"lastUpdated":1547527612237,"name":"Lutfi’s Fried Fish","phone":"(816) 737-9599","price":"$","reviewCount":38,"reviewScore":4,"meta":{"revision":0,"created":1547531151277,"version":0},"$loki":119},{"_id":"5c3d65bd3525a329e0c018c2","address":"777 NW Argosy Casino Pkwy","location":{"type":"Point","coordinates":[-94.4528139092911,39.2692289056074]},"isApproved":true,"items":[],"keys":["Mexican","Salad"],"lastUpdated":1547527612251,"name":"The Lucky Taco","phone":"(816) 746-3330","price":"$$","reviewCount":24,"reviewScore":4,"meta":{"revision":0,"created":1547531151277,"version":0},"$loki":120},{"_id":"5c3d65bd3525a329e0c068ba","address":"6623 Raytown Rd","location":{"type":"Point","coordinates":[-94.4524407077886,39.2691750778332]},"isApproved":true,"items":[],"keys":["Chinese","Buffets"],"lastUpdated":1547527612379,"name":"Ma Ma China","phone":"(816) 358-5999","price":"$","reviewCount":50,"reviewScore":3.5,"meta":{"revision":0,"created":1547531151277,"version":0},"$loki":121},{"_id":"5c3d65bd3525a329e0c1ad67","address":"101 N US 169 Hwy","location":{"type":"Point","coordinates":[-94.4524407077886,39.2691750778332]},"isApproved":true,"items":[],"keys":["Pizza","Sandwiches","Salad"],"lastUpdated":1547527612875,"name":"Pizza Shoppe","phone":"(816) 532-1101","price":"$$","reviewCount":4,"reviewScore":3.5,"meta":{"revision":0,"created":1547531151277,"version":0},"$loki":122},{"_id":"5c3d65bd3525a329e0c0f7e1","address":"8564 Church Rd","location":{"type":"Point","coordinates":[-94.4525219,39.2691895]},"isApproved":true,"items":[],"keys":["Sandwiches","Fast Food"],"lastUpdated":1547527612600,"name":"Subway","phone":"(816) 792-5124","price":"$","reviewCount":2,"reviewScore":1,"meta":{"revision":0,"created":1547531151277,"version":0},"$loki":123},{"_id":"5c3d65bd3525a329e0c19ee9","address":"3003 NE Vivion Rd","location":{"type":"Point","coordinates":[-94.4525219,39.2691895]},"isApproved":true,"items":[],"keys":["Pizza","Italian","Chicken Wings"],"lastUpdated":1547527612851,"name":"Pizza Hut","phone":"(816) 455-0035","price":"","reviewCount":5,"reviewScore":2,"meta":{"revision":0,"created":1547531151277,"version":0},"$loki":124},{"_id":"5c3d65bd3525a329e0c0f356","address":"1135 NE Douglas","location":{"type":"Point","coordinates":[-94.4596727,39.2466012]},"isApproved":true,"items":[],"keys":["Fast Food","Burgers","Ice Cream & Frozen Yogurt"],"lastUpdated":1547527612592,"name":"Sonic Drive-In","phone":"(816) 347-1298","price":"$","reviewCount":9,"reviewScore":2,"meta":{"revision":0,"created":1547531151277,"version":0},"$loki":125},{"_id":"5c3d65bd3525a329e0c12a24","address":"2825 NE Vivion Road","location":{"type":"Point","coordinates":[-94.4596727,39.2466012]},"isApproved":true,"items":[],"keys":["Fast Food","Mexican","Tex-Mex"],"lastUpdated":1547527612679,"name":"Taco Bell","phone":"(816) 452-2848","price":"$","reviewCount":7,"reviewScore":2.5,"meta":{"revision":0,"created":1547531151277,"version":0},"$loki":126},{"_id":"5c3d65bd3525a329e0c0ee05","address":"291 N Main St","location":{"type":"Point","coordinates":[-94.4596510195109,39.246293397973]},"isApproved":true,"items":[],"keys":["Sandwiches","Fast Food"],"lastUpdated":1547527612583,"name":"Arbys","phone":"(913) 727-2420","price":"","reviewCount":2,"reviewScore":2.5,"meta":{"revision":0,"created":1547531151277,"version":0},"$loki":127},{"_id":"5c3d65bd3525a329e0c11e55","address":"1501 NE Douglas St","location":{"type":"Point","coordinates":[-94.4596510195109,39.246293397973]},"isApproved":true,"items":[],"keys":["American (Traditional)","Sports Bars","Burgers"],"lastUpdated":1547527612662,"name":"Applebee’s Grill + Bar","phone":"(816) 246-6188","price":"$$","reviewCount":13,"reviewScore":2,"meta":{"revision":0,"created":1547531151277,"version":0},"$loki":128},{"_id":"5c3d65bd3525a329e0c0e47f","address":"110 Buckner Tarsney Rd","location":{"type":"Point","coordinates":[-94.4665835,39.2472522]},"isApproved":true,"items":[],"keys":["Pizza","Videos & Video Game Rental"],"lastUpdated":1547527612572,"name":"Pizzideo","phone":"(816) 847-2772","price":"","reviewCount":4,"reviewScore":4.5,"meta":{"revision":0,"created":1547531151277,"version":0},"$loki":129},{"_id":"5c3d65bd3525a329e0c10c38","address":"11330 E 24th St S","location":{"type":"Point","coordinates":[-94.466397,39.247592]},"isApproved":true,"items":[],"keys":["American (New)","Chinese"],"lastUpdated":1547527612633,"name":"Peking Express","phone":"(816) 461-1089","price":"$","reviewCount":6,"reviewScore":4,"meta":{"revision":0,"created":1547531151277,"version":0},"$loki":130},{"_id":"5c3d65bd3525a329e0c0b714","address":"14001 E 42nd St S","location":{"type":"Point","coordinates":[-94.4659058679361,39.2476895544515]},"isApproved":true,"items":[],"keys":["Burgers","Fast Food"],"lastUpdated":1547527612505,"name":"Burger King","phone":"(816) 659-4690","price":"$","reviewCount":9,"reviewScore":2.5,"meta":{"revision":0,"created":1547531151277,"version":0},"$loki":131},{"_id":"5c3d65bd3525a329e0c0bc79","address":"5716 NE Antioch Rd","location":{"type":"Point","coordinates":[-94.4658838,39.247757]},"isApproved":true,"items":[],"keys":["Mexican","Tex-Mex"],"lastUpdated":1547527612509,"name":"Tortilla Flats","phone":"(816) 453-2845","price":"$","reviewCount":32,"reviewScore":3,"meta":{"revision":0,"created":1547531151277,"version":0},"$loki":132},{"_id":"5c3d65bd3525a329e0c07a84","address":"7102 N Oak Trfy","location":{"type":"Point","coordinates":[-94.4685099,39.2443401]},"isApproved":true,"items":[],"keys":["Pizza","Bars"],"lastUpdated":1547527612409,"name":"Michelle’s Bar & Grill","phone":"(816) 436-6600","price":"$","reviewCount":10,"reviewScore":3.5,"meta":{"revision":0,"created":1547531151277,"version":0},"$loki":133},{"_id":"5c3d65bd3525a329e0c118f6","address":"405 NW Blue Pkwy","location":{"type":"Point","coordinates":[-94.4685099,39.2443401]},"isApproved":true,"items":[],"keys":["Pizza"],"lastUpdated":1547527612651,"name":"Fun House Pizza","phone":"(816) 525-2898","price":"$$","reviewCount":27,"reviewScore":3.5,"meta":{"revision":0,"created":1547531151277,"version":0},"$loki":134},{"_id":"5c3d65bd3525a329e0c10b9f","address":"3200 N Ameristar Dr","location":{"type":"Point","coordinates":[-94.467374,39.2453554]},"isApproved":true,"items":[],"keys":["Cajun/Creole","Seafood"],"lastUpdated":1547527612632,"name":"Pearl’s Oyster Bar","phone":"(816) 414-7005","price":"$$","reviewCount":23,"reviewScore":3,"meta":{"revision":0,"created":1547531151277,"version":0},"$loki":135},{"_id":"5c3d65bd3525a329e0c157cd","address":"5018 NE Parvin Rd","location":{"type":"Point","coordinates":[-94.467374,39.2453554]},"isApproved":true,"items":[],"keys":["Fast Food","American (New)","Tex-Mex"],"lastUpdated":1547527612747,"name":"Texas Toms","phone":"(816) 459-8840","price":"$","reviewCount":17,"reviewScore":3,"meta":{"revision":0,"created":1547531151277,"version":0},"$loki":136},{"_id":"5c3d65bd3525a329e0c07f79","address":"9014 E 350th Hwy","location":{"type":"Point","coordinates":[-94.467246,39.243633]},"isApproved":true,"items":[],"keys":["Ice Cream & Frozen Yogurt","Burgers","Fast Food"],"lastUpdated":1547527612418,"name":"Sonic Drive-In","phone":"(816) 353-1053","price":"$","reviewCount":14,"reviewScore":2,"meta":{"revision":0,"created":1547531151277,"version":0},"$loki":137},{"_id":"5c3d65bd3525a329e0c0a2c7","address":"1222 Main St","location":{"type":"Point","coordinates":[-94.4672041,39.2435618]},"isApproved":true,"items":[],"keys":["Fast Food","Burgers","Coffee & Tea"],"lastUpdated":1547527612473,"name":"McDonald’s","phone":"(660) 259-3414","price":"","reviewCount":1,"reviewScore":2,"meta":{"revision":0,"created":1547531151277,"version":0},"$loki":138},{"_id":"5c3d65bd3525a329e0c18e4b","address":"201 N Forest Ave","location":{"type":"Point","coordinates":[-94.465127,39.243343]},"isApproved":true,"items":[],"keys":["American (Traditional)","Burgers","Sandwiches"],"lastUpdated":1547527612831,"name":"West Side Cafe","phone":"(816) 521-5318","price":"","reviewCount":2,"reviewScore":3,"meta":{"revision":0,"created":1547531151277,"version":0},"$loki":139},{"_id":"5c3d65bd3525a329e0c0d030","address":"2516 NE 43rd St","location":{"type":"Point","coordinates":[-94.4657745,39.2432222]},"isApproved":true,"items":[],"keys":["Pizza","Chicken Wings","Sandwiches"],"lastUpdated":1547527612544,"name":"Domino’s Pizza","phone":"(816) 454-3363","price":"$","reviewCount":9,"reviewScore":2,"meta":{"revision":0,"created":1547531151277,"version":0},"$loki":140},{"_id":"5c3d65bd3525a329e0c16809","address":"1225 NE Rice Rd","location":{"type":"Point","coordinates":[-94.4657745,39.2432222]},"isApproved":true,"items":[],"keys":["Pizza","Italian","Chicken Wings"],"lastUpdated":1547527612772,"name":"Pizza Hut","phone":"(816) 246-8740","price":"","reviewCount":6,"reviewScore":1.5,"meta":{"revision":0,"created":1547531151277,"version":0},"$loki":141},{"_id":"5c3d65bd3525a329e0c07990","address":"4901 N Oak Trafficway Lot 4","location":{"type":"Point","coordinates":[-94.466530965538,39.2443695715145]},"isApproved":true,"items":[],"keys":["Chinese","Fast Food"],"lastUpdated":1547527612409,"name":"Panda Express","phone":"(816) 455-3199","price":"$","reviewCount":16,"reviewScore":3,"meta":{"revision":0,"created":1547531151277,"version":0},"$loki":142},{"_id":"5c3d65bd3525a329e0c0dd0a","address":"6887 E Front St","location":{"type":"Point","coordinates":[-94.466530965538,39.2443695715145]},"isApproved":true,"items":[],"keys":["Breakfast & Brunch","American (Traditional)","Diners"],"lastUpdated":1547527612563,"name":"Denny’s","phone":"(816) 231-7448","price":"$","reviewCount":10,"reviewScore":2,"meta":{"revision":0,"created":1547531151277,"version":0},"$loki":143},{"_id":"5c3d65bd3525a329e0bffc90","address":"2909 Burlington Ave","location":{"type":"Point","coordinates":[-94.4664272,39.2455293]},"isApproved":true,"items":[],"keys":["American (Traditional)","Burgers"],"lastUpdated":1547527612221,"name":"Ruby Tuesday","phone":"(816) 221-2828","price":"$$","reviewCount":28,"reviewScore":3,"meta":{"revision":0,"created":1547531151277,"version":0},"$loki":144},{"_id":"5c3d65bd3525a329e0c0ba28","address":"7108 Ditzler Ave","location":{"type":"Point","coordinates":[-94.4664272,39.2455293]},"isApproved":true,"items":[],"keys":["Pubs","Cafes"],"lastUpdated":1547527612507,"name":"The Race Day Cafe","phone":"(816) 356-5800","price":"$","reviewCount":1,"reviewScore":3,"meta":{"revision":0,"created":1547531151277,"version":0},"$loki":145},{"_id":"5c3d65bd3525a329e0c11475","address":"200 SW State Rte 150","location":{"type":"Point","coordinates":[-94.4651,39.2449]},"isApproved":true,"items":[],"keys":["Fast Food","Sandwiches"],"lastUpdated":1547527612643,"name":"Arby’s","phone":"(816) 537-5442","price":"","reviewCount":11,"reviewScore":2.5,"meta":{"revision":0,"created":1547531151277,"version":0},"$loki":146},{"_id":"5c3d65bd3525a329e0c0fc9d","address":"2698 NE Vivion Rd","location":{"type":"Point","coordinates":[-94.4636335190144,39.2454789227832]},"isApproved":true,"items":[],"keys":["Fast Food","Sandwiches","Delis"],"lastUpdated":1547527612607,"name":"Firehouse Subs","phone":"(816) 455-0864","price":"$","reviewCount":15,"reviewScore":4.5,"meta":{"revision":0,"created":1547531151277,"version":0},"$loki":147},{"_id":"5c3d65bd3525a329e0c1ae08","address":"1420 SW State Rt 7","location":{"type":"Point","coordinates":[-94.4636335190144,39.2454789227832]},"isApproved":true,"items":[],"keys":["Pizza"],"lastUpdated":1547527612875,"name":"Fun House Pizza Delivery","phone":"(816) 224-4442","price":"$$","reviewCount":7,"reviewScore":3.5,"meta":{"revision":0,"created":1547531151277,"version":0},"$loki":148},{"_id":"5c3d65bd3525a329e0c026fd","address":"4000 N Oak Trafficway","location":{"type":"Point","coordinates":[-94.46326,39.244009]},"isApproved":true,"items":[],"keys":["Mexican","Sandwiches"],"lastUpdated":1547527612284,"name":"In A Tub","phone":"(816) 452-2149","price":"$","reviewCount":68,"reviewScore":4,"meta":{"revision":0,"created":1547531151277,"version":0},"$loki":149},{"_id":"5c3d65bd3525a329e0c05ba1","address":"106 W Maple Ave","location":{"type":"Point","coordinates":[-94.46326,39.244009]},"isApproved":true,"items":[],"keys":["Mexican"],"lastUpdated":1547527612356,"name":"El Pico Mexican Restaurant","phone":"(816) 252-7426","price":"$","reviewCount":52,"reviewScore":3.5,"meta":{"revision":0,"created":1547531151277,"version":0},"$loki":150},{"_id":"5c3d65bd3525a329e0c006f1","address":"400 E Highway 69","location":{"type":"Point","coordinates":[-94.4625566,39.2439198]},"isApproved":true,"items":[],"keys":["Pizza","Italian","Chicken Wings"],"lastUpdated":1547527612227,"name":"Pizza Hut","phone":"(816) 452-6723","price":"$$","reviewCount":5,"reviewScore":3,"meta":{"revision":0,"created":1547531151277,"version":0},"$loki":151},{"_id":"5c3d65bd3525a329e0c0534a","address":"1506 S US Hwy 169","location":{"type":"Point","coordinates":[-94.4629659345133,39.2453695237731]},"isApproved":true,"items":[],"keys":["Fast Food","Burgers","Ice Cream & Frozen Yogurt"],"lastUpdated":1547527612346,"name":"Sonic Drive-In","phone":"(816) 532-9190","price":"$","reviewCount":6,"reviewScore":2.5,"meta":{"revision":0,"created":1547531151277,"version":0},"$loki":152},{"_id":"5c3d65bd3525a329e0c13e9d","address":"808 N Hwy 7","location":{"type":"Point","coordinates":[-94.4629659345133,39.2453695237731]},"isApproved":true,"items":[],"keys":["Fast Food","Burgers"],"lastUpdated":1547527612706,"name":"Jack In The Box","phone":"(816) 220-3180","price":"$","reviewCount":19,"reviewScore":1.5,"meta":{"revision":0,"created":1547531151277,"version":0},"$loki":153},{"_id":"5c3d65bd3525a329e0c06268","address":"3503 S Noland Rd","location":{"type":"Point","coordinates":[-94.4622348,39.2454713]},"isApproved":true,"items":[],"keys":["Pizza"],"lastUpdated":1547527612369,"name":"Pizza Street","phone":"(816) 252-5559","price":"$","reviewCount":20,"reviewScore":2.5,"meta":{"revision":0,"created":1547531151277,"version":0},"$loki":154},{"_id":"5c3d65bd3525a329e0c1aa07","address":"6860 NW 83rd Ter","location":{"type":"Point","coordinates":[-94.4622348,39.2454713]},"isApproved":true,"items":[],"keys":["Seafood","Fast Food"],"lastUpdated":1547527612868,"name":"Long John Silver’s","phone":"(816) 746-4710","price":"$","reviewCount":5,"reviewScore":1.5,"meta":{"revision":0,"created":1547531151277,"version":0},"$loki":155},{"_id":"5c3d65bd3525a329e0c07c54","address":"9140 NE Barry Rd","location":{"type":"Point","coordinates":[-94.4607639010024,39.245466693323]},"isApproved":true,"items":[],"keys":["Noodles","Pasta Shops"],"lastUpdated":1547527612410,"name":"Noodles World Kitchen","phone":"(816) 407-9089","price":"","reviewCount":3,"reviewScore":2.5,"meta":{"revision":0,"created":1547531151277,"version":0},"$loki":156},{"_id":"5c3d65bd3525a329e0c139e2","address":"4404 N Antioch Rd","location":{"type":"Point","coordinates":[-94.4607639010024,39.245466693323]},"isApproved":true,"items":[],"keys":["Diners","Breakfast & Brunch","American (Traditional)"],"lastUpdated":1547527612698,"name":"Waffle House","phone":"(816) 454-5505","price":"$","reviewCount":16,"reviewScore":3.5,"meta":{"revision":0,"created":1547531151277,"version":0},"$loki":157},{"_id":"5c3d65bd3525a329e0c15f94","address":"29411 Highway D","location":{"type":"Point","coordinates":[-94.4600628,39.2454734]},"isApproved":true,"items":[],"keys":["Fast Food","Burgers","Ice Cream & Frozen Yogurt"],"lastUpdated":1547527612756,"name":"Sonic Drive-In","phone":"(816) 580-7997","price":"$","reviewCount":5,"reviewScore":3,"meta":{"revision":0,"created":1547531151277,"version":0},"$loki":158},{"_id":"5c3d65bd3525a329e0c1a781","address":"10000 E 350 Hwy","location":{"type":"Point","coordinates":[-94.4600628,39.2454734]},"isApproved":true,"items":[],"keys":["Breakfast & Brunch","American (Traditional)","Burgers"],"lastUpdated":1547527612867,"name":"IHOP","phone":"(816) 358-4467","price":"$","reviewCount":25,"reviewScore":2,"meta":{"revision":0,"created":1547531151277,"version":0},"$loki":159},{"_id":"5c3d65bd3525a329e0c0398b","address":"11601 E US Hwy 40","location":{"type":"Point","coordinates":[-94.459773,39.245266]},"isApproved":true,"items":[],"keys":["Sandwiches","Fast Food"],"lastUpdated":1547527612310,"name":"Subway","phone":"(816) 356-7827","price":"","reviewCount":1,"reviewScore":4,"meta":{"revision":0,"created":1547531151277,"version":0},"$loki":160},{"_id":"5c3d65bd3525a329e0c06424","address":"727 NW 7th Hwy","location":{"type":"Point","coordinates":[-94.4597949885942,39.2414254522098]},"isApproved":true,"items":[],"keys":["Fast Food","Chicken Wings"],"lastUpdated":1547527612371,"name":"Popeyes Louisiana Kitchen","phone":"(816) 295-7273","price":"","reviewCount":7,"reviewScore":1.5,"meta":{"revision":0,"created":1547531151277,"version":0},"$loki":161},{"_id":"5c3d65bd3525a329e0c0f1b9","address":"9205 E 350 Hwy","location":{"type":"Point","coordinates":[-94.4624761,39.2423097]},"isApproved":true,"items":[],"keys":["Mexican","Fast Food"],"lastUpdated":1547527612591,"name":"Chipotle Mexican Grill","phone":"(816) 743-0284","price":"$","reviewCount":14,"reviewScore":4,"meta":{"revision":0,"created":1547531151277,"version":0},"$loki":162},{"_id":"5c3d65bd3525a329e0c00a1c","address":"101 W Broadway St","location":{"type":"Point","coordinates":[-94.473976,39.244467]},"isApproved":true,"items":[],"keys":["Mexican"],"lastUpdated":1547527612229,"name":"Herradura","phone":"(816) 848-5082","price":"$","reviewCount":12,"reviewScore":4,"meta":{"revision":0,"created":1547531151277,"version":0},"$loki":163},{"_id":"5c3d65bd3525a329e0c183b9","address":"110 SW State Rt 7","location":{"type":"Point","coordinates":[-94.473976,39.244467]},"isApproved":true,"items":[],"keys":["Pizza","Italian"],"lastUpdated":1547527612814,"name":"Original Pizza","phone":"(816) 220-3445","price":"$","reviewCount":20,"reviewScore":4,"meta":{"revision":0,"created":1547531151277,"version":0},"$loki":164},{"_id":"5c3d65bd3525a329e0c0bc75","address":"18813 E 39th St S","location":{"type":"Point","coordinates":[-94.4743077546892,39.2443710030451]},"isApproved":true,"items":[],"keys":["Chinese","Fast Food"],"lastUpdated":1547527612509,"name":"Panda Express","phone":"(816) 795-9960","price":"","reviewCount":4,"reviewScore":4,"meta":{"revision":0,"created":1547531151277,"version":0},"$loki":165},{"_id":"5c3d65bd3525a329e0c0c320","address":"18921 E Valley View Pkwy","location":{"type":"Point","coordinates":[-94.4764997846006,39.2437736295078]},"isApproved":true,"items":[],"keys":["Mexican","Fast Food"],"lastUpdated":1547527612518,"name":"QDOBA Mexican Eats","phone":"(816) 795-3350","price":"$","reviewCount":10,"reviewScore":3,"meta":{"revision":0,"created":1547531151277,"version":0},"$loki":166},{"_id":"5c3d65bd3525a329e0c1015a","address":"7013 N Oak Trafficway","location":{"type":"Point","coordinates":[-94.4783263,39.2442067]},"isApproved":true,"items":[],"keys":["Mexican","Sports Bars"],"lastUpdated":1547527612610,"name":"Margarita’s North","phone":"(816) 468-0337","price":"$$","reviewCount":78,"reviewScore":3.5,"meta":{"revision":0,"created":1547531151277,"version":0},"$loki":167},{"_id":"5c3d65bd3525a329e0c13fc4","address":"15411 E US Hwy 24","location":{"type":"Point","coordinates":[-94.4783263,39.2442067]},"isApproved":true,"items":[],"keys":["Chinese"],"lastUpdated":1547527612707,"name":"Cathay Express Chinese Fast Food","phone":"(816) 254-2005","price":"$","reviewCount":35,"reviewScore":4,"meta":{"revision":0,"created":1547531151277,"version":0},"$loki":168},{"_id":"5c3d65bd3525a329e0c11d88","address":"11728 NW Ambassador Dr","location":{"type":"Point","coordinates":[-94.5829399,39.38944]},"isApproved":true,"items":[],"keys":["Burgers","American (New)"],"lastUpdated":1547527612661,"name":"Burger Theory","phone":"(816) 801-8400","price":"$$","reviewCount":44,"reviewScore":3,"meta":{"revision":0,"created":1547531151277,"version":0},"$loki":169},{"_id":"5c3d65bd3525a329e0c0a45c","address":"53 Rome Cir","location":{"type":"Point","coordinates":[-94.580416,39.386972697377]},"isApproved":true,"items":[],"keys":["Barbeque","Pubs"],"lastUpdated":1547527612480,"name":"Pork & Pickle","phone":"(816) 240-5700","price":"$$","reviewCount":407,"reviewScore":3,"meta":{"revision":0,"created":1547531151277,"version":0},"$loki":170},{"_id":"5c3d65bd3525a329e0c098c6","address":"International Airport","location":{"type":"Point","coordinates":[-94.584187,39.382877]},"isApproved":true,"items":[],"keys":["American (New)","Gastropubs"],"lastUpdated":1547527612462,"name":"KCI Brew Pub","phone":"","price":"$$","reviewCount":65,"reviewScore":2,"meta":{"revision":0,"created":1547531151277,"version":0},"$loki":171},{"_id":"5c3d65bd3525a329e0c173eb","address":"529 Cherokee St","location":{"type":"Point","coordinates":[-94.5842236669342,39.3829650659673]},"isApproved":true,"items":[],"keys":["American (New)"],"lastUpdated":1547527612784,"name":"Ten Penny Restaurant & Bar","phone":"(913) 651-1010","price":"$$","reviewCount":52,"reviewScore":3.5,"meta":{"revision":0,"created":1547531151277,"version":0},"$loki":172},{"_id":"5c3d65bd3525a329e0c12e30","address":"17605 Highway Z","location":{"type":"Point","coordinates":[-94.5844785648094,39.3885303191708]},"isApproved":true,"items":[],"keys":["Fast Food","Sandwiches"],"lastUpdated":1547527612681,"name":"Subway","phone":"(816) 992-3703","price":"","reviewCount":1,"reviewScore":3,"meta":{"revision":0,"created":1547531151277,"version":0},"$loki":173},{"_id":"5c3d65bd3525a329e0c0cd36","address":"10911 NW Hwy 45","location":{"type":"Point","coordinates":[-94.585145,39.388611]},"isApproved":true,"items":[],"keys":["American (Traditional)","Sports Bars"],"lastUpdated":1547527612534,"name":"Al’s Bar & Grill","phone":"(816) 741-6500","price":"$","reviewCount":38,"reviewScore":4.5,"meta":{"revision":0,"created":1547531151277,"version":0},"$loki":174},{"_id":"5c3d65bd3525a329e0c0ff72","address":"6325 Lewis St","location":{"type":"Point","coordinates":[-94.583603,39.389]},"isApproved":true,"items":[],"keys":["Sushi Bars","Japanese","Asian Fusion"],"lastUpdated":1547527612609,"name":"Sakae Sushi","phone":"(816) 505-2868","price":"$$","reviewCount":99,"reviewScore":4.5,"meta":{"revision":0,"created":1547531151277,"version":0},"$loki":175},{"_id":"5c3d65bd3525a329e0c048bb","address":"8340 NW Roanridge Rd","location":{"type":"Point","coordinates":[-94.5832192897797,39.3741595607803]},"isApproved":true,"items":[],"keys":["Mexican","Tex-Mex"],"lastUpdated":1547527612330,"name":"On The Border Mexican Grill & Cantina","phone":"(816) 759-2270","price":"$$","reviewCount":77,"reviewScore":3,"meta":{"revision":0,"created":1547531151277,"version":0},"$loki":176},{"_id":"5c3d65bd3525a329e0c10d3c","address":"1018 Hwy169","location":{"type":"Point","coordinates":[-94.5834477169497,39.3726683622814]},"isApproved":true,"items":[],"keys":["American (New)"],"lastUpdated":1547527612633,"name":"Kozak’s Laketown Grill","phone":"(816) 873-3444","price":"$$","reviewCount":69,"reviewScore":4,"meta":{"revision":0,"created":1547531151277,"version":0},"$loki":177},{"_id":"5c3d65bd3525a329e0c0f6c1","address":"9196 N Skyview Ave","location":{"type":"Point","coordinates":[-94.5830892026424,39.3693283703217]},"isApproved":true,"items":[],"keys":["Pizza","American (Traditional)"],"lastUpdated":1547527612599,"name":"Chuck E Cheese’s","phone":"(816) 505-0902","price":"$","reviewCount":16,"reviewScore":3.5,"meta":{"revision":0,"created":1547531151277,"version":0},"$loki":178},{"_id":"5c3d65bd3525a329e0c0e8bc","address":"259 E Broadway Ave","location":{"type":"Point","coordinates":[-94.5844377,39.3627096]},"isApproved":true,"items":[],"keys":["American (Traditional)","Bars","Hot Dogs"],"lastUpdated":1547527612575,"name":"Broadway Bar and Grill","phone":"(816) 637-2384","price":"","reviewCount":2,"reviewScore":3,"meta":{"revision":0,"created":1547531151277,"version":0},"$loki":179},{"_id":"5c3d65bd3525a329e0c16770","address":"324 NE 72nd St","location":{"type":"Point","coordinates":[-94.5832465,39.3619746]},"isApproved":true,"items":[],"keys":["Sandwiches","Fast Food"],"lastUpdated":1547527612771,"name":"Subway","phone":"(816) 468-4499","price":"","reviewCount":1,"reviewScore":5,"meta":{"revision":0,"created":1547531151277,"version":0},"$loki":180},{"_id":"5c3d65bd3525a329e0c05c56","address":"206 N Main St","location":{"type":"Point","coordinates":[-94.399884,39.200257]},"isApproved":true,"items":[],"keys":["American (New)","Burgers","Sandwiches"],"lastUpdated":1547527612357,"name":"Courtside Restaurant","phone":"(816) 539-2509","price":"$","reviewCount":8,"reviewScore":4,"meta":{"revision":0,"created":1547531151277,"version":0},"$loki":181},{"_id":"5c3d65bd3525a329e0c11d07","address":"1335 W Vest St","location":{"type":"Point","coordinates":[-94.399884,39.200257]},"isApproved":true,"items":[],"keys":["American (Traditional)"],"lastUpdated":1547527612660,"name":"Bloomfield’s Family Restaurant","phone":"(660) 831-0990","price":"$","reviewCount":12,"reviewScore":3.5,"meta":{"revision":0,"created":1547531151277,"version":0},"$loki":182},{"_id":"5c3d65bd3525a329e0c092c6","address":"100 N Locust St","location":{"type":"Point","coordinates":[-94.1234156,39.212804]},"isApproved":true,"items":[],"keys":["Delis","Cheese Shops","Sandwiches"],"lastUpdated":1547527612452,"name":"The Cheese Store","phone":"(660) 335-6758","price":"$$","reviewCount":11,"reviewScore":5,"meta":{"revision":0,"created":1547531151277,"version":0},"$loki":183},{"_id":"5c3d65bd3525a329e0c04179","address":"7865 Southpoint Dr","location":{"type":"Point","coordinates":[-94.0735893416199,39.2378958012453]},"isApproved":true,"items":[],"keys":["Venues & Event Spaces","American (New)"],"lastUpdated":1547527612320,"name":"Elements Destination Restaurant","phone":"(816) 496-0165","price":"","reviewCount":6,"reviewScore":4.5,"meta":{"revision":0,"created":1547531151277,"version":0},"$loki":184},{"_id":"5c3d65bd3525a329e0c18b22","address":"1014 Main St","location":{"type":"Point","coordinates":[-93.965645,39.271021]},"isApproved":true,"items":[],"keys":["Pizza"],"lastUpdated":1547527612823,"name":"Papa Jack’s Pizza","phone":"(660) 259-9095","price":"$$","reviewCount":3,"reviewScore":4.5,"meta":{"revision":0,"created":1547531151277,"version":0},"$loki":185},{"_id":"5c3d65bd3525a329e0c0d6a4","address":"620 S Institute St","location":{"type":"Point","coordinates":[-93.961691956856,39.2698095794754]},"isApproved":true,"items":[],"keys":["Mexican"],"lastUpdated":1547527612554,"name":"Tequila Jalisco Mexican Restaurant 4","phone":"(816) 776-3981","price":"$","reviewCount":12,"reviewScore":4,"meta":{"revision":0,"created":1547531151277,"version":0},"$loki":186},{"_id":"5c3d65bd3525a329e0c15f49","address":"702 Wollard Blvd","location":{"type":"Point","coordinates":[-93.9598901971425,39.2780827546218]},"isApproved":true,"items":[],"keys":["Chinese"],"lastUpdated":1547527612756,"name":"King Garden","phone":"(816) 776-3888","price":"$","reviewCount":5,"reviewScore":4,"meta":{"revision":0,"created":1547531151277,"version":0},"$loki":187},{"_id":"5c3d65bd3525a329e0c04cc9","address":"1006 East Main","location":{"type":"Point","coordinates":[-93.959358,39.27833]},"isApproved":true,"items":[],"keys":["American (Traditional)","Barbeque"],"lastUpdated":1547527612338,"name":"Oink & Moo Barbeque","phone":"(816) 776-6465","price":"$$","reviewCount":13,"reviewScore":4,"meta":{"revision":0,"created":1547531151277,"version":0},"$loki":188},{"_id":"5c3d65bd3525a329e0c00fdb","address":"1694 NW Chipman Rd","location":{"type":"Point","coordinates":[-93.959439,39.278537]},"isApproved":true,"items":[],"keys":["Pizza","Fast Food"],"lastUpdated":1547527612238,"name":"Pinsa Pizzeria & Kitchen","phone":"(816) 272-5001","price":"$","reviewCount":116,"reviewScore":4.5,"meta":{"revision":0,"created":1547531151277,"version":0},"$loki":189},{"_id":"5c3d65bd3525a329e0c0738d","address":"4215 S Little Blue Pkwy","location":{"type":"Point","coordinates":[-93.971222,39.278348]},"isApproved":true,"items":[],"keys":["American (Traditional)","Diners","Breakfast & Brunch"],"lastUpdated":1547527612399,"name":"Corner Cafe","phone":"(816) 350-7000","price":"$$","reviewCount":144,"reviewScore":3.5,"meta":{"revision":0,"created":1547531151277,"version":0},"$loki":190},{"_id":"5c3d65bd3525a329e0c06c5f","address":"823 S Hwy 13","location":{"type":"Point","coordinates":[-93.9769415,39.2792777]},"isApproved":true,"items":[],"keys":["Chinese","Buffets"],"lastUpdated":1547527612386,"name":"Chinese Buffet #1688","phone":"(660) 259-6677","price":"","reviewCount":5,"reviewScore":4,"meta":{"revision":0,"created":1547531151277,"version":0},"$loki":191},{"_id":"5c3d65bd3525a329e0c05d4f","address":"109 E South Front St","location":{"type":"Point","coordinates":[-93.9820255486877,39.2769380462935]},"isApproved":true,"items":[],"keys":["American (Traditional)"],"lastUpdated":1547527612361,"name":"Fubbler’s Cove","phone":"(816) 770-3878","price":"","reviewCount":4,"reviewScore":4.5,"meta":{"revision":0,"created":1547531151277,"version":0},"$loki":192},{"_id":"5c3d65bd3525a329e0c0b4e5","address":"1004 E Main St","location":{"type":"Point","coordinates":[-93.9828744,39.2786435]},"isApproved":true,"items":[],"keys":["Pizza","Italian","Chicken Wings"],"lastUpdated":1547527612499,"name":"Pizza Hut","phone":"(816) 776-2206","price":"$","reviewCount":2,"reviewScore":3,"meta":{"revision":0,"created":1547531151277,"version":0},"$loki":193},{"_id":"5c3d65bd3525a329e0c0f4be","address":"740 NW Blue Pkwy","location":{"type":"Point","coordinates":[-93.9679044485092,39.2710043761614]},"isApproved":true,"items":[],"keys":["Steakhouses","Barbeque"],"lastUpdated":1547527612592,"name":"Texas Roadhouse","phone":"(816) 246-3909","price":"","reviewCount":11,"reviewScore":3.5,"meta":{"revision":0,"created":1547531151277,"version":0},"$loki":194},{"_id":"5c3d65bd3525a329e0c0798e","address":"201 S Stewart Rd","location":{"type":"Point","coordinates":[-93.982321,39.2610195]},"isApproved":true,"items":[],"keys":["Wine Bars","American (New)"],"lastUpdated":1547527612409,"name":"Louie’s Wine Dive","phone":"(816) 621-7900","price":"$$","reviewCount":48,"reviewScore":4,"meta":{"revision":0,"created":1547531151277,"version":0},"$loki":195},{"_id":"5c3d65bd3525a329e0c0ce35","address":"106 W North Main","location":{"type":"Point","coordinates":[-93.998965,39.278305]},"isApproved":true,"items":[],"keys":["Pizza"],"lastUpdated":1547527612534,"name":"Home Town Pizza","phone":"(816) 776-3310","price":"$","reviewCount":6,"reviewScore":4,"meta":{"revision":0,"created":1547531151277,"version":0},"$loki":196},{"_id":"5c3d65bd3525a329e0bffa07","address":"1302 N Jesse James Rd","location":{"type":"Point","coordinates":[-94.2124734,39.340329]},"isApproved":true,"items":[],"keys":["Coffee & Tea","Breakfast & Brunch","Juice Bars & Smoothies"],"lastUpdated":1547527612220,"name":"Opportunity Cafe & Coffee","phone":"(816) 900-1074","price":"","reviewCount":1,"reviewScore":5,"meta":{"revision":0,"created":1547531151277,"version":0},"$loki":197},{"_id":"5c3d65bd3525a329e0c15820","address":"11832 NW Plaza Cir","location":{"type":"Point","coordinates":[-94.221617,39.3421805]},"isApproved":true,"items":[],"keys":["American (New)"],"lastUpdated":1547527612747,"name":"Tanner’s Bar & Grill","phone":"(816) 464-2345","price":"","reviewCount":1,"reviewScore":3,"meta":{"revision":0,"created":1547531151277,"version":0},"$loki":198},{"_id":"5c3d65bd3525a329e0c13e2e","address":"504 Commercial St","location":{"type":"Point","coordinates":[-94.2211059,39.3421663]},"isApproved":true,"items":[],"keys":["Antiques","Burgers","Home Decor"],"lastUpdated":1547527612706,"name":"Gateway to Kansas Shops & Old Fashion Soda Fountain & Grill","phone":"(913) 367-1533","price":"$","reviewCount":4,"reviewScore":5,"meta":{"revision":0,"created":1547531151277,"version":0},"$loki":199},{"_id":"5c3d65bd3525a329e0c105ea","address":"6332 NW Barry Rd","location":{"type":"Point","coordinates":[-94.2267877,39.3390224]},"isApproved":true,"items":[],"keys":["Breakfast & Brunch"],"lastUpdated":1547527612618,"name":"The Big Biscuit","phone":"(816) 326-8838","price":"$","reviewCount":179,"reviewScore":4,"meta":{"revision":0,"created":1547531151277,"version":0},"$loki":200},{"_id":"5c3d65bd3525a329e0c1441a","address":"11832 NW Plz Cir","location":{"type":"Point","coordinates":[-94.2260001589236,39.3396827949265]},"isApproved":true,"items":[],"keys":["American (Traditional)"],"lastUpdated":1547527612714,"name":"Boulevard Grill","phone":"(816) 464-2216","price":"$$","reviewCount":60,"reviewScore":2.5,"meta":{"revision":0,"created":1547531151277,"version":0},"$loki":201},{"_id":"5c3d65bd3525a329e0c09fee","address":"203 US-169 Hwy","location":{"type":"Point","coordinates":[-94.2237148,39.342294]},"isApproved":true,"items":[],"keys":["Cafes"],"lastUpdated":1547527612472,"name":"Family Traditions Cafe","phone":"(816) 343-2177","price":"$","reviewCount":9,"reviewScore":4,"meta":{"revision":0,"created":1547531151277,"version":0},"$loki":202},{"_id":"5c3d65bd3525a329e0c095cc","address":"9322 N Oak Trfy","location":{"type":"Point","coordinates":[-94.2233559,39.3421954]},"isApproved":true,"items":[],"keys":["Chinese"],"lastUpdated":1547527612453,"name":"Red Wok","phone":"(816) 468-8868","price":"$","reviewCount":46,"reviewScore":3.5,"meta":{"revision":0,"created":1547531151277,"version":0},"$loki":203},{"_id":"5c3d65bd3525a329e0bffbf2","address":"710 N Main St","location":{"type":"Point","coordinates":[-94.2273082,39.3352817]},"isApproved":true,"items":[],"keys":["Mexican"],"lastUpdated":1547527612221,"name":"La Mesa Mexican Restaurant","phone":"(913) 727-3309","price":"$$","reviewCount":49,"reviewScore":3.5,"meta":{"revision":0,"created":1547531151277,"version":0},"$loki":204},{"_id":"5c3d65bd3525a329e0c0a39a","address":"5708 N Oak Trafficway","location":{"type":"Point","coordinates":[-94.225949,39.337014]},"isApproved":true,"items":[],"keys":["Mexican","Salad"],"lastUpdated":1547527612474,"name":"Mi Ranchito","phone":"(816) 994-1999","price":"$$","reviewCount":109,"reviewScore":3.5,"meta":{"revision":0,"created":1547531151277,"version":0},"$loki":205},{"_id":"5c3d65bd3525a329e0c1227b","address":"9392 K92 Hwy","location":{"type":"Point","coordinates":[-94.2259483,39.3370105]},"isApproved":true,"items":[],"keys":["Bars","American (Traditional)"],"lastUpdated":1547527612669,"name":"Bobcats Bar and Grill","phone":"(785) 338-6884","price":"$$","reviewCount":4,"reviewScore":4,"meta":{"revision":0,"created":1547531151277,"version":0},"$loki":206},{"_id":"5c3d65bd3525a329e0c13c4c","address":"203-I NE Englewood Rd","location":{"type":"Point","coordinates":[-94.374121,39.361229]},"isApproved":true,"items":[],"keys":["Fast Food","Mexican"],"lastUpdated":1547527612705,"name":"Chipotle Mexican Grill","phone":"(816) 423-5438","price":"$","reviewCount":35,"reviewScore":2.5,"meta":{"revision":0,"created":1547531151277,"version":0},"$loki":207},{"_id":"5c3d65bd3525a329e0c12d6b","address":"8642 N Dixson Ave","location":{"type":"Point","coordinates":[-94.3600199972412,39.3679926267616]},"isApproved":true,"items":[],"keys":["Fast Food","Sandwiches"],"lastUpdated":1547527612681,"name":"Subway","phone":"(816) 746-4844","price":"","reviewCount":4,"reviewScore":2,"meta":{"revision":0,"created":1547531151277,"version":0},"$loki":208},{"_id":"5c3d65bd3525a329e0c02bf3","address":"5813 Antioch Rd","location":{"type":"Point","coordinates":[-94.3627093,39.3673204]},"isApproved":true,"items":[],"keys":["Fast Food","Chicken Wings","Chicken Shop"],"lastUpdated":1547527612287,"name":"KFC","phone":"(816) 455-5205","price":"","reviewCount":8,"reviewScore":2,"meta":{"revision":0,"created":1547531151277,"version":0},"$loki":209},{"_id":"5c3d65bd3525a329e0c04ac4","address":"17605 Hwy Z","location":{"type":"Point","coordinates":[-94.361822,39.372368]},"isApproved":true,"items":[],"keys":["Pizza"],"lastUpdated":1547527612331,"name":"Hunt Brothers Pizza","phone":"(816) 992-9465","price":"","reviewCount":1,"reviewScore":4,"meta":{"revision":0,"created":1547531151277,"version":0},"$loki":210},{"_id":"5c3d65bd3525a329e0c19932","address":"9770 NW Prairieview Rd","location":{"type":"Point","coordinates":[-94.361278,39.372713]},"isApproved":true,"items":[],"keys":["American (Traditional)","Burgers"],"lastUpdated":1547527612843,"name":"Ruby Tuesday","phone":"(816) 891-7091","price":"$$","reviewCount":70,"reviewScore":3,"meta":{"revision":0,"created":1547531151277,"version":0},"$loki":211},{"_id":"5c3d65bd3525a329e0c09f4f","address":"7831 N Oak Trfy","location":{"type":"Point","coordinates":[-94.361568,39.372121]},"isApproved":true,"items":[],"keys":["Mexican"],"lastUpdated":1547527612472,"name":"El Maguey","phone":"(816) 468-0077","price":"$","reviewCount":51,"reviewScore":3,"meta":{"revision":0,"created":1547531151277,"version":0},"$loki":212},{"_id":"5c3d65bd3525a329e0c001d8","address":"505 Oak St","location":{"type":"Point","coordinates":[-94.3742649,39.3685523]},"isApproved":true,"items":[],"keys":["Pizza"],"lastUpdated":1547527612224,"name":"Gambino’s Pizza","phone":"(816) 740-4447","price":"","reviewCount":2,"reviewScore":2,"meta":{"revision":0,"created":1547531151277,"version":0},"$loki":213},{"_id":"5c3d65bd3525a329e0c0c9ec","address":"1744 W Jesse James Rd","location":{"type":"Point","coordinates":[-94.370709,39.368498]},"isApproved":true,"items":[],"keys":["Fast Food","Chicken Wings","Chicken Shop"],"lastUpdated":1547527612532,"name":"KFC","phone":"(816) 637-7564","price":"$","reviewCount":2,"reviewScore":2,"meta":{"revision":0,"created":1547531151277,"version":0},"$loki":214},{"_id":"5c3d65bd3525a329e0c19081","address":"6502 N Oak Trfy","location":{"type":"Point","coordinates":[-94.3704416,39.3660262]},"isApproved":true,"items":[],"keys":["Mexican"],"lastUpdated":1547527612832,"name":"Senor Tequila","phone":"(816) 420-0640","price":"$$","reviewCount":86,"reviewScore":3.5,"meta":{"revision":0,"created":1547531151277,"version":0},"$loki":215},{"_id":"5c3d65bd3525a329e0c1ab63","address":"2302 Running Horse Rd","location":{"type":"Point","coordinates":[-94.3704446,39.366026]},"isApproved":true,"items":[],"keys":["Delis","Sandwiches","Fast Food"],"lastUpdated":1547527612868,"name":"Jimmy John’s","phone":"(816) 431-3009","price":"$","reviewCount":11,"reviewScore":3.5,"meta":{"revision":0,"created":1547531151277,"version":0},"$loki":216},{"_id":"5c3d65bd3525a329e0c09013","address":"1400 US Hwy 59","location":{"type":"Point","coordinates":[-94.3704877958341,39.3673740606978]},"isApproved":true,"items":[],"keys":["Barbeque"],"lastUpdated":1547527612439,"name":"JW’s Boys BBQ","phone":"(913) 370-3509","price":"","reviewCount":6,"reviewScore":4,"meta":{"revision":0,"created":1547531151277,"version":0},"$loki":217},{"_id":"5c3d65bd3525a329e0c01de2","address":"755 NW Barry Rd","location":{"type":"Point","coordinates":[-94.371127,39.365099]},"isApproved":true,"items":[],"keys":["Fast Food","Chicken Wings","Chicken Shop"],"lastUpdated":1547527612260,"name":"KFC","phone":"(816) 468-0676","price":"$","reviewCount":12,"reviewScore":1.5,"meta":{"revision":0,"created":1547531151277,"version":0},"$loki":218},{"_id":"5c3d65bd3525a329e0c01690","address":"801 Watson Dr","location":{"type":"Point","coordinates":[-94.3739381,39.3665369]},"isApproved":true,"items":[],"keys":["Sandwiches","Fast Food","Delis"],"lastUpdated":1547527612250,"name":"Jimmy John’s","phone":"(816) 903-5700","price":"","reviewCount":1,"reviewScore":4,"meta":{"revision":0,"created":1547531151277,"version":0},"$loki":219},{"_id":"5c3d65bd3525a329e0c00a0d","address":"618 Commercial St","location":{"type":"Point","coordinates":[-94.3746546201584,39.3659819615991]},"isApproved":true,"items":[],"keys":["Pizza","Steakhouses","Greek"],"lastUpdated":1547527612229,"name":"Pete’s Steak House","phone":"(913) 367-7096","price":"$$","reviewCount":22,"reviewScore":3.5,"meta":{"revision":0,"created":1547531151277,"version":0},"$loki":220},{"_id":"5c3d65bd3525a329e0c0a41d","address":"10 Main St","location":{"type":"Point","coordinates":[-94.375046,39.366041]},"isApproved":true,"items":[],"keys":["American (New)","Burgers"],"lastUpdated":1547527612480,"name":"Pirate Pete’s Family Restaurant","phone":"(816) 818-5239","price":"","reviewCount":2,"reviewScore":4.5,"meta":{"revision":0,"created":1547531151277,"version":0},"$loki":221},{"_id":"5c3d65bd3525a329e0c198d0","address":"6057 NE Antioch Rd","location":{"type":"Point","coordinates":[-94.2698539,39.3312139]},"isApproved":true,"items":[],"keys":["Sandwiches","Fast Food"],"lastUpdated":1547527612842,"name":"Subway","phone":"(816) 454-7211","price":"","reviewCount":1,"reviewScore":5,"meta":{"revision":0,"created":1547531151277,"version":0},"$loki":222},{"_id":"5c3d65bd3525a329e0c17c10","address":"120 S Broadway St","location":{"type":"Point","coordinates":[-94.26643,39.3331679]},"isApproved":true,"items":[],"keys":["Fast Food","Ice Cream & Frozen Yogurt"],"lastUpdated":1547527612800,"name":"Dairy Queen","phone":"(913) 651-2126","price":"$","reviewCount":6,"reviewScore":4.5,"meta":{"revision":0,"created":1547531151277,"version":0},"$loki":223},{"_id":"5c3d65bd3525a329e0c199fa","address":"601 Brasilia Ave","location":{"type":"Point","coordinates":[-94.2687918,39.3315662]},"isApproved":true,"items":[],"keys":["Burgers","Fast Food"],"lastUpdated":1547527612848,"name":"Burger King","phone":"","price":"$","reviewCount":10,"reviewScore":1.5,"meta":{"revision":0,"created":1547531151277,"version":0},"$loki":224},{"_id":"5c3d65bd3525a329e0c0dac7","address":"4315 NE Chouteau Trafficway","location":{"type":"Point","coordinates":[-94.2637223,39.3318527]},"isApproved":true,"items":[],"keys":["Fast Food","Sandwiches"],"lastUpdated":1547527612556,"name":"Subway","phone":"(816) 455-9559","price":"$","reviewCount":1,"reviewScore":4,"meta":{"revision":0,"created":1547531151277,"version":0},"$loki":225},{"_id":"5c3d65bd3525a329e0c1a5c8","address":"4031 North Oak Trafficway","location":{"type":"Point","coordinates":[-94.2471681,39.3392441]},"isApproved":true,"items":[],"keys":["Pizza","Italian","Chicken Wings"],"lastUpdated":1547527612860,"name":"Pizza Hut","phone":"(816) 454-2257","price":"$$","reviewCount":6,"reviewScore":1.5,"meta":{"revision":0,"created":1547531151277,"version":0},"$loki":226},{"_id":"5c3d65bd3525a329e0c05c90","address":"9750 NW Prairie View Rd","location":{"type":"Point","coordinates":[-94.2481962,39.3388717]},"isApproved":true,"items":[],"keys":["Breakfast & Brunch","Diners","American (Traditional)"],"lastUpdated":1547527612357,"name":"Waffle House","phone":"(816) 891-6545","price":"$","reviewCount":57,"reviewScore":3.5,"meta":{"revision":0,"created":1547531151277,"version":0},"$loki":227},{"_id":"5c3d65bd3525a329e0c1589d","address":"7312 K4 Hwy","location":{"type":"Point","coordinates":[-94.2497187852859,39.337296]},"isApproved":true,"items":[],"keys":["Sandwiches","Fast Food"],"lastUpdated":1547527612747,"name":"Subway","phone":"(785) 484-2053","price":"","reviewCount":1,"reviewScore":1,"meta":{"revision":0,"created":1547531151277,"version":0},"$loki":228},{"_id":"5c3d65bd3525a329e0c0a4e1","address":"4323 NE Chouteau Trafficway","location":{"type":"Point","coordinates":[-94.2504896,39.3367221]},"isApproved":true,"items":[],"keys":["Fast Food","Mexican"],"lastUpdated":1547527612480,"name":"Chipotle Mexican Grill","phone":"(816) 459-9892","price":"$$","reviewCount":7,"reviewScore":2.5,"meta":{"revision":0,"created":1547531151277,"version":0},"$loki":229},{"_id":"5c3d65bd3525a329e0c01f93","address":"6413 N Cosby Ave","location":{"type":"Point","coordinates":[-94.25159,39.33718]},"isApproved":true,"items":[],"keys":["Sandwiches","Fast Food"],"lastUpdated":1547527612269,"name":"Subway","phone":"(816) 587-4680","price":"","reviewCount":3,"reviewScore":2,"meta":{"revision":0,"created":1547531151277,"version":0},"$loki":230},{"_id":"5c3d65bd3525a329e0c014aa","address":"9223 N Oak Trafficway","location":{"type":"Point","coordinates":[-94.2517,39.3373]},"isApproved":true,"items":[],"keys":["Fast Food","Sandwiches"],"lastUpdated":1547527612249,"name":"Subway","phone":"(816) 420-8087","price":"$$","reviewCount":8,"reviewScore":2,"meta":{"revision":0,"created":1547531151277,"version":0},"$loki":231},{"_id":"5c3d65bd3525a329e0c05aac","address":"7601 N Oak Trafficway","location":{"type":"Point","coordinates":[-94.239423,39.342196]},"isApproved":true,"items":[],"keys":["Pizza"],"lastUpdated":1547527612356,"name":"Papa John’s Pizza","phone":"(816) 468-9000","price":"","reviewCount":10,"reviewScore":1.5,"meta":{"revision":0,"created":1547531151277,"version":0},"$loki":232},{"_id":"5c3d65bd3525a329e0c0d72c","address":"1101 N Jesse James Rd","location":{"type":"Point","coordinates":[-94.2348173,39.3531916]},"isApproved":true,"items":[],"keys":["Chinese","Fast Food","American (Traditional)"],"lastUpdated":1547527612554,"name":"Hunan","phone":"(816) 630-5588","price":"$$","reviewCount":12,"reviewScore":4,"meta":{"revision":0,"created":1547531151277,"version":0},"$loki":233},{"_id":"5c3d65bd3525a329e0c0bf76","address":"56 Rome Cir","location":{"type":"Point","coordinates":[-94.2361258,39.3607252]},"isApproved":true,"items":[],"keys":["Pizza"],"lastUpdated":1547527612516,"name":"California Pizza Kitchen","phone":"","price":"$$","reviewCount":18,"reviewScore":2,"meta":{"revision":0,"created":1547531151277,"version":0},"$loki":234},{"_id":"5c3d65bd3525a329e0c16328","address":"6145 NW Barry Rd","location":{"type":"Point","coordinates":[-94.2359788,39.35869]},"isApproved":true,"items":[],"keys":["Sandwiches","Salad","Soup"],"lastUpdated":1547527612763,"name":"Panera Bread","phone":"(816) 741-7110","price":"$","reviewCount":34,"reviewScore":2.5,"meta":{"revision":0,"created":1547531151277,"version":0},"$loki":235},{"_id":"5c3d65bd3525a329e0c1b57f","address":"613 3rd St","location":{"type":"Point","coordinates":[-94.2365997,39.3599817]},"isApproved":true,"items":[],"keys":["Pizza"],"lastUpdated":1547527612886,"name":"Pizza Hut","phone":"(816) 858-4700","price":"","reviewCount":1,"reviewScore":2,"meta":{"revision":0,"created":1547531151277,"version":0},"$loki":236},{"_id":"5c3d65bd3525a329e0c06087","address":"103-B S Jefferson","location":{"type":"Point","coordinates":[-94.3307660892606,39.5481877702096]},"isApproved":true,"items":[],"keys":["Coffee & Tea","Breakfast & Brunch","Sandwiches"],"lastUpdated":1547527612368,"name":"The Reserve on Jefferson","phone":"(816) 635-2335","price":"$$","reviewCount":8,"reviewScore":4.5,"meta":{"revision":0,"created":1547531151277,"version":0},"$loki":237},{"_id":"5c3d65bd3525a329e0c1187a","address":"516 NW Englewood Rd","location":{"type":"Point","coordinates":[-94.3277033,39.5570277]},"isApproved":true,"items":[],"keys":["American (New)","Chicken Wings","Southern"],"lastUpdated":1547527612650,"name":"Wings Cafe","phone":"(816) 413-9464","price":"$","reviewCount":208,"reviewScore":4.5,"meta":{"revision":0,"created":1547531151277,"version":0},"$loki":238},{"_id":"5c3d65bd3525a329e0c028ef","address":"600 West SR 92","location":{"type":"Point","coordinates":[-94.3281745,39.556506]},"isApproved":true,"items":[],"keys":["Mexican","Tex-Mex","Fast Food"],"lastUpdated":1547527612285,"name":"Taco Bell","phone":"(816) 635-4115","price":"$","reviewCount":10,"reviewScore":1.5,"meta":{"revision":0,"created":1547531151277,"version":0},"$loki":239},{"_id":"5c3d65bd3525a329e0c1207a","address":"801 Watson Drive","location":{"type":"Point","coordinates":[-94.3281745,39.556506]},"isApproved":true,"items":[],"keys":["Pizza"],"lastUpdated":1547527612663,"name":"Papa Murphy’s","phone":"(816) 903-7272","price":"","reviewCount":1,"reviewScore":2,"meta":{"revision":0,"created":1547531151277,"version":0},"$loki":240},{"_id":"5c3d65bd3525a329e0c0314a","address":"303 NE Englewood Rd","location":{"type":"Point","coordinates":[-94.2682665844729,39.5518383568]},"isApproved":true,"items":[],"keys":["Bars","American (Traditional)"],"lastUpdated":1547527612296,"name":"54th Street Grill and Bar","phone":"(816) 455-5609","price":"$$","reviewCount":67,"reviewScore":3.5,"meta":{"revision":0,"created":1547531151277,"version":0},"$loki":241},{"_id":"5c3d65bd3525a329e0bff85c","address":"605 W State Rt 92","location":{"type":"Point","coordinates":[-94.2282275930847,39.4399922844644]},"isApproved":true,"items":[],"keys":["Burgers"],"lastUpdated":1547527612218,"name":"Burger King","phone":"(816) 628-1784","price":"$","reviewCount":1,"reviewScore":3,"meta":{"revision":0,"created":1547531151277,"version":0},"$loki":242},{"_id":"5c3d65bd3525a329e0c10fc1","address":"6264 Lewis Dr","location":{"type":"Point","coordinates":[-94.2184821143746,39.4279422756532]},"isApproved":true,"items":[],"keys":["Chinese"],"lastUpdated":1547527612640,"name":"China Star","phone":"(816) 584-8885","price":"$","reviewCount":22,"reviewScore":4,"meta":{"revision":0,"created":1547531151277,"version":0},"$loki":243},{"_id":"5c3d65bd3525a329e0c11cf6","address":"1103 Rose Ave","location":{"type":"Point","coordinates":[-94.20806,39.440066]},"isApproved":true,"items":[],"keys":["Pizza","Italian","Chicken Wings"],"lastUpdated":1547527612660,"name":"Pizza Hut","phone":"(816) 630-6026","price":"","reviewCount":3,"reviewScore":3.5,"meta":{"revision":0,"created":1547531151277,"version":0},"$loki":244},{"_id":"5c3d65bd3525a329e0c10bfa","address":"4940 NE 81st St","location":{"type":"Point","coordinates":[-94.20413,39.4385566]},"isApproved":true,"items":[],"keys":["Sports Bars","Pool Halls","American (New)"],"lastUpdated":1547527612632,"name":"Brass Rail Sports Bar & Grill","phone":"(816) 468-6100","price":"$$","reviewCount":57,"reviewScore":3,"meta":{"revision":0,"created":1547531151277,"version":0},"$loki":245},{"_id":"5c3d65bd3525a329e0c0b104","address":"1000 Graves St","location":{"type":"Point","coordinates":[-93.9983874,39.744407]},"isApproved":true,"items":[],"keys":["Sandwiches","Fast Food"],"lastUpdated":1547527612497,"name":"Subway","phone":"(660) 707-0204","price":"$","reviewCount":1,"reviewScore":4,"meta":{"revision":0,"created":1547531151277,"version":0},"$loki":246},{"_id":"5c3d65bd3525a329e0bff819","address":"408 N Davis St","location":{"type":"Point","coordinates":[-93.9978738,39.7459066]},"isApproved":true,"items":[],"keys":["Barbeque"],"lastUpdated":1547527612218,"name":"Hank & Tank’s BBQ","phone":"(816) 649-8474","price":"$$","reviewCount":24,"reviewScore":5,"meta":{"revision":0,"created":1547531151277,"version":0},"$loki":247},{"_id":"5c3d65bd3525a329e0c0bade","address":"400 S Washington St","location":{"type":"Point","coordinates":[-93.9976817,39.7430698]},"isApproved":true,"items":[],"keys":["Fast Food","Burgers","Ice Cream & Frozen Yogurt"],"lastUpdated":1547527612508,"name":"Sonic Drive-In","phone":"(660) 646-6255","price":"$","reviewCount":1,"reviewScore":2,"meta":{"revision":0,"created":1547531151277,"version":0},"$loki":248},{"_id":"5c3d65bd3525a329e0c00b0c","address":"116 N Davis St","location":{"type":"Point","coordinates":[-93.9976763,39.7430236]},"isApproved":true,"items":[],"keys":["Desserts","Burgers"],"lastUpdated":1547527612230,"name":"J’s Burger Dive","phone":"(816) 583-1133","price":"$","reviewCount":43,"reviewScore":4.5,"meta":{"revision":0,"created":1547531151277,"version":0},"$loki":249},{"_id":"5c3d65bd3525a329e0c14e06","address":"100 N Davis St","location":{"type":"Point","coordinates":[-93.9977194,39.7424743]},"isApproved":true,"items":[],"keys":["American (Traditional)"],"lastUpdated":1547527612730,"name":"Blue Sage","phone":"(816) 583-1161","price":"$$","reviewCount":58,"reviewScore":4.5,"meta":{"revision":0,"created":1547531151277,"version":0},"$loki":250},{"_id":"5c3d65bd3525a329e0c112e8","address":"640 S Main St","location":{"type":"Point","coordinates":[-94.001596,39.734685]},"isApproved":true,"items":[],"keys":["Fast Food","Burgers","Coffee & Tea"],"lastUpdated":1547527612642,"name":"McDonald’s","phone":"(660) 258-3373","price":"","reviewCount":3,"reviewScore":3,"meta":{"revision":0,"created":1547531151277,"version":0},"$loki":251}],"idIndex":[1,2,3,4,5,6,7,8,9,10,11,12,13,14,15,16,17,18,19,20,21,22,23,24,25,26,27,28,29,30,31,32,33,34,35,36,37,38,39,40,41,42,43,44,45,46,47,48,49,50,51,52,53,54,55,56,57,58,59,60,61,62,63,64,65,66,67,68,69,70,71,72,73,74,75,76,77,78,79,80,81,82,83,84,85,86,87,88,89,90,91,92,93,94,95,96,97,98,99,100,101,102,103,104,105,106,107,108,109,110,111,112,113,114,115,116,117,118,119,120,121,122,123,124,125,126,127,128,129,130,131,132,133,134,135,136,137,138,139,140,141,142,143,144,145,146,147,148,149,150,151,152,153,154,155,156,157,158,159,160,161,162,163,164,165,166,167,168,169,170,171,172,173,174,175,176,177,178,179,180,181,182,183,184,185,186,187,188,189,190,191,192,193,194,195,196,197,198,199,200,201,202,203,204,205,206,207,208,209,210,211,212,213,214,215,216,217,218,219,220,221,222,223,224,225,226,227,228,229,230,231,232,233,234,235,236,237,238,239,240,241,242,243,244,245,246,247,248,249,250,251],"binaryIndices":{},"constraints":null,"uniqueNames":[],"transforms":{},