{"filename":"-94.5-40.5","collections":[{"name":"restaurants","data":[{"_id":"5c3d65bd3525a329e0c18439","address":"1204 US Hwy 136","location":{"type":"Point","coordinates":[-94.3427733943481,40.2568418481015]},"isApproved":true,"items":[],"keys":["American (Traditional)","Breakfast & Brunch","Sandwiches"],"lastUpdated":1547527612814,"name":"Poppa’s Family Restaurant","phone":"(660) 726-5577","price":"","reviewCount":4,"reviewScore":4,"meta":{"revision":0,"created":1547531153096,"version":0},"$loki":1},{"_id":"5c3d65bd3525a329e0c16aa3","address":"3 Warrior Dr","location":{"type":"Point","coordinates":[-94.344575,40.255844]},"isApproved":true,"items":[],"keys":["Sandwiches","Fast Food"],"lastUpdated":1547527612773,"name":"Subway","phone":"(660) 726-3490","price":"","reviewCount":2,"reviewScore":3.5,"meta":{"revision":0,"created":1547531153096,"version":0},"$loki":2},{"_id":"5c3d65bd3525a329e0c1590d","address":"28 Circle Dr","location":{"type":"Point","coordinates":[-94.347008,40.255325]},"isApproved":true,"items":[],"keys":["Barbeque"],"lastUpdated":1547527612747,"name":"B&B Barbeque","phone":"(660) 822-5043","price":"","reviewCount":5,"reviewScore":3.5,"meta":{"revision":0,"created":1547531153096,"version":0},"$loki":3},{"_id":"5c3d65bd3525a329e0c10bc1","address":"1202 N Hundley St","location":{"type":"Point","coordinates":[-94.331684,40.255394]},"isApproved":true,"items":[],"keys":["Convenience Stores","Gas Stations","Pizza"],"lastUpdated":1547527612632,"name":"Casey’s General Store","phone":"(660) 726-4175","price":"","reviewCount":2,"reviewScore":3.5,"meta":{"revision":0,"created":1547531153096,"version":0},"$loki":4},{"_id":"5c3d65bd3525a329e0c137ef","address":"1317 US Hwy 136","location":{"type":"Point","coordinates":[-94.3194456681313,40.2561262965314]},"isApproved":true,"items":[],"keys":["Butcher","Delis","Meat Shops"],"lastUpdated":1547527612697,"name":"Girratono","phone":"(660) 726-3924","price":"","reviewCount":3,"reviewScore":3.5,"meta":{"revision":0,"created":1547531153096,"version":0},"$loki":5},{"_id":"5c3d65bd3525a329e0c13b44","address":"218 E 4th St","location":{"type":"Point","coordinates":[-94.5389644,40.2174791]},"isApproved":true,"items":[],"keys":["Convenience Stores","Pizza"],"lastUpdated":1547527612704,"name":"Casey’s Carry Out Pizza","phone":"(660) 783-2436","price":"","reviewCount":3,"reviewScore":3.5,"meta":{"revision":0,"created":1547531153096,"version":0},"$loki":6},{"_id":"5c3d65bd3525a329e0c1418d","address":"120 N Park St","location":{"type":"Point","coordinates":[-94.5413074,40.2132786]},"isApproved":true,"items":[],"keys":["Pizza"],"lastUpdated":1547527612713,"name":"Gambino’s Pizza","phone":"(660) 783-2222","price":"","reviewCount":3,"reviewScore":5,"meta":{"revision":0,"created":1547531153096,"version":0},"$loki":7},{"_id":"5c3d65bd3525a329e0c133a4","address":"2111 Sapp Brothers Dr","location":{"type":"Point","coordinates":[-94.721346,40.676728]},"isApproved":true,"items":[],"keys":["Fast Food","Burgers"],"lastUpdated":1547527612689,"name":"Wendy’s","phone":"(712) 382-1585","price":"$","reviewCount":3,"reviewScore":1.5,"meta":{"revision":0,"created":1547531153096,"version":0},"$loki":8},{"_id":"5c3d65bd3525a329e0c19832","address":"1202 S 16th St","location":{"type":"Point","coordinates":[-94.724937,40.676432]},"isApproved":true,"items":[],"keys":["Burgers","Fast Food","Coffee & Tea"],"lastUpdated":1547527612842,"name":"McDonald’s","phone":"(712) 542-5617","price":"$","reviewCount":2,"reviewScore":4,"meta":{"revision":0,"created":1547531153096,"version":0},"$loki":9},{"_id":"5c3d65bd3525a329e0c047fc","address":"1211 Washington St","location":{"type":"Point","coordinates":[-94.7181324178142,40.668768729]},"isApproved":true,"items":[],"keys":["Convenience Stores","Pizza","Gas Stations"],"lastUpdated":1547527612330,"name":"Casey’s General Store","phone":"(712) 382-1018","price":"$$","reviewCount":3,"reviewScore":3.5,"meta":{"revision":0,"created":1547531153096,"version":0},"$loki":10},{"_id":"5c3d65bd3525a329e0c0c4e9","address":"115 N Taylor St","location":{"type":"Point","coordinates":[-94.2376428,40.7138245]},"isApproved":true,"items":[],"keys":["Breakfast & Brunch","Bakeries"],"lastUpdated":1547527612524,"name":"The Early Bird","phone":"(641) 464-0636","price":"","reviewCount":1,"reviewScore":5,"meta":{"revision":0,"created":1547531153096,"version":0},"$loki":11},{"_id":"5c3d65bd3525a329e0c0d985","address":"707 W Mclane St","location":{"type":"Point","coordinates":[-94.23751,40.7110971]},"isApproved":true,"items":[],"keys":["Mexican","Seafood","Beer Bar"],"lastUpdated":1547527612555,"name":"Playa Margaritas Mexican Restaurants","phone":"(641) 342-4900","price":"$$","reviewCount":13,"reviewScore":4,"meta":{"revision":0,"created":1547531153096,"version":0},"$loki":12},{"_id":"5c3d65bd3525a329e0c1a604","address":"127 W 2nd St","location":{"type":"Point","coordinates":[-94.2375448,40.7149125]},"isApproved":true,"items":[],"keys":["Bars","American (Traditional)"],"lastUpdated":1547527612860,"name":"Patty’s Back Door","phone":"(641) 773-5538","price":"","reviewCount":1,"reviewScore":4,"meta":{"revision":0,"created":1547531153096,"version":0},"$loki":13},{"_id":"5c3d65bd3525a329e0c193cb","address":"1610 Jeffreys Dr","location":{"type":"Point","coordinates":[-94.2377412,40.7159429]},"isApproved":true,"items":[],"keys":["American (New)"],"lastUpdated":1547527612840,"name":"Nana Greer’s Family Table Restaurant","phone":"(641) 342-4153","price":"$","reviewCount":45,"reviewScore":3.5,"meta":{"revision":0,"created":1547531153096,"version":0},"$loki":14}],"idIndex":[1,2,3,4,5,6,7,8,9,10,11,12,13,14],"binaryIndices":{},"constraints":null,"uniqueNames":[],"transforms":{},"objType":"restaurants","dirty":true,"cachedIndex":null,"cachedBinaryIndex":null,"cachedData":null,"adaptiveBinaryIndices":true,"transactional":false,"cloneObjects":false,"cloneMethod":"parse-stringify","asyncListeners":false,"disableMeta":false,"disableChangesApi":true,"disableDeltaChangesApi":true,"autoupdate":false,"serializableIndices":true,"ttl":null,"maxId":14,"DynamicViews":[],"events":{"insert":[],"update":[],"pre-insert":[],"pre-update":[],"close":[],"flushbuffer":[],"error":[],"delete":[null],"warning":[null]},"changes":[]}],"databaseVersion":1.5,"engineVersion":1.5,"autosave":false,"autosaveInterval":5000,"autosaveHandle":null,"throttledSaves":true,"options":{"serializationMethod":"normal","destructureDelimiter":"$<\n"},"persistenceMethod":"fs","persistenceAdapter":null,"verbose":false,"events":{"init":[null],"loaded":[],"flushChanges":[],"close":[],"changes":[],"warning":[]},"ENV":"NODEJS"}