{"filename":"-94.5-33.75","collections":[{"name":"restaurants","data":[{"_id":"5c3d65bd3525a329e0c1affe","address":"1643 US 371","location":{"type":"Point","coordinates":[-94.13267,33.667549]},"isApproved":true,"items":[],"keys":["Diners"],"lastUpdated":1547527612876,"name":"Norman’s 44 Restaurant","phone":"(870) 887-2269","price":"$","reviewCount":14,"reviewScore":2.5,"meta":{"revision":0,"created":1547531151439,"version":0},"$loki":1},{"_id":"5c3d65bd3525a329e0c08d2e","address":"170 N Constitution Ave","location":{"type":"Point","coordinates":[-94.1296675,33.6726608]},"isApproved":true,"items":[],"keys":["Barbeque"],"lastUpdated":1547527612437,"name":"Big Jakes BBQ","phone":"(870) 898-2227","price":"$$","reviewCount":6,"reviewScore":4.5,"meta":{"revision":0,"created":1547531151439,"version":0},"$loki":2},{"_id":"5c3d65bd3525a329e0c0bc6e","address":"1420 N Constitution Ave","location":{"type":"Point","coordinates":[-94.126653536588,33.6695007083999]},"isApproved":true,"items":[],"keys":["Mexican"],"lastUpdated":1547527612509,"name":"Medrano’s Mexican Restaurant","phone":"(870) 898-5980","price":"$","reviewCount":7,"reviewScore":2.5,"meta":{"revision":0,"created":1547531151439,"version":0},"$loki":3},{"_id":"5c3d65bd3525a329e0c0656c","address":"15 Southpark Shopping Ctr","location":{"type":"Point","coordinates":[-94.1352638,33.6845981]},"isApproved":true,"items":[],"keys":["Chinese"],"lastUpdated":1547527612377,"name":"China Buffet","phone":"(870) 845-3730","price":"","reviewCount":3,"reviewScore":2.5,"meta":{"revision":0,"created":1547531151439,"version":0},"$loki":4},{"_id":"5c3d65bd3525a329e0c13e78","address":"2017 N Hazel","location":{"type":"Point","coordinates":[-94.333227,34.03746]},"isApproved":true,"items":[],"keys":["Fast Food","Chicken Wings","Chicken Shop"],"lastUpdated":1547527612706,"name":"KFC","phone":"(870) 777-8677","price":"","reviewCount":3,"reviewScore":2,"meta":{"revision":0,"created":1547531151439,"version":0},"$loki":5},{"_id":"5c3d65bd3525a329e0c140c6","address":"843 E Collin Raye Dr","location":{"type":"Point","coordinates":[-94.3403481,34.0367226]},"isApproved":true,"items":[],"keys":["Mexican"],"lastUpdated":1547527612707,"name":"La Media Luna Mexican Restaurant","phone":"(870) 642-6813","price":"$$","reviewCount":4,"reviewScore":5,"meta":{"revision":0,"created":1547531151439,"version":0},"$loki":6},{"_id":"5c3d65bd3525a329e0c14772","address":"1310 S Constitution Ave","location":{"type":"Point","coordinates":[-94.3413168,34.0378916]},"isApproved":true,"items":[],"keys":["Bakeries","Grocery","Delis"],"lastUpdated":1547527612721,"name":"Brookshires Food Stores","phone":"(870) 898-3301","price":"","reviewCount":2,"reviewScore":4.5,"meta":{"revision":0,"created":1547531151439,"version":0},"$loki":7},{"_id":"5c3d65bd3525a329e0bfff0f","address":"1220 S 4th St","location":{"type":"Point","coordinates":[-94.3925539,33.7219307]},"isApproved":true,"items":[],"keys":["Burgers","Fast Food","Ice Cream & Frozen Yogurt"],"lastUpdated":1547527612223,"name":"Sonic Drive-In","phone":"(870) 845-0258","price":"","reviewCount":4,"reviewScore":2,"meta":{"revision":0,"created":1547531151439,"version":0},"$loki":8},{"_id":"5c3d65bd3525a329e0c0cdbb","address":"9246 North US Hwy 259","location":{"type":"Point","coordinates":[-94.739929,33.999162]},"isApproved":true,"items":[],"keys":["Tacos","Hot Dogs"],"lastUpdated":1547527612534,"name":"The Hochahut","phone":"(580) 494-3647","price":"","reviewCount":1,"reviewScore":5,"meta":{"revision":0,"created":1547531151439,"version":0},"$loki":9},{"_id":"5c3d65bd3525a329e0c03fcb","address":"2405 S Park Dr","location":{"type":"Point","coordinates":[-94.7391322,33.9985881]},"isApproved":true,"items":[],"keys":["Seafood"],"lastUpdated":1547527612319,"name":"Pier 49 Catfish Restaurant","phone":"(580) 584-2843","price":"","reviewCount":1,"reviewScore":2,"meta":{"revision":0,"created":1547531151439,"version":0},"$loki":10},{"_id":"5c3d65bd3525a329e0c1a955","address":"10251 US-259","location":{"type":"Point","coordinates":[-94.7391322,33.9985881]},"isApproved":true,"items":[],"keys":["Southern"],"lastUpdated":1547527612867,"name":"Blue Rooster","phone":"","price":"","reviewCount":7,"reviewScore":3.5,"meta":{"revision":0,"created":1547531151439,"version":0},"$loki":11},{"_id":"5c3d65bd3525a329e0c01602","address":"104 NE Lincoln Rd","location":{"type":"Point","coordinates":[-94.7892982,33.8955398]},"isApproved":true,"items":[],"keys":["Mexican"],"lastUpdated":1547527612250,"name":"Cielito Lindo","phone":"(580) 286-1127","price":"$$","reviewCount":10,"reviewScore":3.5,"meta":{"revision":0,"created":1547531151439,"version":0},"$loki":12},{"_id":"5c3d65bd3525a329e0c1950b","address":"2501 SE Washington St","location":{"type":"Point","coordinates":[-94.7881344,33.896441]},"isApproved":true,"items":[],"keys":["Seafood"],"lastUpdated":1547527612840,"name":"Catfish King","phone":"(580) 286-3387","price":"$","reviewCount":7,"reviewScore":3,"meta":{"revision":0,"created":1547531151439,"version":0},"$loki":13},{"_id":"5c3d65bd3525a329e0c036ce","address":"Highway 259 &amp; 70 N","location":{"type":"Point","coordinates":[-94.785462,33.900651]},"isApproved":true,"items":[],"keys":["Mexican"],"lastUpdated":1547527612303,"name":"Papa Poblano’s Mexican Cafe","phone":"(580) 208-2205","price":"$","reviewCount":14,"reviewScore":3.5,"meta":{"revision":0,"created":1547531151439,"version":0},"$loki":14},{"_id":"5c3d65bd3525a329e0c076fd","address":"500 Lincoln Rd","location":{"type":"Point","coordinates":[-94.786393,33.8994515]},"isApproved":true,"items":[],"keys":["Mexican"],"lastUpdated":1547527612402,"name":"Papa Pablanos","phone":"","price":"$$","reviewCount":7,"reviewScore":4,"meta":{"revision":0,"created":1547531151439,"version":0},"$loki":15},{"_id":"5c3d65bd3525a329e0c0840f","address":"500 NE Lincoln Rd","location":{"type":"Point","coordinates":[-94.786393,33.8994515]},"isApproved":true,"items":[],"keys":["Italian","Pizza","Beer Bar"],"lastUpdated":1547527612421,"name":"Roma Italian Restaurant & Pizza","phone":"(580) 286-3400","price":"$$","reviewCount":22,"reviewScore":4,"meta":{"revision":0,"created":1547531151439,"version":0},"$loki":16},{"_id":"5c3d65bd3525a329e0c101e9","address":"1421 S E Washington","location":{"type":"Point","coordinates":[-94.8105069536511,33.8967471982822]},"isApproved":true,"items":[],"keys":["Buffets","Steakhouses"],"lastUpdated":1547527612610,"name":"A J’s Steak And Pasta","phone":"(580) 208-3008","price":"","reviewCount":5,"reviewScore":4,"meta":{"revision":0,"created":1547531151439,"version":0},"$loki":17},{"_id":"5c3d65bd3525a329e0c07f44","address":"1808 SE Washington St","location":{"type":"Point","coordinates":[-94.8084,33.8954]},"isApproved":true,"items":[],"keys":["Fast Food","Chicken Wings","Chicken Shop"],"lastUpdated":1547527612418,"name":"KFC","phone":"(580) 286-7355","price":"","reviewCount":2,"reviewScore":5,"meta":{"revision":0,"created":1547531151439,"version":0},"$loki":18},{"_id":"5c3d65bd3525a329e0c15494","address":"1901 SE Washington St","location":{"type":"Point","coordinates":[-94.8049900308251,33.8959502950631]},"isApproved":true,"items":[],"keys":["Mexican","Fast Food"],"lastUpdated":1547527612745,"name":"Los Cantaritos 1901","phone":"(580) 245-7057","price":"","reviewCount":2,"reviewScore":4,"meta":{"revision":0,"created":1547531151439,"version":0},"$loki":19},{"_id":"5c3d65bd3525a329e0c1a802","address":"1804 Se Washington St","location":{"type":"Point","coordinates":[-94.8049552461403,33.895460220257]},"isApproved":true,"items":[],"keys":["Fast Food","Mexican"],"lastUpdated":1547527612867,"name":"Taco Bell","phone":"","price":"","reviewCount":2,"reviewScore":3,"meta":{"revision":0,"created":1547531151439,"version":0},"$loki":20},{"_id":"5c3d65bd3525a329e0c1b551","address":"1810 SE Washington St","location":{"type":"Point","coordinates":[-94.8039633,33.8951519]},"isApproved":true,"items":[],"keys":["Restaurants"],"lastUpdated":1547527612886,"name":"Lin Cuisine","phone":"(580) 208-2686","price":"","reviewCount":4,"reviewScore":2,"meta":{"revision":0,"created":1547531151439,"version":0},"$loki":21},{"_id":"5c3d65bd3525a329e0c1608a","address":"1703 S Park Dr","location":{"type":"Point","coordinates":[-94.790895357728,33.8941148540949]},"isApproved":true,"items":[],"keys":["Fast Food","Sandwiches"],"lastUpdated":1547527612756,"name":"Subway","phone":"(580) 584-7827","price":"","reviewCount":1,"reviewScore":1,"meta":{"revision":0,"created":1547531151439,"version":0},"$loki":22},{"_id":"5c3d65bd3525a329e0c0bdf4","address":"2100 SE Washington St","location":{"type":"Point","coordinates":[-94.7999425173641,33.8958920473688]},"isApproved":true,"items":[],"keys":["Fast Food","Sandwiches"],"lastUpdated":1547527612515,"name":"Subway","phone":"(580) 286-7114","price":"$","reviewCount":2,"reviewScore":1,"meta":{"revision":0,"created":1547531151439,"version":0},"$loki":23},{"_id":"5c3d65bd3525a329e0c0eced","address":"303 S Park Dr","location":{"type":"Point","coordinates":[-94.798493,33.8950113]},"isApproved":true,"items":[],"keys":["Fast Food","Chicken Wings","Chicken Shop"],"lastUpdated":1547527612582,"name":"KFC","phone":"(580) 584-6959","price":"","reviewCount":4,"reviewScore":1.5,"meta":{"revision":0,"created":1547531151439,"version":0},"$loki":24},{"_id":"5c3d65bd3525a329e0c0db0b","address":"103 SE North Ave","location":{"type":"Point","coordinates":[-94.8137380555272,33.8946701214593]},"isApproved":true,"items":[],"keys":["Pizza","Salad","Sandwiches"],"lastUpdated":1547527612556,"name":"Milanos Pizza","phone":"(580) 245-6296","price":"","reviewCount":2,"reviewScore":5,"meta":{"revision":0,"created":1547531151439,"version":0},"$loki":25},{"_id":"5c3d65bd3525a329e0c0a2e5","address":"1103 SE Washington St","location":{"type":"Point","coordinates":[-94.8147592,33.8959432]},"isApproved":true,"items":[],"keys":["American (New)","Mexican"],"lastUpdated":1547527612473,"name":"Taco Alley","phone":"(580) 286-4440","price":"","reviewCount":3,"reviewScore":4,"meta":{"revision":0,"created":1547531151439,"version":0},"$loki":26},{"_id":"5c3d65bd3525a329e0c12c3d","address":"104 NE Lincoln Rd","location":{"type":"Point","coordinates":[-94.8117344256618,33.8956652557758]},"isApproved":true,"items":[],"keys":["Mexican"],"lastUpdated":1547527612680,"name":"Cielito Lindo","phone":"(580) 286-1127","price":"","reviewCount":2,"reviewScore":2,"meta":{"revision":0,"created":1547531151439,"version":0},"$loki":27},{"_id":"5c3d65bd3525a329e0c129b3","address":"259 N 70 Of Y N","location":{"type":"Point","coordinates":[-94.8263281,33.8956647]},"isApproved":true,"items":[],"keys":["Mexican"],"lastUpdated":1547527612679,"name":"Papa Poblano’s Mexican Cafe","phone":"(580) 208-2205","price":"","reviewCount":2,"reviewScore":4,"meta":{"revision":0,"created":1547531151439,"version":0},"$loki":28},{"_id":"5c3d65bd3525a329e0c1305a","address":"14 W Main St","location":{"type":"Point","coordinates":[-94.828161,33.895693]},"isApproved":true,"items":[],"keys":["American (Traditional)","Bars"],"lastUpdated":1547527612688,"name":"Jake’s Brickhouse Grill","phone":"(580) 286-5000","price":"$$","reviewCount":35,"reviewScore":4.5,"meta":{"revision":0,"created":1547531151439,"version":0},"$loki":29},{"_id":"5c3d65bd3525a329e0c19174","address":"8949 US Hwy 259 N","location":{"type":"Point","coordinates":[-94.8282683,33.8944811]},"isApproved":true,"items":[],"keys":["Barbeque"],"lastUpdated":1547527612833,"name":"Rock Bottom Boyz BBQ","phone":"(580) 579-5811","price":"","reviewCount":17,"reviewScore":5,"meta":{"revision":0,"created":1547531151439,"version":0},"$loki":30},{"_id":"5c3d65bd3525a329e0c07984","address":"119 N Main St","location":{"type":"Point","coordinates":[-94.8259596148633,33.8827919930761]},"isApproved":true,"items":[],"keys":["Sandwiches","Ice Cream & Frozen Yogurt","Wraps"],"lastUpdated":1547527612409,"name":"The Huckleberry Cafe","phone":"(580) 584-5767","price":"","reviewCount":2,"reviewScore":3,"meta":{"revision":0,"created":1547531151439,"version":0},"$loki":31},{"_id":"5c3d65bd3525a329e0c04fca","address":"3317 Sowell Ln","location":{"type":"Point","coordinates":[-94.4025297710098,33.4729180410357]},"isApproved":true,"items":[],"keys":["Chinese"],"lastUpdated":1547527612339,"name":"Lee’s Chinese Restaurant","phone":"(903) 832-8600","price":"$$","reviewCount":24,"reviewScore":3,"meta":{"revision":0,"created":1547531151439,"version":0},"$loki":32},{"_id":"5c3d65bd3525a329e0c138a5","address":"1026 N Center St","location":{"type":"Point","coordinates":[-94.4103172352272,33.4729381329837]},"isApproved":true,"items":[],"keys":["Mexican"],"lastUpdated":1547527612698,"name":"Amigo Juan","phone":"(903) 628-4445","price":"$","reviewCount":16,"reviewScore":3.5,"meta":{"revision":0,"created":1547531151439,"version":0},"$loki":33},{"_id":"5c3d65bd3525a329e0c181e2","address":"201-499 East 49th St","location":{"type":"Point","coordinates":[-94.4101113,33.4729655]},"isApproved":true,"items":[],"keys":["Mexican","Bars"],"lastUpdated":1547527612809,"name":"El Chico Cafe","phone":"","price":"$$","reviewCount":13,"reviewScore":3.5,"meta":{"revision":0,"created":1547531151439,"version":0},"$loki":34},{"_id":"5c3d65bd3525a329e0c05826","address":"1205 Arkansas Blvd","location":{"type":"Point","coordinates":[-94.409450645834,33.4727719442732]},"isApproved":true,"items":[],"keys":["Burgers","Diners","Breakfast & Brunch"],"lastUpdated":1547527612349,"name":"Old Tyme Burger Shoppe","phone":"(870) 772-5775","price":"$","reviewCount":19,"reviewScore":4,"meta":{"revision":0,"created":1547531151439,"version":0},"$loki":35},{"_id":"5c3d65bd3525a329e0c0daa5","address":"5110 Summerhill Rd","location":{"type":"Point","coordinates":[-94.4095128558595,33.4722685135179]},"isApproved":true,"items":[],"keys":["Burgers","Sports Bars","American (Traditional)"],"lastUpdated":1547527612556,"name":"Applebee’s Grill + Bar","phone":"(903) 792-9476","price":"$$","reviewCount":29,"reviewScore":2,"meta":{"revision":0,"created":1547531151439,"version":0},"$loki":36},{"_id":"5c3d65bd3525a329e0c01641","address":"121 Richmond Ranch Rd","location":{"type":"Point","coordinates":[-94.4088066868026,33.4770648803228]},"isApproved":true,"items":[],"keys":["Seafood","Cajun/Creole","American (Traditional)"],"lastUpdated":1547527612250,"name":"The Catch","phone":"(903) 791-0595","price":"$$","reviewCount":25,"reviewScore":3.5,"meta":{"revision":0,"created":1547531151439,"version":0},"$loki":37},{"_id":"5c3d65bd3525a329e0c0d192","address":"2700 Richmond Rd","location":{"type":"Point","coordinates":[-94.4080619,33.4646922]},"isApproved":true,"items":[],"keys":["Burgers","Ice Cream & Frozen Yogurt","Hot Dogs"],"lastUpdated":1547527612545,"name":"MOOYAH Burgers, Fries & Shakes","phone":"(903) 306-0139","price":"$","reviewCount":29,"reviewScore":4,"meta":{"revision":0,"created":1547531151439,"version":0},"$loki":38},{"_id":"5c3d65bd3525a329e0c0690d","address":"408 N McCoy Blvd","location":{"type":"Point","coordinates":[-94.408022,33.466401]},"isApproved":true,"items":[],"keys":["Barbeque"],"lastUpdated":1547527612379,"name":"Randy’s BBQ","phone":"(903) 628-9546","price":"$$","reviewCount":61,"reviewScore":4.5,"meta":{"revision":0,"created":1547531151439,"version":0},"$loki":39},{"_id":"5c3d65bd3525a329e0c19c56","address":"5001 West Park Blvd","location":{"type":"Point","coordinates":[-94.4094,33.4722]},"isApproved":true,"items":[],"keys":["Japanese","Steakhouses"],"lastUpdated":1547527612850,"name":"Osaka Japanese Steak House","phone":"(903) 792-8788","price":"$$","reviewCount":41,"reviewScore":3,"meta":{"revision":0,"created":1547531151439,"version":0},"$loki":40},{"_id":"5c3d65bd3525a329e0c10194","address":"3421 Richmond Road","location":{"type":"Point","coordinates":[-94.4083794951439,33.4720100321175]},"isApproved":true,"items":[],"keys":["Pizza"],"lastUpdated":1547527612610,"name":"Papa Murphy’s","phone":"(903) 832-5251","price":"$$","reviewCount":2,"reviewScore":4.5,"meta":{"revision":0,"created":1547531151439,"version":0},"$loki":41},{"_id":"5c3d65bd3525a329e0c1062f","address":"700 Davey Crockett","location":{"type":"Point","coordinates":[-94.401780929665,33.4710752254479]},"isApproved":true,"items":[],"keys":["Burgers","Tacos","Sandwiches"],"lastUpdated":1547527612619,"name":"The Burger Joint","phone":"(903) 556-0596","price":"$$","reviewCount":37,"reviewScore":4.5,"meta":{"revision":0,"created":1547531151439,"version":0},"$loki":42},{"_id":"5c3d65bd3525a329e0bffb04","address":"121 Broadway","location":{"type":"Point","coordinates":[-94.4075597,33.4635083]},"isApproved":true,"items":[],"keys":["Mexican"],"lastUpdated":1547527612220,"name":"Taqueria Tacos Mexico","phone":"(903) 632-0039","price":"$","reviewCount":3,"reviewScore":3.5,"meta":{"revision":0,"created":1547531151439,"version":0},"$loki":43},{"_id":"5c3d65bd3525a329e0c19a4c","address":"105 Hwy 37 N","location":{"type":"Point","coordinates":[-94.406744,33.463568]},"isApproved":true,"items":[],"keys":["Gas Stations","Barbeque","Burgers"],"lastUpdated":1547527612849,"name":"Bogata Food Mart","phone":"(903) 632-0001","price":"","reviewCount":1,"reviewScore":3,"meta":{"revision":0,"created":1547531151439,"version":0},"$loki":44},{"_id":"5c3d65bd3525a329e0c15ce3","address":"1955 N Kings Hwy","location":{"type":"Point","coordinates":[-94.4161592,33.4599693]},"isApproved":true,"items":[],"keys":["Barbeque"],"lastUpdated":1547527612755,"name":"Texas Best BBQ Smokehouse","phone":"(903) 255-7167","price":"","reviewCount":5,"reviewScore":4.5,"meta":{"revision":0,"created":1547531151439,"version":0},"$loki":45},{"_id":"5c3d65bd3525a329e0c1a850","address":"115 NE Front St","location":{"type":"Point","coordinates":[-94.4169176369905,33.4596965811003]},"isApproved":true,"items":[],"keys":["Tex-Mex","Mexican"],"lastUpdated":1547527612867,"name":"Maria’s Tex-Mex","phone":"(903) 628-5084","price":"$","reviewCount":14,"reviewScore":4.5,"meta":{"revision":0,"created":1547531151439,"version":0},"$loki":46},{"_id":"5c3d65bd3525a329e0c16a7e","address":"4845 Texas Blvd","location":{"type":"Point","coordinates":[-94.4542724,33.4698317]},"isApproved":true,"items":[],"keys":["Juice Bars & Smoothies","Sandwiches"],"lastUpdated":1547527612773,"name":"Tropical Smoothie Cafe","phone":"(903) 735-9888","price":"$$","reviewCount":9,"reviewScore":3,"meta":{"revision":0,"created":1547531151439,"version":0},"$loki":47},{"_id":"5c3d65bd3525a329e0bff426","address":"3070 US Hwy 82 W","location":{"type":"Point","coordinates":[-94.471068236993,33.4736566307056]},"isApproved":true,"items":[],"keys":["Convenience Stores","American (Traditional)","Ice Cream & Frozen Yogurt"],"lastUpdated":1547527612216,"name":"Skaggs Country Store & Grill","phone":"(903) 628-7351","price":"$","reviewCount":3,"reviewScore":4.5,"meta":{"revision":0,"created":1547531151439,"version":0},"$loki":48},{"_id":"5c3d65bd3525a329e0c008df","address":"2219 S Lake Dr","location":{"type":"Point","coordinates":[-94.62046,33.511351]},"isApproved":true,"items":[],"keys":["Restaurants"],"lastUpdated":1547527612229,"name":"Wayne’s Family Restaurant","phone":"(903) 792-3561","price":"$","reviewCount":4,"reviewScore":4,"meta":{"revision":0,"created":1547531151439,"version":0},"$loki":49},{"_id":"5c3d65bd3525a329e0c01d53","address":"535 NW Front St","location":{"type":"Point","coordinates":[-94.6222734,33.5110388]},"isApproved":true,"items":[],"keys":["Restaurants"],"lastUpdated":1547527612259,"name":"Front Street Junction","phone":"(903) 667-3086","price":"$$","reviewCount":31,"reviewScore":4.5,"meta":{"revision":0,"created":1547531151439,"version":0},"$loki":50}],"idIndex":[1,2,3,4,5,6,7,8,9,10,11,12,13,14,15,16,17,18,19,20,21,22,23,24,25,26,27,28,29,30,31,32,33,34,35,36,37,38,39,40,41,42,43,44,45,46,47,48,49,50],"binaryIndices":{},"constraints":null,"uniqueNames":[],"transforms":{},"objType":"restaurants","dirty":true,"cachedIndex":null,"cachedBinaryIndex":null,"cachedData":null,"adaptiveBinaryIndices":true,"transactional":false,"cloneObjects":false,"cloneMethod":"parse-stringify","asyncListeners":false,"disableMeta":false,"disableChangesApi":true,"disableDeltaChangesApi":true,"autoupdate":false,"serializableIndices":true,"ttl":null,"maxId":50,"DynamicViews":[],"events":{"insert":[],"update":[],"pre-insert":[],"pre-update":[],"close":[],"flushbuffer":[],"error":[],"delete":[null],"warning":[null]},"changes":[]}],"databaseVersion":1.5,"engineVersion":1.5,"autosave":false,"autosaveInterval":5000,"autosaveHandle":null,"throttledSaves":true,"options":{"serializationMethod":"normal","destructureDelimiter":"$<\n"},"persistenceMethod":"fs","persistenceAdapter":null,"verbose":false,"events":{"init":[null],"loaded":[],"flushChanges":[],"close":[],"changes":[],"warning":[]},"ENV":"NODEJS"}