{"filename":"-95-43","collections":[{"name":"restaurants","data":[{"_id":"5c3d65bd3525a329e0c12cb4","address":"320 11th St SW Plaza","location":{"type":"Point","coordinates":[-95.1448765,43.1389573]},"isApproved":true,"items":[],"keys":["Mexican","Tex-Mex","Fast Food"],"lastUpdated":1547527612680,"name":"Taco Bell","phone":"(712) 262-7155","price":"","reviewCount":4,"reviewScore":2.5,"meta":{"revision":0,"created":1547531148685,"version":0},"$loki":1},{"_id":"5c3d65bd3525a329e0c0b2bc","address":"216 Grand Ave","location":{"type":"Point","coordinates":[-95.1443609,43.1401531]},"isApproved":true,"items":[],"keys":["Lounges","American (Traditional)"],"lastUpdated":1547527612498,"name":"Weasy’s Lounge & Grille","phone":"(712) 262-9871","price":"$","reviewCount":9,"reviewScore":4,"meta":{"revision":0,"created":1547531148685,"version":0},"$loki":2},{"_id":"5c3d65bd3525a329e0c090a6","address":"208 Grand Ave","location":{"type":"Point","coordinates":[-95.144386,43.139879]},"isApproved":true,"items":[],"keys":["Diners"],"lastUpdated":1547527612439,"name":"Grand Diner","phone":"(712) 262-4404","price":"","reviewCount":2,"reviewScore":4.5,"meta":{"revision":0,"created":1547531148685,"version":0},"$loki":3},{"_id":"5c3d65bd3525a329e0c18bed","address":"1402 Main St","location":{"type":"Point","coordinates":[-95.144582,43.141386]},"isApproved":true,"items":[],"keys":["Mexican"],"lastUpdated":1547527612824,"name":"Las Peñas","phone":"(712) 476-5584","price":"","reviewCount":1,"reviewScore":5,"meta":{"revision":0,"created":1547531148685,"version":0},"$loki":4},{"_id":"5c3d65bd3525a329e0bff59c","address":"222 Main St","location":{"type":"Point","coordinates":[-95.144286,43.1408156]},"isApproved":true,"items":[],"keys":["Steakhouses"],"lastUpdated":1547527612217,"name":"Doon Steak House","phone":"(712) 726-3189","price":"","reviewCount":7,"reviewScore":4,"meta":{"revision":0,"created":1547531148685,"version":0},"$loki":5},{"_id":"5c3d65bd3525a329e0c189f1","address":"18 E 4th St","location":{"type":"Point","coordinates":[-95.1437273,43.1411991]},"isApproved":true,"items":[],"keys":["Chinese","Soup","Asian Fusion"],"lastUpdated":1547527612823,"name":"Chen’s Garden","phone":"(712) 262-2883","price":"$$","reviewCount":30,"reviewScore":4.5,"meta":{"revision":0,"created":1547531148685,"version":0},"$loki":6},{"_id":"5c3d65bd3525a329e0c0811b","address":"500 11th St SW","location":{"type":"Point","coordinates":[-95.1446270942688,43.1434109648487]},"isApproved":true,"items":[],"keys":["Fast Food","Sandwiches"],"lastUpdated":1547527612419,"name":"Subway","phone":"(712) 580-4800","price":"$$","reviewCount":2,"reviewScore":4.5,"meta":{"revision":0,"created":1547531148685,"version":0},"$loki":7},{"_id":"5c3d65bd3525a329e0c0a3c4","address":"1208 Gowrie St","location":{"type":"Point","coordinates":[-95.1452273,43.1435566]},"isApproved":true,"items":[],"keys":["Bars","American (Traditional)"],"lastUpdated":1547527612479,"name":"Bully’s Bar & Grill","phone":"(712) 837-5250","price":"$","reviewCount":4,"reviewScore":4.5,"meta":{"revision":0,"created":1547531148685,"version":0},"$loki":8},{"_id":"5c3d65bd3525a329e0c007e6","address":"1400 12th Ave SW","location":{"type":"Point","coordinates":[-95.1445833,43.1426321]},"isApproved":true,"items":[],"keys":["Mexican","Fast Food"],"lastUpdated":1547527612228,"name":"Taco John’s","phone":"(712) 580-5566","price":"","reviewCount":2,"reviewScore":2.5,"meta":{"revision":0,"created":1547531148685,"version":0},"$loki":9},{"_id":"5c3d65bd3525a329e0c0fa5b","address":"172 N Main Ave","location":{"type":"Point","coordinates":[-95.1461593,43.148511]},"isApproved":true,"items":[],"keys":["Coffee & Tea","Pizza","Sandwiches"],"lastUpdated":1547527612601,"name":"The Fruited Plain Cafe","phone":"(712) 722-0901","price":"$$","reviewCount":14,"reviewScore":4.5,"meta":{"revision":0,"created":1547531148685,"version":0},"$loki":10},{"_id":"5c3d65bd3525a329e0c03060","address":"110 N 2nd Ave","location":{"type":"Point","coordinates":[-95.1462443351531,43.156237135854]},"isApproved":true,"items":[],"keys":["Sandwiches","Fast Food"],"lastUpdated":1547527612295,"name":"Subway","phone":"(712) 324-3979","price":"$","reviewCount":1,"reviewScore":2,"meta":{"revision":0,"created":1547531148685,"version":0},"$loki":11},{"_id":"5c3d65bd3525a329e0c0f8e0","address":"207 11th St SE","location":{"type":"Point","coordinates":[-95.1416106149554,43.126421335093]},"isApproved":true,"items":[],"keys":["Mexican"],"lastUpdated":1547527612600,"name":"Tienda Mexicana","phone":"","price":"$","reviewCount":10,"reviewScore":5,"meta":{"revision":0,"created":1547531148685,"version":0},"$loki":12},{"_id":"5c3d65bd3525a329e0c0ba43","address":"15 11th St SE","location":{"type":"Point","coordinates":[-95.1424331,43.1269726]},"isApproved":true,"items":[],"keys":["Mexican"],"lastUpdated":1547527612507,"name":"Plaza Mexico","phone":"(712) 262-2338","price":"$$","reviewCount":14,"reviewScore":4,"meta":{"revision":0,"created":1547531148685,"version":0},"$loki":13},{"_id":"5c3d65bd3525a329e0c003aa","address":"228 Main St","location":{"type":"Point","coordinates":[-95.1526552,43.1251976]},"isApproved":true,"items":[],"keys":["Cafes"],"lastUpdated":1547527612226,"name":"Corner Cafe","phone":"(712) 726-3580","price":"","reviewCount":1,"reviewScore":3,"meta":{"revision":0,"created":1547531148685,"version":0},"$loki":14},{"_id":"5c3d65bd3525a329e0c0aeb0","address":"2400 N Ave","location":{"type":"Point","coordinates":[-95.1471571,43.1258604]},"isApproved":true,"items":[],"keys":["Bakeries","Breakfast & Brunch","American (Traditional)"],"lastUpdated":1547527612491,"name":"Perkins Restaurant & Bakery","phone":"(712) 338-4060","price":"$$","reviewCount":13,"reviewScore":3,"meta":{"revision":0,"created":1547531148685,"version":0},"$loki":15},{"_id":"5c3d65bd3525a329e0c14725","address":"1205 S Grand Ave","location":{"type":"Point","coordinates":[-95.1442249,43.1249343]},"isApproved":true,"items":[],"keys":["Bars","American (New)"],"lastUpdated":1547527612720,"name":"Prime Rib","phone":"(712) 262-4625","price":"$$","reviewCount":32,"reviewScore":3.5,"meta":{"revision":0,"created":1547531148685,"version":0},"$loki":16},{"_id":"5c3d65bd3525a329e0c02bdd","address":"419 11th St SW","location":{"type":"Point","coordinates":[-95.1448202133179,43.125888864891]},"isApproved":true,"items":[],"keys":["Buffets","Chinese"],"lastUpdated":1547527612287,"name":"China 1","phone":"(712) 262-0333","price":"$","reviewCount":4,"reviewScore":3,"meta":{"revision":0,"created":1547531148685,"version":0},"$loki":17},{"_id":"5c3d65bd3525a329e0c186a4","address":"101 34th Ave","location":{"type":"Point","coordinates":[-95.1437,43.1272]},"isApproved":true,"items":[],"keys":["Fast Food","Burgers","Coffee & Tea"],"lastUpdated":1547527612815,"name":"McDonald’s","phone":"(712) 324-2063","price":"","reviewCount":1,"reviewScore":3,"meta":{"revision":0,"created":1547531148685,"version":0},"$loki":18},{"_id":"5c3d65bd3525a329e0c1aa00","address":"605 Grand Ave","location":{"type":"Point","coordinates":[-95.1443878,43.1290071]},"isApproved":true,"items":[],"keys":["Coffee & Tea","American (New)","Desserts"],"lastUpdated":1547527612868,"name":"Terrazzo Coffeehouse and Cafe","phone":"(712) 580-4732","price":"$","reviewCount":6,"reviewScore":4,"meta":{"revision":0,"created":1547531148685,"version":0},"$loki":19},{"_id":"5c3d65bd3525a329e0c1751a","address":"183 First Ave NE","location":{"type":"Point","coordinates":[-95.1449032750344,43.1272496861483]},"isApproved":true,"items":[],"keys":["Food Trucks","Mexican"],"lastUpdated":1547527612790,"name":"La Rancherita","phone":"(712) 449-5407","price":"","reviewCount":7,"reviewScore":4.5,"meta":{"revision":0,"created":1547531148685,"version":0},"$loki":20},{"_id":"5c3d65bd3525a329e0c00543","address":"3109 N US Highway 75","location":{"type":"Point","coordinates":[-95.145559,43.127334]},"isApproved":true,"items":[],"keys":["Chicken Wings","Fast Food"],"lastUpdated":1547527612226,"name":"Popeyes Louisiana Kitchen","phone":"(214) 892-1006","price":"","reviewCount":6,"reviewScore":1.5,"meta":{"revision":0,"created":1547531148685,"version":0},"$loki":21},{"_id":"5c3d65bd3525a329e0c191bb","address":"211 N Main St","location":{"type":"Point","coordinates":[-95.1434919,43.1313139]},"isApproved":true,"items":[],"keys":["Barbeque","American (Traditional)"],"lastUpdated":1547527612833,"name":"Railside Cafe","phone":"(712) 473-2278","price":"","reviewCount":2,"reviewScore":3,"meta":{"revision":0,"created":1547531148685,"version":0},"$loki":22},{"_id":"5c3d65bd3525a329e0c07cf9","address":"113 Grand Ave","location":{"type":"Point","coordinates":[-95.1446322,43.132324]},"isApproved":true,"items":[],"keys":["Pizza"],"lastUpdated":1547527612411,"name":"Godfather’s Pizza","phone":"(712) 262-7742","price":"","reviewCount":5,"reviewScore":2,"meta":{"revision":0,"created":1547531148685,"version":0},"$loki":23},{"_id":"5c3d65bd3525a329e0c095bd","address":"1804 Hwy Blvd","location":{"type":"Point","coordinates":[-95.1446118,43.1332845]},"isApproved":true,"items":[],"keys":["American (New)","Burgers"],"lastUpdated":1547527612453,"name":"A&W Restaurant","phone":"(712) 262-0409","price":"$","reviewCount":3,"reviewScore":3,"meta":{"revision":0,"created":1547531148685,"version":0},"$loki":24},{"_id":"5c3d65bd3525a329e0c18a51","address":"331 11th St SW","location":{"type":"Point","coordinates":[-95.1502521,43.127308]},"isApproved":true,"items":[],"keys":["American (New)"],"lastUpdated":1547527612823,"name":"JJ’s Cutting Board","phone":"(712) 262-7690","price":"$$","reviewCount":10,"reviewScore":3.5,"meta":{"revision":0,"created":1547531148685,"version":0},"$loki":25},{"_id":"5c3d65bd3525a329e0c01a89","address":"202 W Southern St","location":{"type":"Point","coordinates":[-95.1519628,43.1273822]},"isApproved":true,"items":[],"keys":["Convenience Stores","Pizza"],"lastUpdated":1547527612257,"name":"Car-Go Express/Convenience Store","phone":"(712) 446-3769","price":"","reviewCount":2,"reviewScore":3,"meta":{"revision":0,"created":1547531148685,"version":0},"$loki":26},{"_id":"5c3d65bd3525a329e0c0d5ec","address":"1505 8th St SE","location":{"type":"Point","coordinates":[-95.1548139,43.1273515807266]},"isApproved":true,"items":[],"keys":["Pizza","Buffets","Food Delivery Services"],"lastUpdated":1547527612548,"name":"Pizza Ranch","phone":"(712) 737-3711","price":"$","reviewCount":8,"reviewScore":4,"meta":{"revision":0,"created":1547531148685,"version":0},"$loki":27},{"_id":"5c3d65bd3525a329e0c00c5c","address":"701 11th St SW","location":{"type":"Point","coordinates":[-95.1614364981651,43.1231334533218]},"isApproved":true,"items":[],"keys":["Fast Food","Burgers","Coffee & Tea"],"lastUpdated":1547527612231,"name":"McDonald’s","phone":"(712) 580-8864","price":"","reviewCount":7,"reviewScore":3.5,"meta":{"revision":0,"created":1547531148685,"version":0},"$loki":28},{"_id":"5c3d65bd3525a329e0c17532","address":"121 3rd St NW","location":{"type":"Point","coordinates":[-95.1550176,43.1254691]},"isApproved":true,"items":[],"keys":["American (Traditional)","Desserts","Breakfast & Brunch"],"lastUpdated":1547527612790,"name":"Downtown Grille","phone":"(712) 707-3100","price":"","reviewCount":3,"reviewScore":3.5,"meta":{"revision":0,"created":1547531148685,"version":0},"$loki":29},{"_id":"5c3d65bd3525a329e0c12e7a","address":"255 16th St SW","location":{"type":"Point","coordinates":[-95.1547325,43.126502]},"isApproved":true,"items":[],"keys":["Fast Food","Ice Cream & Frozen Yogurt"],"lastUpdated":1547527612681,"name":"Dairy Queen","phone":"","price":"","reviewCount":3,"reviewScore":1,"meta":{"revision":0,"created":1547531148685,"version":0},"$loki":30},{"_id":"5c3d65bd3525a329e0c04bba","address":"","location":{"type":"Point","coordinates":[-95.2838876,43.0655294]},"isApproved":true,"items":[],"keys":["Restaurants"],"lastUpdated":1547527612337,"name":"Royal Cafe","phone":"(712) 933-2407","price":"","reviewCount":1,"reviewScore":4,"meta":{"revision":0,"created":1547531148685,"version":0},"$loki":31},{"_id":"5c3d65bd3525a329e0c1a378","address":"","location":{"type":"Point","coordinates":[-95.3250274658203,43.159839630127]},"isApproved":true,"items":[],"keys":["American (Traditional)"],"lastUpdated":1547527612858,"name":"Barb’s Corner","phone":"","price":"","reviewCount":1,"reviewScore":5,"meta":{"revision":0,"created":1547531148685,"version":0},"$loki":32},{"_id":"5c3d65bd3525a329e0c112cb","address":"14155 510th St","location":{"type":"Point","coordinates":[-94.8332918,42.7493451]},"isApproved":true,"items":[],"keys":["American (Traditional)","Bed & Breakfast"],"lastUpdated":1547527612642,"name":"Halderwood Farms","phone":"(714) 845-4478","price":"","reviewCount":1,"reviewScore":5,"meta":{"revision":0,"created":1547531148685,"version":0},"$loki":33},{"_id":"5c3d65bd3525a329e0c103a3","address":"138 S 3rd St","location":{"type":"Point","coordinates":[-94.851519,42.8459088]},"isApproved":true,"items":[],"keys":["Coffee & Tea","Breakfast & Brunch"],"lastUpdated":1547527612617,"name":"The TeaPot Cafe","phone":"(712) 841-7667","price":"$$","reviewCount":1,"reviewScore":4,"meta":{"revision":0,"created":1547531148685,"version":0},"$loki":34},{"_id":"5c3d65bd3525a329e0c0f5b1","address":"130 N 3rd St","location":{"type":"Point","coordinates":[-94.8511318,42.8473396]},"isApproved":true,"items":[],"keys":["Pizza"],"lastUpdated":1547527612598,"name":"Pizza Ranch","phone":"(712) 841-2658","price":"$$","reviewCount":1,"reviewScore":4,"meta":{"revision":0,"created":1547531148685,"version":0},"$loki":35},{"_id":"5c3d65bd3525a329e0c04a41","address":"829 S Grand Ave","location":{"type":"Point","coordinates":[-95.0116653442383,42.9490394592285]},"isApproved":true,"items":[],"keys":["Restaurants"],"lastUpdated":1547527612331,"name":"Family Table Restaurant","phone":"(712) 262-4464","price":"$$","reviewCount":9,"reviewScore":3,"meta":{"revision":0,"created":1547531148685,"version":0},"$loki":36},{"_id":"5c3d65bd3525a329e0c0837b","address":"122 Main St","location":{"type":"Point","coordinates":[-95.0116653442383,42.9490394592285]},"isApproved":true,"items":[],"keys":["Cafes"],"lastUpdated":1547527612420,"name":"Jacksons Cafe","phone":"(712) 838-7744","price":"","reviewCount":1,"reviewScore":5,"meta":{"revision":0,"created":1547531148685,"version":0},"$loki":37},{"_id":"5c3d65bd3525a329e0c053ab","address":"608 Inman","location":{"type":"Point","coordinates":[-94.6840761,42.937586]},"isApproved":true,"items":[],"keys":["Restaurants"],"lastUpdated":1547527612346,"name":"Duck Stop Restaurant & Lounge","phone":"(712) 425-3384","price":"","reviewCount":1,"reviewScore":3,"meta":{"revision":0,"created":1547531148685,"version":0},"$loki":38},{"_id":"5c3d65bd3525a329e0c006d0","address":"17 11th St SW","location":{"type":"Point","coordinates":[-94.8987600579858,43.1265400146301]},"isApproved":true,"items":[],"keys":["Coffee & Tea","Fast Food","American (New)"],"lastUpdated":1547527612227,"name":"BlackEarth Java Coffee","phone":"(712) 580-5051","price":"$","reviewCount":13,"reviewScore":4.5,"meta":{"revision":0,"created":1547531148685,"version":0},"$loki":39},{"_id":"5c3d65bd3525a329e0c04fe1","address":"125 Central Ave NE","location":{"type":"Point","coordinates":[-94.898794,43.129127]},"isApproved":true,"items":[],"keys":["Coffee & Tea","Breakfast & Brunch","Sandwiches"],"lastUpdated":1547527612339,"name":"Town Square Coffee House","phone":"(712) 707-5566","price":"$$","reviewCount":13,"reviewScore":4.5,"meta":{"revision":0,"created":1547531148685,"version":0},"$loki":40}],"idIndex":[1,2,3,4,5,6,7,8,9,10,11,12,13,14,15,16,17,18,19,20,21,22,23,24,25,26,27,28,29,30,31,32,33,34,35,36,37,38,39,40],"binaryIndices":{},"constraints":null,"uniqueNames":[],"transforms":{},"objType":"restaurants","dirty":true,"cachedIndex":null,"cachedBinaryIndex":null,"cachedData":null,"adaptiveBinaryIndices":true,"transactional":false,"cloneObjects":false,"cloneMethod":"parse-stringify","asyncListeners":false,"disableMeta":false,"disableChangesApi":true,"disableDeltaChangesApi":true,"autoupdate":false,"serializableIndices":true,"ttl":null,"maxId":40,"DynamicViews":[],"events":{"insert":[],"update":[],"pre-insert":[],"pre-update":[],"close":[],"flushbuffer":[],"error":[],"delete":[null],"warning":[null]},"changes":[]}],"databaseVersion":1.5,"engineVersion":1.5,"autosave":false,"autosaveInterval":5000,"autosaveHandle":null,"throttledSaves":true,"options":{"serializationMethod":"normal","destructureDelimiter":"$<\n"},"persistenceMethod":"fs","persistenceAdapter":null,"verbose":false,"events":{"init":[null],"loaded":[],"flushChanges":[],"close":[],"changes":[],"warning":[]},"ENV":"NODEJS"}