{"filename":"-95-30.25","collections":[{"name":"restaurants","data":[{"_id":"5c3d65bd3525a329e0c1472b","address":"","location":{"type":"Point","coordinates":[-94.9799394607544,30.5251618655551]},"isApproved":true,"items":[],"keys":["Diners"],"lastUpdated":1547527612721,"name":"Happy Days Diner","phone":"(936) 628-6515","price":"","reviewCount":1,"reviewScore":4,"meta":{"revision":0,"created":1547531156750,"version":0},"$loki":1},{"_id":"5c3d65bd3525a329e0c0061e","address":"6520 Us Highway 190 W","location":{"type":"Point","coordinates":[-94.994654,30.490418]},"isApproved":true,"items":[],"keys":["Burgers"],"lastUpdated":1547527612227,"name":"Hilltop Icehouse","phone":"(936) 377-2506","price":"","reviewCount":5,"reviewScore":4,"meta":{"revision":0,"created":1547531156750,"version":0},"$loki":2},{"_id":"5c3d65bd3525a329e0c181e9","address":"1934 U S Highway 190 W","location":{"type":"Point","coordinates":[-94.9961775541305,30.4880601678911]},"isApproved":true,"items":[],"keys":["Chicken Wings","Pizza","Sandwiches"],"lastUpdated":1547527612809,"name":"Domino’s Pizza","phone":"(936) 327-4444","price":"$","reviewCount":9,"reviewScore":3,"meta":{"revision":0,"created":1547531156750,"version":0},"$loki":3},{"_id":"5c3d65bd3525a329e0bffdc6","address":"307 N Magnolia St","location":{"type":"Point","coordinates":[-94.9982351437211,30.49832867911]},"isApproved":true,"items":[],"keys":["American (New)","Diners","Southern"],"lastUpdated":1547527612222,"name":"Z’s Filling Station","phone":"","price":"$$","reviewCount":33,"reviewScore":4,"meta":{"revision":0,"created":1547531156750,"version":0},"$loki":4},{"_id":"5c3d65bd3525a329e0c0fe80","address":"18206 Highway 321","location":{"type":"Point","coordinates":[-94.97018,30.2566427]},"isApproved":true,"items":[],"keys":["Barbeque"],"lastUpdated":1547527612609,"name":"Rock’N R BBQ","phone":"(281) 593-2022","price":"$$","reviewCount":21,"reviewScore":4.5,"meta":{"revision":0,"created":1547531156750,"version":0},"$loki":5},{"_id":"5c3d65bd3525a329e0c0c52e","address":"24626 Hwy 321","location":{"type":"Point","coordinates":[-95.0234268,30.3207445]},"isApproved":true,"items":[],"keys":["American (Traditional)"],"lastUpdated":1547527612524,"name":"The Ranch Hand Cafe","phone":"(281) 592-2545","price":"$$","reviewCount":114,"reviewScore":4.5,"meta":{"revision":0,"created":1547531156750,"version":0},"$loki":6},{"_id":"5c3d65bd3525a329e0c0903e","address":"387 Sawdust Rd","location":{"type":"Point","coordinates":[-95.051785,30.326853]},"isApproved":true,"items":[],"keys":["Tex-Mex","Mexican"],"lastUpdated":1547527612439,"name":"Natalitas 2 Mexican Restaurant","phone":"(281) 298-8195","price":"$$","reviewCount":50,"reviewScore":4,"meta":{"revision":0,"created":1547531156750,"version":0},"$loki":7},{"_id":"5c3d65bd3525a329e0c13de9","address":"2301 N Main St","location":{"type":"Point","coordinates":[-94.7853816,30.0738517]},"isApproved":true,"items":[],"keys":["Pizza","Chicken Wings","Sandwiches"],"lastUpdated":1547527612706,"name":"Domino’s Pizza","phone":"(936) 336-1900","price":"","reviewCount":6,"reviewScore":2.5,"meta":{"revision":0,"created":1547531156750,"version":0},"$loki":8},{"_id":"5c3d65bd3525a329e0c01ea2","address":"6334 Fm 2920","location":{"type":"Point","coordinates":[-94.7824482,30.0738907]},"isApproved":true,"items":[],"keys":["Chinese"],"lastUpdated":1547527612260,"name":"Jing Xin","phone":"(832) 559-8813","price":"$","reviewCount":58,"reviewScore":4,"meta":{"revision":0,"created":1547531156750,"version":0},"$loki":9},{"_id":"5c3d65bd3525a329e0c08fbe","address":"18790 Hwy 59 N","location":{"type":"Point","coordinates":[-94.7812329062471,30.0749088455356]},"isApproved":true,"items":[],"keys":["Food Trucks","Mexican"],"lastUpdated":1547527612438,"name":"Maggy’s Ranchito","phone":"(832) 672-9991","price":"$","reviewCount":4,"reviewScore":4.5,"meta":{"revision":0,"created":1547531156750,"version":0},"$loki":10},{"_id":"5c3d65bd3525a329e0c047e8","address":"23871 Walton Ave","location":{"type":"Point","coordinates":[-94.7752922773361,30.0755607338872]},"isApproved":true,"items":[],"keys":["Fast Food","Burgers","Coffee & Tea"],"lastUpdated":1547527612330,"name":"McDonald’s","phone":"(281) 689-9058","price":"","reviewCount":4,"reviewScore":1.5,"meta":{"revision":0,"created":1547531156750,"version":0},"$loki":11},{"_id":"5c3d65bd3525a329e0c14dbe","address":"1538 Kingwood Dr","location":{"type":"Point","coordinates":[-94.773997,30.0773]},"isApproved":true,"items":[],"keys":["Delis","Cafes","Soup"],"lastUpdated":1547527612730,"name":"Chelsea Deli & Cafe","phone":"(281) 359-2972","price":"$","reviewCount":87,"reviewScore":4,"meta":{"revision":0,"created":1547531156750,"version":0},"$loki":12},{"_id":"5c3d65bd3525a329e0c1233c","address":"10962 Hwy 146 N","location":{"type":"Point","coordinates":[-94.7385959809856,30.1549183961334]},"isApproved":true,"items":[],"keys":["Mexican"],"lastUpdated":1547527612669,"name":"Los Compadres Mexican Restaurant","phone":"(936) 298-9709","price":"$$","reviewCount":5,"reviewScore":5,"meta":{"revision":0,"created":1547531156750,"version":0},"$loki":13},{"_id":"5c3d65bd3525a329e0c07348","address":"17174 Hwy 146 N","location":{"type":"Point","coordinates":[-94.7416474,30.2466954]},"isApproved":true,"items":[],"keys":["Southern","American (Traditional)"],"lastUpdated":1547527612399,"name":"Simply Country","phone":"(936) 298-2825","price":"$","reviewCount":23,"reviewScore":4,"meta":{"revision":0,"created":1547531156750,"version":0},"$loki":14},{"_id":"5c3d65bd3525a329e0c0f4a1","address":"Junction of Hwy 146 And Hwy 105","location":{"type":"Point","coordinates":[-94.7422927245498,30.2467067284446]},"isApproved":true,"items":[],"keys":["Cafes"],"lastUpdated":1547527612592,"name":"Redd’s Grill & Cafe","phone":"(936) 298-2424","price":"$","reviewCount":2,"reviewScore":4.5,"meta":{"revision":0,"created":1547531156750,"version":0},"$loki":15},{"_id":"5c3d65bd3525a329e0c1b2e4","address":"2330 Fm Rd 1488","location":{"type":"Point","coordinates":[-94.7249621,30.1514815]},"isApproved":true,"items":[],"keys":["Comfort Food","Sports Bars","Beer Bar"],"lastUpdated":1547527612878,"name":"Woodson’s Local Tap + Kitchen","phone":"(936) 271-9503","price":"$$","reviewCount":160,"reviewScore":4,"meta":{"revision":0,"created":1547531156750,"version":0},"$loki":16},{"_id":"5c3d65bd3525a329e0c17a7e","address":"113 Berotte St","location":{"type":"Point","coordinates":[-94.7424261,30.0540855]},"isApproved":true,"items":[],"keys":["Soul Food"],"lastUpdated":1547527612798,"name":"Cookie’s Soul Food Kitchen","phone":"(936) 336-1954","price":"$$","reviewCount":10,"reviewScore":4.5,"meta":{"revision":0,"created":1547531156750,"version":0},"$loki":17},{"_id":"5c3d65bd3525a329e0c1b434","address":"3645 Fm 1960 W","location":{"type":"Point","coordinates":[-94.7599387455078,30.0521391456711]},"isApproved":true,"items":[],"keys":["Bubble Tea","Chicken Wings","Juice Bars & Smoothies"],"lastUpdated":1547527612885,"name":"Chez Beignet Wings & Boba","phone":"(281) 661-4075","price":"$","reviewCount":54,"reviewScore":4,"meta":{"revision":0,"created":1547531156750,"version":0},"$loki":18},{"_id":"5c3d65bd3525a329e0c0e8e9","address":"448 Sawdust Rd","location":{"type":"Point","coordinates":[-94.7791808098555,30.0581907794881]},"isApproved":true,"items":[],"keys":["Southern","Salad","American (Traditional)"],"lastUpdated":1547527612575,"name":"Herb & Beet","phone":"(832) 663-9671","price":"$","reviewCount":117,"reviewScore":4,"meta":{"revision":0,"created":1547531156750,"version":0},"$loki":19},{"_id":"5c3d65bd3525a329e0c036ba","address":"4806 Fm 1960 E","location":{"type":"Point","coordinates":[-94.773583,30.058278]},"isApproved":true,"items":[],"keys":["Mexican"],"lastUpdated":1547527612303,"name":"Tacos Flores","phone":"(281) 852-8338","price":"$","reviewCount":149,"reviewScore":4,"meta":{"revision":0,"created":1547531156750,"version":0},"$loki":20},{"_id":"5c3d65bd3525a329e0c09655","address":"24626 Lp 494","location":{"type":"Point","coordinates":[-94.7737858,30.0590989]},"isApproved":true,"items":[],"keys":["Burgers"],"lastUpdated":1547527612454,"name":"Pete’s Burger Place","phone":"(281) 354-8400","price":"$","reviewCount":150,"reviewScore":4.5,"meta":{"revision":0,"created":1547531156750,"version":0},"$loki":21},{"_id":"5c3d65bd3525a329e0c03fa9","address":"6110 Fm 1960 E","location":{"type":"Point","coordinates":[-94.788928,30.0574453]},"isApproved":true,"items":[],"keys":["Barbeque","Seafood","Soul Food"],"lastUpdated":1547527612319,"name":"Gilbert & Co.","phone":"(281) 913-5951","price":"","reviewCount":6,"reviewScore":4,"meta":{"revision":0,"created":1547531156750,"version":0},"$loki":22},{"_id":"5c3d65bd3525a329e0c0d47b","address":"3478 Discovery Creek Blvd","location":{"type":"Point","coordinates":[-94.7967204451561,30.0569438370797]},"isApproved":true,"items":[],"keys":["Fast Food","Pizza"],"lastUpdated":1547527612547,"name":"MOD Pizza","phone":"(281) 502-2506","price":"","reviewCount":21,"reviewScore":3.5,"meta":{"revision":0,"created":1547531156750,"version":0},"$loki":23},{"_id":"5c3d65bd3525a329e0c0c322","address":"25219 Kuykendahl Rd","location":{"type":"Point","coordinates":[-94.7990818,30.0563104]},"isApproved":true,"items":[],"keys":["Seafood","Mexican"],"lastUpdated":1547527612518,"name":"Fish And Camaron Creekside","phone":"(281) 547-8080","price":"$$","reviewCount":61,"reviewScore":4,"meta":{"revision":0,"created":1547531156750,"version":0},"$loki":24},{"_id":"5c3d65bd3525a329e0c00271","address":"5421 Fm 1960 Rd E","location":{"type":"Point","coordinates":[-94.7993518391735,30.055917381234]},"isApproved":true,"items":[],"keys":["Steakhouses"],"lastUpdated":1547527612225,"name":"KO Steak House","phone":"(281) 361-8006","price":"$$","reviewCount":52,"reviewScore":4,"meta":{"revision":0,"created":1547531156750,"version":0},"$loki":25},{"_id":"5c3d65bd3525a329e0c080cc","address":"101 S Prairie St","location":{"type":"Point","coordinates":[-94.7979569435119,30.0569299079158]},"isApproved":true,"items":[],"keys":["Sandwiches"],"lastUpdated":1547527612419,"name":"Subway","phone":"(936) 258-7222","price":"","reviewCount":1,"reviewScore":1,"meta":{"revision":0,"created":1547531156750,"version":0},"$loki":26},{"_id":"5c3d65bd3525a329e0c0e1be","address":"22845 Loop 494","location":{"type":"Point","coordinates":[-94.7975217,30.0585511]},"isApproved":true,"items":[],"keys":["Burgers","Cafes"],"lastUpdated":1547527612565,"name":"Bill’s Cafe","phone":"(281) 358-6198","price":"$","reviewCount":80,"reviewScore":4,"meta":{"revision":0,"created":1547531156750,"version":0},"$loki":27},{"_id":"5c3d65bd3525a329e0c051f7","address":"8865 Six Pines Dr","location":{"type":"Point","coordinates":[-94.795588,30.059161]},"isApproved":true,"items":[],"keys":["Tex-Mex"],"lastUpdated":1547527612340,"name":"Goode Co Kitchen & Cantina","phone":"(281) 826-5150","price":"$$","reviewCount":132,"reviewScore":4,"meta":{"revision":0,"created":1547531156750,"version":0},"$loki":28},{"_id":"5c3d65bd3525a329e0c18cc2","address":"428 Main St","location":{"type":"Point","coordinates":[-94.7957685460327,30.0594977]},"isApproved":true,"items":[],"keys":["Burgers","Bars"],"lastUpdated":1547527612825,"name":"Jax Hamburgers","phone":"(936) 336-7887","price":"$","reviewCount":85,"reviewScore":4.5,"meta":{"revision":0,"created":1547531156750,"version":0},"$loki":29},{"_id":"5c3d65bd3525a329e0c1a870","address":"2315 Hwy 90 E","location":{"type":"Point","coordinates":[-94.7920346260071,30.0569539937603]},"isApproved":true,"items":[],"keys":["Burgers"],"lastUpdated":1547527612867,"name":"Novrozskys Hamburgers, Etc","phone":"(936) 641-9388","price":"$$","reviewCount":23,"reviewScore":3.5,"meta":{"revision":0,"created":1547531156750,"version":0},"$loki":30},{"_id":"5c3d65bd3525a329e0c183e7","address":"9510 Fm 1960 Bypass Rd W","location":{"type":"Point","coordinates":[-94.7903183,30.0692598]},"isApproved":true,"items":[],"keys":["Diners","Burgers","Breakfast & Brunch"],"lastUpdated":1547527612814,"name":"Black Bear Diner","phone":"(281) 446-8122","price":"","reviewCount":75,"reviewScore":3.5,"meta":{"revision":0,"created":1547531156750,"version":0},"$loki":31},{"_id":"5c3d65bd3525a329e0c197f6","address":"1644 Fm 1960 W","location":{"type":"Point","coordinates":[-94.7946313,30.0670033]},"isApproved":true,"items":[],"keys":["Cajun/Creole","Southern","Soul Food"],"lastUpdated":1547527612842,"name":"Le’ Pam’s House of Creole","phone":"(281) 444-1464","price":"$$","reviewCount":501,"reviewScore":4.5,"meta":{"revision":0,"created":1547531156750,"version":0},"$loki":32},{"_id":"5c3d65bd3525a329e0bffc42","address":"449 S Loop 336 W","location":{"type":"Point","coordinates":[-94.796403,30.064859]},"isApproved":true,"items":[],"keys":["Asian Fusion"],"lastUpdated":1547527612221,"name":"Wasabi Bistro","phone":"(936) 756-2225","price":"","reviewCount":40,"reviewScore":4.5,"meta":{"revision":0,"created":1547531156750,"version":0},"$loki":33},{"_id":"5c3d65bd3525a329e0c115f1","address":"906 Main St","location":{"type":"Point","coordinates":[-94.7954982,30.0649289]},"isApproved":true,"items":[],"keys":["Mexican"],"lastUpdated":1547527612649,"name":"Casa Don Boni","phone":"(936) 334-8860","price":"$$","reviewCount":20,"reviewScore":4,"meta":{"revision":0,"created":1547531156750,"version":0},"$loki":34},{"_id":"5c3d65bd3525a329e0bff907","address":"2230 Interstate 45 North","location":{"type":"Point","coordinates":[-94.8016499,30.0560593]},"isApproved":true,"items":[],"keys":["American (Traditional)","Steakhouses","Barbeque"],"lastUpdated":1547527612219,"name":"Texas Roadhouse","phone":"(936) 494-4090","price":"$$","reviewCount":111,"reviewScore":4,"meta":{"revision":0,"created":1547531156750,"version":0},"$loki":35},{"_id":"5c3d65bd3525a329e0c089c7","address":"1140 N Fm 3083 Rd W","location":{"type":"Point","coordinates":[-94.884669,30.047966]},"isApproved":true,"items":[],"keys":["Chinese"],"lastUpdated":1547527612429,"name":"Weng’s Wok","phone":"(936) 756-8888","price":"$$","reviewCount":68,"reviewScore":3.5,"meta":{"revision":0,"created":1547531156750,"version":0},"$loki":36},{"_id":"5c3d65bd3525a329e0c0d34e","address":"1717 Hwy 90","location":{"type":"Point","coordinates":[-94.8852026,30.0466051]},"isApproved":true,"items":[],"keys":["Mexican"],"lastUpdated":1547527612546,"name":"Jalisco’s Texas Pepper","phone":"(936) 334-8134","price":"$$","reviewCount":8,"reviewScore":2.5,"meta":{"revision":0,"created":1547531156750,"version":0},"$loki":37},{"_id":"5c3d65bd3525a329e0c140d4","address":"14632 Highway 105 W","location":{"type":"Point","coordinates":[-94.8865395816218,30.0465922643068]},"isApproved":true,"items":[],"keys":["Burgers","American (Traditional)","Chicken Wings"],"lastUpdated":1547527612707,"name":"Papa’s On The Lake","phone":"(936) 447-2500","price":"$","reviewCount":116,"reviewScore":2.5,"meta":{"revision":0,"created":1547531156750,"version":0},"$loki":38},{"_id":"5c3d65bd3525a329e0c063c2","address":"5200 Louetta Rd","location":{"type":"Point","coordinates":[-94.88622,30.047154]},"isApproved":true,"items":[],"keys":["Pizza"],"lastUpdated":1547527612370,"name":"Pizza4You","phone":"(346) 808-7700","price":"$","reviewCount":25,"reviewScore":4.5,"meta":{"revision":0,"created":1547531156750,"version":0},"$loki":39},{"_id":"5c3d65bd3525a329e0c1235d","address":"15250 Hwy 105","location":{"type":"Point","coordinates":[-94.8868507,30.0479635]},"isApproved":true,"items":[],"keys":["Japanese","Sushi Bars","Asian Fusion"],"lastUpdated":1547527612669,"name":"Akashi Asian Bistro & Sushi Bar","phone":"(936) 588-8188","price":"$$","reviewCount":109,"reviewScore":3.5,"meta":{"revision":0,"created":1547531156750,"version":0},"$loki":40},{"_id":"5c3d65bd3525a329e0c0bc9d","address":"313 N Main St","location":{"type":"Point","coordinates":[-94.8887385,30.0465612]},"isApproved":true,"items":[],"keys":["American (Traditional)"],"lastUpdated":1547527612509,"name":"Texas Kountry Kitchen","phone":"(936) 258-4882","price":"$","reviewCount":18,"reviewScore":3.5,"meta":{"revision":0,"created":1547531156750,"version":0},"$loki":41},{"_id":"5c3d65bd3525a329e0c18641","address":"117 Bryan St","location":{"type":"Point","coordinates":[-94.8895612,30.0455252]},"isApproved":true,"items":[],"keys":["Barbeque","Buffets","Burgers"],"lastUpdated":1547527612815,"name":"Mike’s Barbeque Catfish & Steaks","phone":"(936) 258-3577","price":"$","reviewCount":25,"reviewScore":4.5,"meta":{"revision":0,"created":1547531156750,"version":0},"$loki":42},{"_id":"5c3d65bd3525a329e0c08fd6","address":"402 N Main St","location":{"type":"Point","coordinates":[-94.8897933333333,30.0471142292403]},"isApproved":true,"items":[],"keys":["Cafes","Bakeries"],"lastUpdated":1547527612438,"name":"Krull’s Cafe & Bakery","phone":"(936) 257-5199","price":"$","reviewCount":4,"reviewScore":4.5,"meta":{"revision":0,"created":1547531156750,"version":0},"$loki":43},{"_id":"5c3d65bd3525a329e0c1391f","address":"7041 Fm 1960 E","location":{"type":"Point","coordinates":[-94.8910064697266,30.0495738983154]},"isApproved":true,"items":[],"keys":["Sandwiches","Soup","Salad"],"lastUpdated":1547527612698,"name":"Panera Bread","phone":"(281) 812-4448","price":"$$","reviewCount":60,"reviewScore":3,"meta":{"revision":0,"created":1547531156750,"version":0},"$loki":44},{"_id":"5c3d65bd3525a329e0c0f11c","address":"1012 N Main St","location":{"type":"Point","coordinates":[-94.8915762,30.0455492]},"isApproved":true,"items":[],"keys":["Vietnamese"],"lastUpdated":1547527612590,"name":"PHO BO","phone":"(936) 641-9275","price":"","reviewCount":3,"reviewScore":4.5,"meta":{"revision":0,"created":1547531156750,"version":0},"$loki":45},{"_id":"5c3d65bd3525a329e0c18f5a","address":"401 W Clayton St","location":{"type":"Point","coordinates":[-94.891822,30.045537]},"isApproved":true,"items":[],"keys":["Mexican"],"lastUpdated":1547527612832,"name":"Los Compadres Mexican Restaurant","phone":"(936) 257-2361","price":"$$","reviewCount":32,"reviewScore":3.5,"meta":{"revision":0,"created":1547531156750,"version":0},"$loki":46},{"_id":"5c3d65bd3525a329e0bfffeb","address":"28533 Spring Trails Ridge","location":{"type":"Point","coordinates":[-94.8930583521724,30.0455070438375]},"isApproved":true,"items":[],"keys":["Fast Food","American (Traditional)","Gluten-Free"],"lastUpdated":1547527612223,"name":"The Runaway Plate","phone":"(713) 389-5531","price":"$$","reviewCount":130,"reviewScore":4,"meta":{"revision":0,"created":1547531156750,"version":0},"$loki":47},{"_id":"5c3d65bd3525a329e0c17b36","address":"302 S Frazier St","location":{"type":"Point","coordinates":[-94.8899241032927,30.0444115263978]},"isApproved":true,"items":[],"keys":["Food Trucks","Tacos"],"lastUpdated":1547527612799,"name":"El Taco Veloz","phone":"(936) 718-1306","price":"$","reviewCount":50,"reviewScore":4.5,"meta":{"revision":0,"created":1547531156750,"version":0},"$loki":48},{"_id":"5c3d65bd3525a329e0c169c7","address":"19340 W Lake Houston Pkwy","location":{"type":"Point","coordinates":[-94.8892873,30.044719]},"isApproved":true,"items":[],"keys":["Sushi Bars","Asian Fusion"],"lastUpdated":1547527612772,"name":"838 Sushi Asian Restaurant","phone":"(281) 812-6188","price":"$$","reviewCount":75,"reviewScore":3,"meta":{"revision":0,"created":1547531156750,"version":0},"$loki":49},{"_id":"5c3d65bd3525a329e0c14044","address":"1755 Highway 90","location":{"type":"Point","coordinates":[-94.9023807048798,30.0358110426678]},"isApproved":true,"items":[],"keys":["Seafood","Steakhouses"],"lastUpdated":1547527612707,"name":"Texas Seafood And Steakhouse","phone":"(936) 258-3868","price":"$$","reviewCount":28,"reviewScore":2.5,"meta":{"revision":0,"created":1547531156750,"version":0},"$loki":50},{"_id":"5c3d65bd3525a329e0c14bc1","address":"202 A1 Fm 1960 Bypass Rd E","location":{"type":"Point","coordinates":[-94.8981198,30.0462868]},"isApproved":true,"items":[],"keys":["Indian","Soup","Buffets"],"lastUpdated":1547527612729,"name":"The Curry House","phone":"(281) 446-0314","price":"$$","reviewCount":361,"reviewScore":4.5,"meta":{"revision":0,"created":1547531156750,"version":0},"$loki":51},{"_id":"5c3d65bd3525a329e0c05cf5","address":"24501 Fm 2100","location":{"type":"Point","coordinates":[-95.0892347,30.0285689]},"isApproved":true,"items":[],"keys":["Italian"],"lastUpdated":1547527612357,"name":"Marsalas Italian Grill","phone":"(281) 764-5360","price":"$$","reviewCount":55,"reviewScore":4.5,"meta":{"revision":0,"created":1547531156750,"version":0},"$loki":52},{"_id":"5c3d65bd3525a329e0c06714","address":"23692 Hwy 59 N","location":{"type":"Point","coordinates":[-95.0892347,30.0285689]},"isApproved":true,"items":[],"keys":["Sports Bars","Sandwiches","Tacos"],"lastUpdated":1547527612378,"name":"The Draft","phone":"(832) 777-6623","price":"$$","reviewCount":82,"reviewScore":3.5,"meta":{"revision":0,"created":1547531156750,"version":0},"$loki":53},{"_id":"5c3d65bd3525a329e0c0fd0d","address":"22390 Tomball Pkwy","location":{"type":"Point","coordinates":[-95.0892347,30.0285689]},"isApproved":true,"items":[],"keys":["Mexican","Bars","Seafood"],"lastUpdated":1547527612608,"name":"Los Cucos Mexican Cafe - Cypress","phone":"(281) 376-4077","price":"$$","reviewCount":231,"reviewScore":3.5,"meta":{"revision":0,"created":1547531156750,"version":0},"$loki":54},{"_id":"5c3d65bd3525a329e0c007d4","address":"26850 I45 N","location":{"type":"Point","coordinates":[-95.089071,30.024432]},"isApproved":true,"items":[],"keys":["Mexican"],"lastUpdated":1547527612228,"name":"Red Rooster Grill Mexican Kitchen","phone":"(281) 719-0246","price":"$$","reviewCount":48,"reviewScore":4,"meta":{"revision":0,"created":1547531156750,"version":0},"$loki":55},{"_id":"5c3d65bd3525a329e0c05d5e","address":"24660 Hwy 59 N","location":{"type":"Point","coordinates":[-95.0891587,30.0234189]},"isApproved":true,"items":[],"keys":["Mexican"],"lastUpdated":1547527612361,"name":"Taqueria Alma Latina","phone":"(281) 354-4030","price":"$$","reviewCount":52,"reviewScore":3,"meta":{"revision":0,"created":1547531156750,"version":0},"$loki":56},{"_id":"5c3d65bd3525a329e0bff617","address":"1402 Spring Cypress Rd","location":{"type":"Point","coordinates":[-95.093527,30.0214091]},"isApproved":true,"items":[],"keys":["Southern","Cajun/Creole","Seafood"],"lastUpdated":1547527612217,"name":"Louisiana Fish House","phone":"(281) 719-5468","price":"$$","reviewCount":59,"reviewScore":4.5,"meta":{"revision":0,"created":1547531156750,"version":0},"$loki":57},{"_id":"5c3d65bd3525a329e0c134ab","address":"4740 Spring Cypress Rd","location":{"type":"Point","coordinates":[-95.103697925806,30.020586403858]},"isApproved":true,"items":[],"keys":["Pizza"],"lastUpdated":1547527612690,"name":"F-Bomb Pizza","phone":"(832) 981-2662","price":"","reviewCount":21,"reviewScore":4.5,"meta":{"revision":0,"created":1547531156750,"version":0},"$loki":58},{"_id":"5c3d65bd3525a329e0c11c19","address":"2121 Highway 146","location":{"type":"Point","coordinates":[-95.10979,30.019428]},"isApproved":true,"items":[],"keys":["Coffee & Tea","Burgers","Fast Food"],"lastUpdated":1547527612660,"name":"McDonald’s","phone":"(936) 336-3636","price":"","reviewCount":2,"reviewScore":3.5,"meta":{"revision":0,"created":1547531156750,"version":0},"$loki":59},{"_id":"5c3d65bd3525a329e0c03c84","address":"4590 Kingwood Dr","location":{"type":"Point","coordinates":[-95.118094,30.017074]},"isApproved":true,"items":[],"keys":["American (Traditional)","Sports Bars"],"lastUpdated":1547527612312,"name":"Three B’s Grill","phone":"(281) 360-7797","price":"$$","reviewCount":102,"reviewScore":3.5,"meta":{"revision":0,"created":1547531156750,"version":0},"$loki":60},{"_id":"5c3d65bd3525a329e0c1949b","address":"9595 Six Pines Dr","location":{"type":"Point","coordinates":[-95.1641624,29.9973106]},"isApproved":true,"items":[],"keys":["Sushi Bars","Asian Fusion"],"lastUpdated":1547527612840,"name":"Uni Sushi","phone":"(281) 298-7177","price":"$$","reviewCount":244,"reviewScore":3.5,"meta":{"revision":0,"created":1547531156750,"version":0},"$loki":61},{"_id":"5c3d65bd3525a329e0c00934","address":"5000 W Davis St","location":{"type":"Point","coordinates":[-95.1655262300493,29.9987142322187]},"isApproved":true,"items":[],"keys":["Barbeque","American (Traditional)"],"lastUpdated":1547527612229,"name":"Vernon’s Kuntry Bar-B-Que","phone":"(936) 539-3000","price":"$","reviewCount":54,"reviewScore":3.5,"meta":{"revision":0,"created":1547531156750,"version":0},"$loki":62},{"_id":"5c3d65bd3525a329e0c137de","address":"295 Enclave Dr","location":{"type":"Point","coordinates":[-95.1689682006836,29.9987983703613]},"isApproved":true,"items":[],"keys":["Cafes"],"lastUpdated":1547527612697,"name":"Noe’s Crepes Coffee & Tea","phone":"(832) 429-2929","price":"","reviewCount":2,"reviewScore":4,"meta":{"revision":0,"created":1547531156750,"version":0},"$loki":63},{"_id":"5c3d65bd3525a329e0c1811c","address":"7203 Atascocita Rd","location":{"type":"Point","coordinates":[-95.1681947089421,29.9971944929861]},"isApproved":true,"items":[],"keys":["Pizza","Salad","Chicken Wings"],"lastUpdated":1547527612809,"name":"Marco’s Pizza","phone":"(281) 852-0200","price":"$","reviewCount":55,"reviewScore":3,"meta":{"revision":0,"created":1547531156750,"version":0},"$loki":64},{"_id":"5c3d65bd3525a329e0c01f76","address":"808 Hwy 59 Byp","location":{"type":"Point","coordinates":[-95.167235,29.996905]},"isApproved":true,"items":[],"keys":["Burgers","Fast Food"],"lastUpdated":1547527612269,"name":"Whataburger","phone":"(281) 592-7722","price":"$","reviewCount":12,"reviewScore":2.5,"meta":{"revision":0,"created":1547531156750,"version":0},"$loki":65},{"_id":"5c3d65bd3525a329e0c07e7a","address":"10614 Fm 1960 Rd E","location":{"type":"Point","coordinates":[-95.1714052632451,29.9959112498838]},"isApproved":true,"items":[],"keys":["Seafood","American (Traditional)","Bars"],"lastUpdated":1547527612417,"name":"The Cedar","phone":"(281) 324-1113","price":"$$","reviewCount":63,"reviewScore":3.5,"meta":{"revision":0,"created":1547531156750,"version":0},"$loki":66},{"_id":"5c3d65bd3525a329e0c0da72","address":"3835-3549 Farm To Market 2920","location":{"type":"Point","coordinates":[-95.170635,29.996826]},"isApproved":true,"items":[],"keys":["Tex-Mex","Mexican"],"lastUpdated":1547527612556,"name":"Cascadas Mexican Grill & Bar","phone":"(832) 663-9704","price":"$$","reviewCount":44,"reviewScore":4.5,"meta":{"revision":0,"created":1547531156750,"version":0},"$loki":67},{"_id":"5c3d65bd3525a329e0c14918","address":"6777 Woodlands Pkwy","location":{"type":"Point","coordinates":[-95.1699633943474,29.9989149186247]},"isApproved":true,"items":[],"keys":["Chinese"],"lastUpdated":1547527612727,"name":"Spicy Cuisine","phone":"(281) 419-6995","price":"","reviewCount":15,"reviewScore":4,"meta":{"revision":0,"created":1547531156750,"version":0},"$loki":68},{"_id":"5c3d65bd3525a329e0c0814a","address":"19740 Hwy 59 N","location":{"type":"Point","coordinates":[-95.1711018383503,29.9988584576207]},"isApproved":true,"items":[],"keys":["Mexican","Breakfast & Brunch"],"lastUpdated":1547527612419,"name":"Taquerias Arandas","phone":"(281) 446-2500","price":"$","reviewCount":48,"reviewScore":3,"meta":{"revision":0,"created":1547531156750,"version":0},"$loki":69},{"_id":"5c3d65bd3525a329e0c0a433","address":"1816 Sam Houston St","location":{"type":"Point","coordinates":[-95.1714200547328,29.9994584962782]},"isApproved":true,"items":[],"keys":["Sandwiches","Coffee & Tea","Breakfast & Brunch"],"lastUpdated":1547527612480,"name":"Generations Coffee & Sandwich Shop","phone":"(936) 334-1399","price":"","reviewCount":1,"reviewScore":4,"meta":{"revision":0,"created":1547531156750,"version":0},"$loki":70},{"_id":"5c3d65bd3525a329e0c00cd7","address":"804 Gladstell Rd","location":{"type":"Point","coordinates":[-95.1709263639564,29.997848347888]},"isApproved":true,"items":[],"keys":["Burgers"],"lastUpdated":1547527612231,"name":"Burger Fresh","phone":"(936) 756-4414","price":"$","reviewCount":128,"reviewScore":3.5,"meta":{"revision":0,"created":1547531156750,"version":0},"$loki":71},{"_id":"5c3d65bd3525a329e0c0f0bf","address":"6633 Spring Stuebner Rd","location":{"type":"Point","coordinates":[-95.170736,29.997735]},"isApproved":true,"items":[],"keys":["Italian","Pizza"],"lastUpdated":1547527612590,"name":"Russo’s New York Pizzeria","phone":"(832) 761-9900","price":"","reviewCount":7,"reviewScore":3.5,"meta":{"revision":0,"created":1547531156750,"version":0},"$loki":72},{"_id":"5c3d65bd3525a329e0c126ed","address":"19075 Interstate 45 S","location":{"type":"Point","coordinates":[-95.1730779,29.9990679]},"isApproved":true,"items":[],"keys":["Breakfast & Brunch","Cafes","American (Traditional)"],"lastUpdated":1547527612671,"name":"Another Broken Egg Cafe","phone":"(936) 273-2011","price":"$$","reviewCount":375,"reviewScore":4,"meta":{"revision":0,"created":1547531156750,"version":0},"$loki":73},{"_id":"5c3d65bd3525a329e0c094eb","address":"2168 Spring Stuebner Rd","location":{"type":"Point","coordinates":[-95.1734447479247,29.9969234731668]},"isApproved":true,"items":[],"keys":["Indian"],"lastUpdated":1547527612453,"name":"Tarka Indian Kitchen","phone":"(346) 224-8124","price":"$$","reviewCount":90,"reviewScore":4,"meta":{"revision":0,"created":1547531156750,"version":0},"$loki":74},{"_id":"5c3d65bd3525a329e0c1888b","address":"8009 Fm 1960 Rd E","location":{"type":"Point","coordinates":[-95.1794154,29.9985377]},"isApproved":true,"items":[],"keys":["Cajun/Creole","Seafood"],"lastUpdated":1547527612822,"name":"Little New Orleans Seafood","phone":"(832) 777-0145","price":"$$","reviewCount":42,"reviewScore":4,"meta":{"revision":0,"created":1547531156750,"version":0},"$loki":75},{"_id":"5c3d65bd3525a329e0c13550","address":"6500 Fm 1960 Rd E","location":{"type":"Point","coordinates":[-95.179026,29.998278]},"isApproved":true,"items":[],"keys":["Sushi Bars","Mongolian"],"lastUpdated":1547527612696,"name":"Kublai Khan","phone":"(281) 852-9888","price":"$$","reviewCount":84,"reviewScore":4,"meta":{"revision":0,"created":1547531156750,"version":0},"$loki":76},{"_id":"5c3d65bd3525a329e0c16078","address":"122 Truly Plz","location":{"type":"Point","coordinates":[-95.179026,29.998278]},"isApproved":true,"items":[],"keys":["Meat Shops","Tacos"],"lastUpdated":1547527612756,"name":"La Hacienda Carneceria","phone":"(281) 592-2118","price":"","reviewCount":3,"reviewScore":4.5,"meta":{"revision":0,"created":1547531156750,"version":0},"$loki":77},{"_id":"5c3d65bd3525a329e0c023de","address":"217 Fm 1960 Bypass Rd E","location":{"type":"Point","coordinates":[-95.1747429,29.9961715]},"isApproved":true,"items":[],"keys":["Pizza","Italian"],"lastUpdated":1547527612277,"name":"Italiano’s Restaurant","phone":"(281) 446-6111","price":"$$","reviewCount":449,"reviewScore":4,"meta":{"revision":0,"created":1547531156750,"version":0},"$loki":78},{"_id":"5c3d65bd3525a329e0c1284a","address":"3645 Fm 1960","location":{"type":"Point","coordinates":[-95.1746125,29.9969279]},"isApproved":true,"items":[],"keys":["Chinese"],"lastUpdated":1547527612678,"name":"Hou Wei","phone":"(832) 446-3584","price":"$$","reviewCount":94,"reviewScore":4.5,"meta":{"revision":0,"created":1547531156750,"version":0},"$loki":79},{"_id":"5c3d65bd3525a329e0c1440c","address":"25665 Interstate 45","location":{"type":"Point","coordinates":[-95.174617,29.996931]},"isApproved":true,"items":[],"keys":["Italian","Seafood"],"lastUpdated":1547527612714,"name":"Carrabba’s Italian Grill","phone":"(281) 367-9423","price":"$$","reviewCount":96,"reviewScore":3.5,"meta":{"revision":0,"created":1547531156750,"version":0},"$loki":80},{"_id":"5c3d65bd3525a329e0c0f4da","address":"140 FM 1960 Bypass E. Rd.","location":{"type":"Point","coordinates":[-95.1764879072494,29.9976994956586]},"isApproved":true,"items":[],"keys":["American (Traditional)","American (New)"],"lastUpdated":1547527612592,"name":"Brick House Tavern + Tap","phone":"(281) 319-4410","price":"$$","reviewCount":227,"reviewScore":3,"meta":{"revision":0,"created":1547531156750,"version":0},"$loki":81},{"_id":"5c3d65bd3525a329e0c08d12","address":"2101 W Davis St","location":{"type":"Point","coordinates":[-95.17286,30.00091]},"isApproved":true,"items":[],"keys":["Mexican"],"lastUpdated":1547527612437,"name":"El Bosque Mexican Restaurant","phone":"(936) 539-3823","price":"$$","reviewCount":48,"reviewScore":3,"meta":{"revision":0,"created":1547531156750,"version":0},"$loki":82},{"_id":"5c3d65bd3525a329e0c01d32","address":"3210 US 90","location":{"type":"Point","coordinates":[-95.1668307,30.0006062]},"isApproved":true,"items":[],"keys":["Italian","Pizza"],"lastUpdated":1547527612259,"name":"Joe’s Italian Grill","phone":"(936) 641-9063","price":"","reviewCount":9,"reviewScore":4,"meta":{"revision":0,"created":1547531156750,"version":0},"$loki":83},{"_id":"5c3d65bd3525a329e0c071dc","address":"1206 Spring Cypress Rd","location":{"type":"Point","coordinates":[-95.1668307,30.0006062]},"isApproved":true,"items":[],"keys":["Burgers"],"lastUpdated":1547527612398,"name":"JAX Burger, Fries & Shakes","phone":"(281) 907-6018","price":"$$","reviewCount":106,"reviewScore":4,"meta":{"revision":0,"created":1547531156750,"version":0},"$loki":84},{"_id":"5c3d65bd3525a329e0c0bcdc","address":"415 Rayford Rd","location":{"type":"Point","coordinates":[-95.1542654,30.0038296]},"isApproved":true,"items":[],"keys":["Halal","Mediterranean","Greek"],"lastUpdated":1547527612509,"name":"Zara’s Mediterranean Kitchen","phone":"(713) 575-9272","price":"$$","reviewCount":378,"reviewScore":4.5,"meta":{"revision":0,"created":1547531156750,"version":0},"$loki":85},{"_id":"5c3d65bd3525a329e0c0b075","address":"1315 1st St E","location":{"type":"Point","coordinates":[-95.1539993,30.0022338]},"isApproved":true,"items":[],"keys":["Venezuelan","Mexican"],"lastUpdated":1547527612497,"name":"Doña Maria Restaurant","phone":"(832) 233-8876","price":"$","reviewCount":63,"reviewScore":4.5,"meta":{"revision":0,"created":1547531156750,"version":0},"$loki":86},{"_id":"5c3d65bd3525a329e0c0c0de","address":"21572 Market Pl Dr","location":{"type":"Point","coordinates":[-95.1615969,30.001247]},"isApproved":true,"items":[],"keys":["Pizza","Italian","Gluten-Free"],"lastUpdated":1547527612516,"name":"RCs NYC Pizza & Pasta - Valley Ranch","phone":"(281) 354-4949","price":"","reviewCount":4,"reviewScore":1.5,"meta":{"revision":0,"created":1547531156750,"version":0},"$loki":87},{"_id":"5c3d65bd3525a329e0c0b739","address":"2114 W Davis","location":{"type":"Point","coordinates":[-95.163542,30.000132]},"isApproved":true,"items":[],"keys":["Chinese","Vietnamese"],"lastUpdated":1547527612505,"name":"Van Thong","phone":"(936) 756-8760","price":"$","reviewCount":70,"reviewScore":3.5,"meta":{"revision":0,"created":1547531156750,"version":0},"$loki":88},{"_id":"5c3d65bd3525a329e0bffdf2","address":"1027 Sawdust Rd","location":{"type":"Point","coordinates":[-95.1607716552164,29.9974761695207]},"isApproved":true,"items":[],"keys":["Cajun/Creole"],"lastUpdated":1547527612222,"name":"GoCajun Subs","phone":"(281) 771-3942","price":"$$","reviewCount":92,"reviewScore":4.5,"meta":{"revision":0,"created":1547531156750,"version":0},"$loki":89},{"_id":"5c3d65bd3525a329e0bffe06","address":"","location":{"type":"Point","coordinates":[-95.1603332,29.9972432]},"isApproved":true,"items":[],"keys":["Food Trucks","Pizza"],"lastUpdated":1547527612222,"name":"Refill Station","phone":"","price":"","reviewCount":6,"reviewScore":4,"meta":{"revision":0,"created":1547531156750,"version":0},"$loki":90},{"_id":"5c3d65bd3525a329e0c11abd","address":"260 1st St E","location":{"type":"Point","coordinates":[-95.162352,29.997137]},"isApproved":true,"items":[],"keys":["Chinese","Buffets"],"lastUpdated":1547527612652,"name":"Cafe East Humble","phone":"(281) 548-0082","price":"$$","reviewCount":48,"reviewScore":2.5,"meta":{"revision":0,"created":1547531156750,"version":0},"$loki":91},{"_id":"5c3d65bd3525a329e0c037b1","address":"19121 W Lake Houston Pkwy","location":{"type":"Point","coordinates":[-95.1631909544922,29.9967269529218]},"isApproved":true,"items":[],"keys":["Pizza","Italian","Sandwiches"],"lastUpdated":1547527612304,"name":"Brooklyn Pizzeria","phone":"(281) 540-0015","price":"$","reviewCount":67,"reviewScore":4,"meta":{"revision":0,"created":1547531156750,"version":0},"$loki":92},{"_id":"5c3d65bd3525a329e0c193e0","address":"27885 I-45","location":{"type":"Point","coordinates":[-95.1475051045418,30.0057841964646]},"isApproved":true,"items":[],"keys":["Seafood","Tex-Mex","Mexican"],"lastUpdated":1547527612840,"name":"Guadalajara Hacienda","phone":"(281) 362-0774","price":"$$","reviewCount":200,"reviewScore":3.5,"meta":{"revision":0,"created":1547531156750,"version":0},"$loki":93},{"_id":"5c3d65bd3525a329e0c10621","address":"20090 Hwy 59 N","location":{"type":"Point","coordinates":[-95.153368,30.0022359]},"isApproved":true,"items":[],"keys":["Steakhouses","Bars"],"lastUpdated":1547527612619,"name":"Saltgrass Steak House","phone":"(281) 540-5116","price":"$$","reviewCount":146,"reviewScore":3.5,"meta":{"revision":0,"created":1547531156750,"version":0},"$loki":94},{"_id":"5c3d65bd3525a329e0c0d966","address":"7054 Fm 1960 E","location":{"type":"Point","coordinates":[-95.1529567,30.0029249]},"isApproved":true,"items":[],"keys":["American (Traditional)","Sports Bars"],"lastUpdated":1547527612555,"name":"On the Rox Sports Bar & Grill","phone":"(832) 644-8757","price":"$$","reviewCount":37,"reviewScore":3.5,"meta":{"revision":0,"created":1547531156750,"version":0},"$loki":95},{"_id":"5c3d65bd3525a329e0c08e6c","address":"8010 FM 1960","location":{"type":"Point","coordinates":[-95.1512014708862,30.0035479111673]},"isApproved":true,"items":[],"keys":["Food Trucks","Tacos","Sandwiches"],"lastUpdated":1547527612438,"name":"Tortas Belen","phone":"(832) 896-7729","price":"$","reviewCount":19,"reviewScore":4.5,"meta":{"revision":0,"created":1547531156750,"version":0},"$loki":96},{"_id":"5c3d65bd3525a329e0c15b75","address":"Hwy 90","location":{"type":"Point","coordinates":[-95.1513459351959,30.0037762604077]},"isApproved":true,"items":[],"keys":["Mexican"],"lastUpdated":1547527612754,"name":"Mija’s Restaurant","phone":"(409) 336-7416","price":"","reviewCount":1,"reviewScore":3,"meta":{"revision":0,"created":1547531156750,"version":0},"$loki":97},{"_id":"5c3d65bd3525a329e0c171b6","address":"12152 Greenspoint Dr","location":{"type":"Point","coordinates":[-95.1527978,30.0040145]},"isApproved":true,"items":[],"keys":["Food Trucks","Tacos"],"lastUpdated":1547527612782,"name":"Tacos Ole’","phone":"(832) 821-6531","price":"$$","reviewCount":6,"reviewScore":4,"meta":{"revision":0,"created":1547531156750,"version":0},"$loki":98},{"_id":"5c3d65bd3525a329e0c19e8c","address":"7548 Fm 1960 Rd E","location":{"type":"Point","coordinates":[-95.1531080564041,30.0038437435499]},"isApproved":true,"items":[],"keys":["Chinese","Japanese","Sushi Bars"],"lastUpdated":1547527612851,"name":"Ginger Cafe","phone":"(281) 812-8853","price":"$$","reviewCount":104,"reviewScore":4,"meta":{"revision":0,"created":1547531156750,"version":0},"$loki":99},{"_id":"5c3d65bd3525a329e0c1203b","address":"8009 Fm 1960 E","location":{"type":"Point","coordinates":[-95.1533852,30.00403]},"isApproved":true,"items":[],"keys":["Wine Bars","American (New)"],"lastUpdated":1547527612663,"name":"Uncorked","phone":"(832) 644-9810","price":"","reviewCount":2,"reviewScore":2.5,"meta":{"revision":0,"created":1547531156750,"version":0},"$loki":100},{"_id":"5c3d65bd3525a329e0c134bb","address":"5901 W Davis St","location":{"type":"Point","coordinates":[-95.180175,30.051713]},"isApproved":true,"items":[],"keys":["Seafood","American (Traditional)","Southern"],"lastUpdated":1547527612690,"name":"Vernon’s Kuntry Katfish","phone":"(936) 760-3386","price":"$$","reviewCount":160,"reviewScore":4,"meta":{"revision":0,"created":1547531156750,"version":0},"$loki":101},{"_id":"5c3d65bd3525a329e0c179de","address":"","location":{"type":"Point","coordinates":[-95.18005,30.051672]},"isApproved":true,"items":[],"keys":["Caribbean","Food Trucks","Caterers"],"lastUpdated":1547527612793,"name":"Jamaica Pon Di Road","phone":"(832) 802-8923","price":"$","reviewCount":11,"reviewScore":4.5,"meta":{"revision":0,"created":1547531156750,"version":0},"$loki":102},{"_id":"5c3d65bd3525a329e0c0abf5","address":"20216 Loop 494","location":{"type":"Point","coordinates":[-95.1809691,30.0526842]},"isApproved":true,"items":[],"keys":["Seafood","Sandwiches"],"lastUpdated":1547527612490,"name":"Fish Tales","phone":"(281) 689-1886","price":"$","reviewCount":22,"reviewScore":3,"meta":{"revision":0,"created":1547531156750,"version":0},"$loki":103},{"_id":"5c3d65bd3525a329e0c13ad8","address":"19790 Interstate 45","location":{"type":"Point","coordinates":[-95.180787,30.0517476722032]},"isApproved":true,"items":[],"keys":["American (Traditional)","Diners","Breakfast & Brunch"],"lastUpdated":1547527612699,"name":"I-45 Diner","phone":"(713) 389-5627","price":"$","reviewCount":181,"reviewScore":4,"meta":{"revision":0,"created":1547531156750,"version":0},"$loki":104},{"_id":"5c3d65bd3525a329e0c013a6","address":"114 1st St W","location":{"type":"Point","coordinates":[-95.1821915,30.0526362]},"isApproved":true,"items":[],"keys":["Coffee & Tea","Sandwiches","Juice Bars & Smoothies"],"lastUpdated":1547527612249,"name":"Grindbreak Esports Cafe","phone":"(281) 913-5045","price":"$$","reviewCount":42,"reviewScore":4.5,"meta":{"revision":0,"created":1547531156750,"version":0},"$loki":105},{"_id":"5c3d65bd3525a329e0c02c29","address":"2907 Rayford Rd","location":{"type":"Point","coordinates":[-95.1815395,30.0526618]},"isApproved":true,"items":[],"keys":["Cajun/Creole","Sports Bars"],"lastUpdated":1547527612287,"name":"Tewbeleaux’s Sports Bar & Grill","phone":"(281) 292-3600","price":"$$","reviewCount":121,"reviewScore":3.5,"meta":{"revision":0,"created":1547531156750,"version":0},"$loki":106},{"_id":"5c3d65bd3525a329e0c14a9a","address":"1960 FM Lee Rd","location":{"type":"Point","coordinates":[-95.1849193,30.052937]},"isApproved":true,"items":[],"keys":["Mexican"],"lastUpdated":1547527612728,"name":"Taqueria El Jaibo","phone":"(713) 427-9169","price":"$","reviewCount":5,"reviewScore":4,"meta":{"revision":0,"created":1547531156750,"version":0},"$loki":107},{"_id":"5c3d65bd3525a329e0c02462","address":"1337 Kingwood Dr","location":{"type":"Point","coordinates":[-95.183824,30.052763]},"isApproved":true,"items":[],"keys":["Asian Fusion"],"lastUpdated":1547527612277,"name":"Spice Bowl","phone":"(713) 665-9999","price":"$","reviewCount":17,"reviewScore":4,"meta":{"revision":0,"created":1547531156750,"version":0},"$loki":108},{"_id":"5c3d65bd3525a329e0c0b2d5","address":"1644 Research Forest Dr","location":{"type":"Point","coordinates":[-95.1840984430535,30.0508968696419]},"isApproved":true,"items":[],"keys":["Mediterranean","Greek","Middle Eastern"],"lastUpdated":1547527612498,"name":"Lama Mediterranean Cuisine","phone":"(281) 292-5262","price":"$$","reviewCount":221,"reviewScore":4,"meta":{"revision":0,"created":1547531156750,"version":0},"$loki":109},{"_id":"5c3d65bd3525a329e0c0e1dc","address":"24400 Highway 59 N","location":{"type":"Point","coordinates":[-95.1829784722887,30.0499226246844]},"isApproved":true,"items":[],"keys":["American (Traditional)","Southern","Breakfast & Brunch"],"lastUpdated":1547527612565,"name":"Cracker Barrel Old Country Store","phone":"(281) 358-0166","price":"$$","reviewCount":97,"reviewScore":3,"meta":{"revision":0,"created":1547531156750,"version":0},"$loki":110},{"_id":"5c3d65bd3525a329e0c004fa","address":"4711 Louetta Rd","location":{"type":"Point","coordinates":[-95.18305,30.051152]},"isApproved":true,"items":[],"keys":["Breakfast & Brunch"],"lastUpdated":1547527612226,"name":"Kings Blu Jam Cafe","phone":"(713) 389-5555","price":"","reviewCount":69,"reviewScore":4,"meta":{"revision":0,"created":1547531156750,"version":0},"$loki":111},{"_id":"5c3d65bd3525a329e0c08b89","address":"202 Sawdust Rd","location":{"type":"Point","coordinates":[-95.1827591453616,30.0509751111748]},"isApproved":true,"items":[],"keys":["Cajun/Creole","Seafood","Southern"],"lastUpdated":1547527612436,"name":"Bubba T’s Cajun Kitchen","phone":"(281) 651-4566","price":"$$","reviewCount":65,"reviewScore":4.5,"meta":{"revision":0,"created":1547531156750,"version":0},"$loki":112},{"_id":"5c3d65bd3525a329e0c0e02a","address":"24 Waterway Ave","location":{"type":"Point","coordinates":[-95.1812411,30.0503804]},"isApproved":true,"items":[],"keys":["American (New)"],"lastUpdated":1547527612564,"name":"TRIS","phone":"(281) 203-5641","price":"","reviewCount":45,"reviewScore":5,"meta":{"revision":0,"created":1547531156750,"version":0},"$loki":113},{"_id":"5c3d65bd3525a329e0c0e5ec","address":"2290 Buckthorn Pl","location":{"type":"Point","coordinates":[-95.18051915,30.05042045]},"isApproved":true,"items":[],"keys":["Burgers","American (Traditional)"],"lastUpdated":1547527612573,"name":"Fuddruckers","phone":"(281) 367-1343","price":"$$","reviewCount":58,"reviewScore":3.5,"meta":{"revision":0,"created":1547531156750,"version":0},"$loki":114},{"_id":"5c3d65bd3525a329e0c18054","address":"19775 Hwy 59","location":{"type":"Point","coordinates":[-95.1814612,30.0498741]},"isApproved":true,"items":[],"keys":["Vietnamese"],"lastUpdated":1547527612802,"name":"V Bistro","phone":"(281) 540-7467","price":"$","reviewCount":205,"reviewScore":3.5,"meta":{"revision":0,"created":1547531156750,"version":0},"$loki":115},{"_id":"5c3d65bd3525a329e0c1a42d","address":"417 West F M 105","location":{"type":"Point","coordinates":[-95.1819643,30.0496319]},"isApproved":true,"items":[],"keys":["Southern","Chicken Shop","Fast Food"],"lastUpdated":1547527612859,"name":"Hartz Chicken Buffet","phone":"(281) 592-1972","price":"","reviewCount":8,"reviewScore":3.5,"meta":{"revision":0,"created":1547531156750,"version":0},"$loki":116},{"_id":"5c3d65bd3525a329e0c0eb26","address":"5921 Fm 2920","location":{"type":"Point","coordinates":[-95.1843921,30.047598]},"isApproved":true,"items":[],"keys":["Mediterranean","Lebanese"],"lastUpdated":1547527612581,"name":"Nadia’s Mediterranean Grill","phone":"(281) 907-7070","price":"$$","reviewCount":104,"reviewScore":4,"meta":{"revision":0,"created":1547531156750,"version":0},"$loki":117},{"_id":"5c3d65bd3525a329e0c171dc","address":"1100 E Houston St","location":{"type":"Point","coordinates":[-95.1843921,30.047598]},"isApproved":true,"items":[],"keys":["Diners","Breakfast & Brunch","Burgers"],"lastUpdated":1547527612783,"name":"D & M Diner","phone":"(281) 659-0277","price":"$","reviewCount":25,"reviewScore":3.5,"meta":{"revision":0,"created":1547531156750,"version":0},"$loki":118},{"_id":"5c3d65bd3525a329e0c19d75","address":"1578 Kingwood Dr","location":{"type":"Point","coordinates":[-95.1733722191,30.0315543627]},"isApproved":true,"items":[],"keys":["Thai","Laotian"],"lastUpdated":1547527612850,"name":"Thai Lao","phone":"(281) 358-1175","price":"","reviewCount":25,"reviewScore":4.5,"meta":{"revision":0,"created":1547531156750,"version":0},"$loki":119},{"_id":"5c3d65bd3525a329e0c0ca9a","address":"26400 Kuykendahl Rd","location":{"type":"Point","coordinates":[-95.174111,30.031765]},"isApproved":true,"items":[],"keys":["American (New)","Steakhouses","Caterers"],"lastUpdated":1547527612533,"name":"Fielding’s Local Kitchen + Bar","phone":"(281) 351-2225","price":"$$","reviewCount":374,"reviewScore":4,"meta":{"revision":0,"created":1547531156750,"version":0},"$loki":120},{"_id":"5c3d65bd3525a329e0c068a7","address":"22191 W Ford Rd","location":{"type":"Point","coordinates":[-95.1743457423973,30.0318087788922]},"isApproved":true,"items":[],"keys":["Barbeque"],"lastUpdated":1547527612379,"name":"KNE BBQ","phone":"(281) 907-2651","price":"","reviewCount":5,"reviewScore":5,"meta":{"revision":0,"created":1547531156750,"version":0},"$loki":121},{"_id":"5c3d65bd3525a329e0c1a2db","address":"25701 Interstate 45 N","location":{"type":"Point","coordinates":[-95.1802086269989,30.0116474135592]},"isApproved":true,"items":[],"keys":["Japanese","Sushi Bars"],"lastUpdated":1547527612858,"name":"Fukuda","phone":"(281) 419-8980","price":"$$","reviewCount":597,"reviewScore":4.5,"meta":{"revision":0,"created":1547531156750,"version":0},"$loki":122},{"_id":"5c3d65bd3525a329e0c063a6","address":"1660 W Lake Houston Pkwy","location":{"type":"Point","coordinates":[-95.1856806,30.0481047]},"isApproved":true,"items":[],"keys":["American (New)","Breakfast & Brunch"],"lastUpdated":1547527612370,"name":"Raffa’s Waterfront Grill","phone":"(281) 360-1436","price":"$$","reviewCount":151,"reviewScore":3.5,"meta":{"revision":0,"created":1547531156750,"version":0},"$loki":123},{"_id":"5c3d65bd3525a329e0c04dd9","address":"3136 Cypress Creek Pkwy","location":{"type":"Point","coordinates":[-95.1856853,30.0482575279748]},"isApproved":true,"items":[],"keys":["Chicken Wings","Fast Food"],"lastUpdated":1547527612338,"name":"Popeyes Louisiana Kitchen","phone":"(281) 583-1331","price":"","reviewCount":1,"reviewScore":5,"meta":{"revision":0,"created":1547531156750,"version":0},"$loki":124},{"_id":"5c3d65bd3525a329e0c13679","address":"4334 Fm 2920","location":{"type":"Point","coordinates":[-95.186117,30.048956]},"isApproved":true,"items":[],"keys":["Chinese"],"lastUpdated":1547527612696,"name":"Hong Kong Chinese Restaurant","phone":"(281) 528-9288","price":"$$","reviewCount":135,"reviewScore":4.5,"meta":{"revision":0,"created":1547531156750,"version":0},"$loki":125},{"_id":"5c3d65bd3525a329e0c12d79","address":"123 Midway","location":{"type":"Point","coordinates":[-95.1853522,30.0487532]},"isApproved":true,"items":[],"keys":["Tea Rooms","Cafes","Sandwiches"],"lastUpdated":1547527612681,"name":"The Tea Kettle Cafe","phone":"(281) 528-6550","price":"$$","reviewCount":40,"reviewScore":4,"meta":{"revision":0,"created":1547531156750,"version":0},"$loki":126},{"_id":"5c3d65bd3525a329e0c14a5a","address":"9467 Fm 1960 W Bypass Rd","location":{"type":"Point","coordinates":[-95.186205,30.051086]},"isApproved":true,"items":[],"keys":["Pizza","Italian","Chicken Wings"],"lastUpdated":1547527612728,"name":"Brooklyn Pizzeria","phone":"(281) 446-5500","price":"$","reviewCount":125,"reviewScore":4,"meta":{"revision":0,"created":1547531156750,"version":0},"$loki":127},{"_id":"5c3d65bd3525a329e0c0caa3","address":"4800 FM 1960 E","location":{"type":"Point","coordinates":[-95.1872532,30.0548682]},"isApproved":true,"items":[],"keys":["American (Traditional)","Salad","Breakfast & Brunch"],"lastUpdated":1547527612533,"name":"Country Scrambled Cafe 2","phone":"(832) 777-1453","price":"","reviewCount":37,"reviewScore":3.5,"meta":{"revision":0,"created":1547531156750,"version":0},"$loki":128},{"_id":"5c3d65bd3525a329e0c17c9d","address":"14543 Hwy 105 W","location":{"type":"Point","coordinates":[-95.2162283,30.0442264]},"isApproved":true,"items":[],"keys":["Hot Dogs","Desserts"],"lastUpdated":1547527612800,"name":"buldogies","phone":"(936) 588-6688","price":"$","reviewCount":130,"reviewScore":4.5,"meta":{"revision":0,"created":1547531156750,"version":0},"$loki":129},{"_id":"5c3d65bd3525a329e0c04f4a","address":"3333 Fm 1960 Rd E","location":{"type":"Point","coordinates":[-95.2223856,29.9998152]},"isApproved":true,"items":[],"keys":["Tex-Mex"],"lastUpdated":1547527612339,"name":"Hector’s Mexican Restaurant","phone":"(281) 446-1803","price":"$$","reviewCount":74,"reviewScore":3,"meta":{"revision":0,"created":1547531156750,"version":0},"$loki":130},{"_id":"5c3d65bd3525a329e0c08051","address":"1500 Research Forest Dr","location":{"type":"Point","coordinates":[-95.2065022620389,29.9989824197078]},"isApproved":true,"items":[],"keys":["Mediterranean","Lebanese"],"lastUpdated":1547527612419,"name":"Mary’z Mediterranean Cuisine","phone":"(832) 777-7757","price":"","reviewCount":22,"reviewScore":3.5,"meta":{"revision":0,"created":1547531156750,"version":0},"$loki":131},{"_id":"5c3d65bd3525a329e0c0e2ba","address":"203 Midway","location":{"type":"Point","coordinates":[-95.203224,29.998694]},"isApproved":true,"items":[],"keys":["Mexican"],"lastUpdated":1547527612566,"name":"Botana’s El Chilaquil","phone":"(832) 212-8001","price":"","reviewCount":5,"reviewScore":4.5,"meta":{"revision":0,"created":1547531156750,"version":0},"$loki":132},{"_id":"5c3d65bd3525a329e0c16765","address":"716 Kingwood Dr","location":{"type":"Point","coordinates":[-95.196791,29.999257]},"isApproved":true,"items":[],"keys":["Cajun/Creole","Seafood"],"lastUpdated":1547527612771,"name":"Zachary’s Cajun Cafe","phone":"(281) 359-2256","price":"$$","reviewCount":207,"reviewScore":3.5,"meta":{"revision":0,"created":1547531156750,"version":0},"$loki":133},{"_id":"5c3d65bd3525a329e0c08ea8","address":"9420 College Park Dr","location":{"type":"Point","coordinates":[-95.1889978512166,29.9992163205643]},"isApproved":true,"items":[],"keys":["Mexican"],"lastUpdated":1547527612438,"name":"Herreras Mexican Restaurant","phone":"(936) 273-5466","price":"$$","reviewCount":91,"reviewScore":4,"meta":{"revision":0,"created":1547531156750,"version":0},"$loki":134},{"_id":"5c3d65bd3525a329e0c10f00","address":"2855 W Lake Houston Pkwy","location":{"type":"Point","coordinates":[-95.1923242,29.9997346]},"isApproved":true,"items":[],"keys":["Japanese","Chinese","Sushi Bars"],"lastUpdated":1547527612640,"name":"Little Ginger","phone":"(281) 570-2829","price":"$$","reviewCount":35,"reviewScore":4.5,"meta":{"revision":0,"created":1547531156750,"version":0},"$loki":135},{"_id":"5c3d65bd3525a329e0c099b4","address":"901 W Clayton St","location":{"type":"Point","coordinates":[-95.1951079443097,29.9979086823005]},"isApproved":true,"items":[],"keys":["Mexican"],"lastUpdated":1547527612463,"name":"Jose’s Mexican Restaurant","phone":"(936) 258-5887","price":"$","reviewCount":18,"reviewScore":3,"meta":{"revision":0,"created":1547531156750,"version":0},"$loki":136},{"_id":"5c3d65bd3525a329e0c0642a","address":"7355 Fm 1960 Rd E","location":{"type":"Point","coordinates":[-95.1945217554474,29.9974263399999]},"isApproved":true,"items":[],"keys":["Barbeque","Southern","Food Trucks"],"lastUpdated":1547527612371,"name":"Mama’s Texas Smokehouse","phone":"(832) 217-4667","price":"","reviewCount":4,"reviewScore":5,"meta":{"revision":0,"created":1547531156750,"version":0},"$loki":137},{"_id":"5c3d65bd3525a329e0c0c3aa","address":"2245 Northpark Dr At Woodland Hills","location":{"type":"Point","coordinates":[-95.19543,29.997058]},"isApproved":true,"items":[],"keys":["Italian","Pizza","Burgers"],"lastUpdated":1547527612523,"name":"J Christopher’s Pizza-Pasta","phone":"(281) 358-6601","price":"$$","reviewCount":93,"reviewScore":4,"meta":{"revision":0,"created":1547531156750,"version":0},"$loki":138},{"_id":"5c3d65bd3525a329e0c149ca","address":"406 N Thompson St","location":{"type":"Point","coordinates":[-95.195987,29.998526]},"isApproved":true,"items":[],"keys":["Coffee & Tea","Bakeries","Cafes"],"lastUpdated":1547527612728,"name":"FLOUR-ISH","phone":"(936) 521-1007","price":"$","reviewCount":55,"reviewScore":5,"meta":{"revision":0,"created":1547531156750,"version":0},"$loki":139},{"_id":"5c3d65bd3525a329e0c183bf","address":"42 North Main St","location":{"type":"Point","coordinates":[-95.2449171,30.0292903]},"isApproved":true,"items":[],"keys":["Pizza","Italian"],"lastUpdated":1547527612814,"name":"Russo’s New York Pizzeria","phone":"(281) 361-3100","price":"$$","reviewCount":98,"reviewScore":3,"meta":{"revision":0,"created":1547531156750,"version":0},"$loki":140},{"_id":"5c3d65bd3525a329e0c06cc4","address":"419 W Southline St","location":{"type":"Point","coordinates":[-95.2318707244525,30.0487445253661]},"isApproved":true,"items":[],"keys":["Chinese"],"lastUpdated":1547527612386,"name":"China One Super Buffet","phone":"(281) 592-8881","price":"$","reviewCount":15,"reviewScore":2.5,"meta":{"revision":0,"created":1547531156750,"version":0},"$loki":141},{"_id":"5c3d65bd3525a329e0c06a72","address":"26926 Fm 2100 Rd","location":{"type":"Point","coordinates":[-95.2310401,30.0488955]},"isApproved":true,"items":[],"keys":["Mexican"],"lastUpdated":1547527612379,"name":"El Jimador","phone":"(281) 324-2200","price":"","reviewCount":2,"reviewScore":4.5,"meta":{"revision":0,"created":1547531156750,"version":0},"$loki":142},{"_id":"5c3d65bd3525a329e0c0248e","address":"7031 Fm 1960 W","location":{"type":"Point","coordinates":[-95.235584,30.050716]},"isApproved":true,"items":[],"keys":["Tacos","Bakeries"],"lastUpdated":1547527612277,"name":"D’licias Tacos & Bakery","phone":"(281) 441-1177","price":"","reviewCount":3,"reviewScore":5,"meta":{"revision":0,"created":1547531156750,"version":0},"$loki":143},{"_id":"5c3d65bd3525a329e0c139a3","address":"8146 Fm 1960","location":{"type":"Point","coordinates":[-95.2357508,30.0507676]},"isApproved":true,"items":[],"keys":["Italian","Pizza","Salad"],"lastUpdated":1547527612698,"name":"Italiano’s Restaurant","phone":"(281) 852-7662","price":"$$","reviewCount":147,"reviewScore":3.5,"meta":{"revision":0,"created":1547531156750,"version":0},"$loki":144},{"_id":"5c3d65bd3525a329e0c007eb","address":"17446 Kuykendahl Rd","location":{"type":"Point","coordinates":[-95.231894,30.048692]},"isApproved":true,"items":[],"keys":["Fast Food"],"lastUpdated":1547527612228,"name":"Calibombnia","phone":"(832) 229-1069","price":"$","reviewCount":32,"reviewScore":4.5,"meta":{"revision":0,"created":1547531156750,"version":0},"$loki":145},{"_id":"5c3d65bd3525a329e0c065d3","address":"11511 Fm 1960 E","location":{"type":"Point","coordinates":[-95.2382319,30.0487908]},"isApproved":true,"items":[],"keys":["Chicken Wings","Pizza","Sandwiches"],"lastUpdated":1547527612377,"name":"Domino’s Pizza","phone":"(832) 645-5300","price":"","reviewCount":2,"reviewScore":4,"meta":{"revision":0,"created":1547531156750,"version":0},"$loki":146},{"_id":"5c3d65bd3525a329e0c08f04","address":"156 Fm 1960","location":{"type":"Point","coordinates":[-95.2374691,30.0507212]},"isApproved":true,"items":[],"keys":["Cajun/Creole","Seafood","Salad"],"lastUpdated":1547527612438,"name":"Hank’s Crawfish","phone":"(281) 645-8286","price":"$$","reviewCount":81,"reviewScore":3,"meta":{"revision":0,"created":1547531156750,"version":0},"$loki":147},{"_id":"5c3d65bd3525a329e0c13156","address":"2203 Spring Stuebner Rd","location":{"type":"Point","coordinates":[-95.239597,30.0527982]},"isApproved":true,"items":[],"keys":["Sushi Bars","Japanese"],"lastUpdated":1547527612688,"name":"Shoku","phone":"(281) 288-0888","price":"","reviewCount":28,"reviewScore":4,"meta":{"revision":0,"created":1547531156750,"version":0},"$loki":148},{"_id":"5c3d65bd3525a329e0c193de","address":"26509 Hwy 321","location":{"type":"Point","coordinates":[-95.244706,30.050727]},"isApproved":true,"items":[],"keys":["Barbeque"],"lastUpdated":1547527612840,"name":"Big O’s BBQ & Grill","phone":"(281) 659-1118","price":"$$","reviewCount":2,"reviewScore":2.5,"meta":{"revision":0,"created":1547531156750,"version":0},"$loki":149},{"_id":"5c3d65bd3525a329e0c1a60c","address":"26805 I-45 N","location":{"type":"Point","coordinates":[-95.2456226,30.0528761]},"isApproved":true,"items":[],"keys":["Steakhouses","American (Traditional)","Barbeque"],"lastUpdated":1547527612860,"name":"LongHorn Steakhouse","phone":"(281) 292-3522","price":"$$","reviewCount":130,"reviewScore":3.5,"meta":{"revision":0,"created":1547531156750,"version":0},"$loki":150},{"_id":"5c3d65bd3525a329e0c15c4a","address":"27100 I-45 N Oak Ridge N","location":{"type":"Point","coordinates":[-95.2453938680959,30.0508124451676]},"isApproved":true,"items":[],"keys":["Sushi Bars","Japanese","Bars"],"lastUpdated":1547527612754,"name":"Chi Japanese Cuisine","phone":"(281) 419-1166","price":"$$","reviewCount":184,"reviewScore":3.5,"meta":{"revision":0,"created":1547531156750,"version":0},"$loki":151},{"_id":"5c3d65bd3525a329e0c06447","address":"242 Fm 1960 Bypass Rd E","location":{"type":"Point","coordinates":[-95.2449575,30.0506614]},"isApproved":true,"items":[],"keys":["Seafood","Cajun/Creole","Wine Bars"],"lastUpdated":1547527612371,"name":"Captain Crawfish Seafood & Bar","phone":"(281) 973-8348","price":"","reviewCount":22,"reviewScore":4,"meta":{"revision":0,"created":1547531156750,"version":0},"$loki":152},{"_id":"5c3d65bd3525a329e0c0bf80","address":"3301 Cypress Creek Pkwy","location":{"type":"Point","coordinates":[-95.250691664604,30.0422623427391]},"isApproved":true,"items":[],"keys":["Barbeque"],"lastUpdated":1547527612516,"name":"The Brisket House","phone":"(832) 286-1487","price":"$$","reviewCount":211,"reviewScore":4,"meta":{"revision":0,"created":1547531156750,"version":0},"$loki":153},{"_id":"5c3d65bd3525a329e0c0b6f8","address":"12123 West Rd","location":{"type":"Point","coordinates":[-95.2511697,30.0405683]},"isApproved":true,"items":[],"keys":["Ice Cream & Frozen Yogurt","Creperies","Food Trucks"],"lastUpdated":1547527612505,"name":"Roll’d","phone":"(602) 697-4298","price":"","reviewCount":3,"reviewScore":5,"meta":{"revision":0,"created":1547531156750,"version":0},"$loki":154},{"_id":"5c3d65bd3525a329e0c176ab","address":"588 Sawdust Rd","location":{"type":"Point","coordinates":[-95.251675,30.039466]},"isApproved":true,"items":[],"keys":["Mongolian","Sushi Bars","Vietnamese"],"lastUpdated":1547527612791,"name":"Ba Mien 2","phone":"(281) 419-7777","price":"","reviewCount":8,"reviewScore":4.5,"meta":{"revision":0,"created":1547531156750,"version":0},"$loki":155},{"_id":"5c3d65bd3525a329e0c1b0c0","address":"22610 Loop 494","location":{"type":"Point","coordinates":[-95.2495509,30.0461898]},"isApproved":true,"items":[],"keys":["Music Venues","American (Traditional)","Bars"],"lastUpdated":1547527612877,"name":"Nico’s Bar and Grill","phone":"(281) 358-6653","price":"$$","reviewCount":36,"reviewScore":3.5,"meta":{"revision":0,"created":1547531156750,"version":0},"$loki":156},{"_id":"5c3d65bd3525a329e0c01b4f","address":"16441 Hwy 105 E","location":{"type":"Point","coordinates":[-95.314644,30.332799]},"isApproved":true,"items":[],"keys":["Pizza","Italian","Chicken Wings"],"lastUpdated":1547527612258,"name":"Pizza Hut - Cut and Shoot","phone":"(936) 264-2700","price":"$","reviewCount":4,"reviewScore":2.5,"meta":{"revision":0,"created":1547531156750,"version":0},"$loki":157},{"_id":"5c3d65bd3525a329e0c14801","address":"7310 Louetta Rd","location":{"type":"Point","coordinates":[-95.2994,30.330718]},"isApproved":true,"items":[],"keys":["Cafes"],"lastUpdated":1547527612726,"name":"Moo House Cafe","phone":"(346) 808-7182","price":"$","reviewCount":24,"reviewScore":4.5,"meta":{"revision":0,"created":1547531156750,"version":0},"$loki":158},{"_id":"5c3d65bd3525a329e0c13068","address":"23355 Fm 1314 Rd","location":{"type":"Point","coordinates":[-95.2990813,30.238227]},"isApproved":true,"items":[],"keys":["Mexican"],"lastUpdated":1547527612688,"name":"La Casita Mexican Restaurant","phone":"(281) 354-8232","price":"$","reviewCount":41,"reviewScore":4,"meta":{"revision":0,"created":1547531156750,"version":0},"$loki":159},{"_id":"5c3d65bd3525a329e0c14601","address":"4121 W Lake Houston Pkwy","location":{"type":"Point","coordinates":[-95.3207069,30.2703148]},"isApproved":true,"items":[],"keys":["American (Traditional)","Salad","Tex-Mex"],"lastUpdated":1547527612715,"name":"Skeeter’s Mesquite Grill","phone":"(281) 361-7168","price":"$$","reviewCount":69,"reviewScore":3,"meta":{"revision":0,"created":1547531156750,"version":0},"$loki":160},{"_id":"5c3d65bd3525a329e0bffb28","address":"3091 College Park Dr","location":{"type":"Point","coordinates":[-95.3471549,30.1973742]},"isApproved":true,"items":[],"keys":["Italian"],"lastUpdated":1547527612220,"name":"Nona’s Italian Grill - The Woodlands","phone":"(936) 224-3132","price":"$$","reviewCount":59,"reviewScore":4.5,"meta":{"revision":0,"created":1547531156750,"version":0},"$loki":161},{"_id":"5c3d65bd3525a329e0c10ff3","address":"119 Simonton St","location":{"type":"Point","coordinates":[-95.2780354,30.1235313]},"isApproved":true,"items":[],"keys":["Pubs","Pizza","Music Venues"],"lastUpdated":1547527612640,"name":"The Red Brick Tavern","phone":"(936) 539-2000","price":"$$","reviewCount":330,"reviewScore":4,"meta":{"revision":0,"created":1547531156750,"version":0},"$loki":162},{"_id":"5c3d65bd3525a329e0c09d0f","address":"13089 Hwy 105 W","location":{"type":"Point","coordinates":[-95.2808315,30.1281201]},"isApproved":true,"items":[],"keys":["Steakhouses"],"lastUpdated":1547527612465,"name":"Rex Steakhouse","phone":"(936) 588-5058","price":"$$","reviewCount":31,"reviewScore":4,"meta":{"revision":0,"created":1547531156750,"version":0},"$loki":163},{"_id":"5c3d65bd3525a329e0c08db5","address":"925 Main St","location":{"type":"Point","coordinates":[-95.2492245,30.058986]},"isApproved":true,"items":[],"keys":["Seafood"],"lastUpdated":1547527612437,"name":"Baytown Seafood Restaurant","phone":"(936) 334-0007","price":"","reviewCount":4,"reviewScore":4,"meta":{"revision":0,"created":1547531156750,"version":0},"$loki":164},{"_id":"5c3d65bd3525a329e0c0872d","address":"23110 Kuykendahl Rd","location":{"type":"Point","coordinates":[-95.2481638,30.0618188]},"isApproved":true,"items":[],"keys":["Thai"],"lastUpdated":1547527612428,"name":"Aloy Aloy Thai Cafe","phone":"(832) 639-8848","price":"","reviewCount":15,"reviewScore":4.5,"meta":{"revision":0,"created":1547531156750,"version":0},"$loki":165},{"_id":"5c3d65bd3525a329e0c1a199","address":"23750 Highway 59 N","location":{"type":"Point","coordinates":[-95.247912,30.063589]},"isApproved":true,"items":[],"keys":["Steakhouses","Barbeque","American (Traditional)"],"lastUpdated":1547527612857,"name":"Texas Roadhouse","phone":"(281) 548-7427","price":"$$","reviewCount":105,"reviewScore":3,"meta":{"revision":0,"created":1547531156750,"version":0},"$loki":166},{"_id":"5c3d65bd3525a329e0c0af19","address":"6902 Fm 1960 Rd E","location":{"type":"Point","coordinates":[-95.2450195559525,30.0729309851103]},"isApproved":true,"items":[],"keys":["Vietnamese","Soup"],"lastUpdated":1547527612491,"name":"Pho An 3","phone":"(281) 446-0416","price":"$","reviewCount":104,"reviewScore":3,"meta":{"revision":0,"created":1547531156750,"version":0},"$loki":167},{"_id":"5c3d65bd3525a329e0c12ceb","address":"24100 FM 2100","location":{"type":"Point","coordinates":[-95.2446333530381,30.0719463852876]},"isApproved":true,"items":[],"keys":["American (Traditional)","Diners","Breakfast & Brunch"],"lastUpdated":1547527612681,"name":"Huddle House","phone":"(770) 325-1300","price":"","reviewCount":9,"reviewScore":3,"meta":{"revision":0,"created":1547531156750,"version":0},"$loki":168},{"_id":"5c3d65bd3525a329e0c056fa","address":"20 Waterway Ave","location":{"type":"Point","coordinates":[-95.2442474,30.0721462]},"isApproved":true,"items":[],"keys":["Pizza"],"lastUpdated":1547527612348,"name":"Grimaldi’s Pizzeria","phone":"(281) 465-3500","price":"$$","reviewCount":574,"reviewScore":3.5,"meta":{"revision":0,"created":1547531156750,"version":0},"$loki":169},{"_id":"5c3d65bd3525a329e0c11b2b","address":"3091 College Park Dr","location":{"type":"Point","coordinates":[-95.241468,30.070606]},"isApproved":true,"items":[],"keys":["Burgers","Fast Food"],"lastUpdated":1547527612652,"name":"JAX Burgers Fries Shakes","phone":"(936) 207-4999","price":"$$","reviewCount":78,"reviewScore":3.5,"meta":{"revision":0,"created":1547531156750,"version":0},"$loki":170},{"_id":"5c3d65bd3525a329e0c0bf0d","address":"14685 Old Us Hwy 59","location":{"type":"Point","coordinates":[-95.241818,30.069785]},"isApproved":true,"items":[],"keys":["Fast Food","Burgers","Ice Cream & Frozen Yogurt"],"lastUpdated":1547527612516,"name":"Sonic Drive-In","phone":"(281) 689-5553","price":"$","reviewCount":10,"reviewScore":4.5,"meta":{"revision":0,"created":1547531156750,"version":0},"$loki":171},{"_id":"5c3d65bd3525a329e0c00ec6","address":"22704 Lp 494","location":{"type":"Point","coordinates":[-95.2377263,30.0681014]},"isApproved":true,"items":[],"keys":["Italian"],"lastUpdated":1547527612237,"name":"Amedeo’s Italian Restaurant","phone":"(281) 359-4451","price":"$$","reviewCount":91,"reviewScore":3.5,"meta":{"revision":0,"created":1547531156750,"version":0},"$loki":172},{"_id":"5c3d65bd3525a329e0c02e65","address":"2174 Spring Stuebner Rd","location":{"type":"Point","coordinates":[-95.242151,30.0684968]},"isApproved":true,"items":[],"keys":["Ramen"],"lastUpdated":1547527612294,"name":"JINYA Ramen Bar","phone":"(832) 458-2354","price":"","reviewCount":93,"reviewScore":4.5,"meta":{"revision":0,"created":1547531156750,"version":0},"$loki":173},{"_id":"5c3d65bd3525a329e0c0ebe8","address":"18035 IH 45 S","location":{"type":"Point","coordinates":[-95.242436,30.067871]},"isApproved":true,"items":[],"keys":["Mexican","Tex-Mex","Bars"],"lastUpdated":1547527612582,"name":"Chuy’s","phone":"(936) 321-4440","price":"$$","reviewCount":231,"reviewScore":3.5,"meta":{"revision":0,"created":1547531156750,"version":0},"$loki":174},{"_id":"5c3d65bd3525a329e0c00856","address":"6777 Woodlands Pkwy","location":{"type":"Point","coordinates":[-95.2424598864135,30.0694791179175]},"isApproved":true,"items":[],"keys":["Bars","Mexican","Seafood"],"lastUpdated":1547527612228,"name":"La Cantina Mexican Grill","phone":"(281) 419-4000","price":"$$","reviewCount":44,"reviewScore":3.5,"meta":{"revision":0,"created":1547531156750,"version":0},"$loki":175},{"_id":"5c3d65bd3525a329e0c0ef69","address":"19075 I-45 S","location":{"type":"Point","coordinates":[-95.2426972,30.0695976]},"isApproved":true,"items":[],"keys":["Sports Bars","American (Traditional)","Chicken Wings"],"lastUpdated":1547527612584,"name":"Buffalo Wild Wings","phone":"(936) 273-7777","price":"$$","reviewCount":98,"reviewScore":2.5,"meta":{"revision":0,"created":1547531156750,"version":0},"$loki":176},{"_id":"5c3d65bd3525a329e0c19abd","address":"195 Northpark Dr","location":{"type":"Point","coordinates":[-95.24410344,30.06985]},"isApproved":true,"items":[],"keys":["Fast Food"],"lastUpdated":1547527612849,"name":"Chick-fil-A","phone":"(281) 577-1025","price":"$","reviewCount":28,"reviewScore":4,"meta":{"revision":0,"created":1547531156750,"version":0},"$loki":177},{"_id":"5c3d65bd3525a329e0c02d5b","address":"24510 Eastex Fwy","location":{"type":"Point","coordinates":[-95.2460814,30.0678767]},"isApproved":true,"items":[],"keys":["Sandwiches"],"lastUpdated":1547527612294,"name":"Jimmy John’s","phone":"(832) 644-5457","price":"","reviewCount":2,"reviewScore":4,"meta":{"revision":0,"created":1547531156750,"version":0},"$loki":178},{"_id":"5c3d65bd3525a329e0c18468","address":"1419 Spring Cypress Rd","location":{"type":"Point","coordinates":[-95.24649,30.06726]},"isApproved":true,"items":[],"keys":["Chinese"],"lastUpdated":1547527612814,"name":"Golden Jade Chinese Restaurant","phone":"(281) 288-4993","price":"$","reviewCount":47,"reviewScore":3.5,"meta":{"revision":0,"created":1547531156750,"version":0},"$loki":179},{"_id":"5c3d65bd3525a329e0c14abd","address":"8790 Fm 1960 Rd","location":{"type":"Point","coordinates":[-95.2470428,30.0640728]},"isApproved":true,"items":[],"keys":["Sandwiches"],"lastUpdated":1547527612728,"name":"Lennys Subs","phone":"(281) 359-3000","price":"$","reviewCount":11,"reviewScore":4,"meta":{"revision":0,"created":1547531156750,"version":0},"$loki":180},{"_id":"5c3d65bd3525a329e0c03e1e","address":"24230 Kuykendahl Rd","location":{"type":"Point","coordinates":[-95.246819,30.06237]},"isApproved":true,"items":[],"keys":["Seafood","Tacos"],"lastUpdated":1547527612313,"name":"TJ Baja Taco Shop","phone":"(832) 953-2713","price":"","reviewCount":5,"reviewScore":4.5,"meta":{"revision":0,"created":1547531156750,"version":0},"$loki":181},{"_id":"5c3d65bd3525a329e0c001f3","address":"","location":{"type":"Point","coordinates":[-95.242471,30.0788913]},"isApproved":true,"items":[],"keys":["Tacos","Food Trucks"],"lastUpdated":1547527612224,"name":"Los Meros Tacos Y Su Trompo Tribalero","phone":"(832) 628-4161","price":"$","reviewCount":50,"reviewScore":4.5,"meta":{"revision":0,"created":1547531156750,"version":0},"$loki":182},{"_id":"5c3d65bd3525a329e0c0af9f","address":"15455 Kuykendahl Rd","location":{"type":"Point","coordinates":[-95.2419805526733,30.0886833091223]},"isApproved":true,"items":[],"keys":["Food Trucks","Chicken Wings","Pizza"],"lastUpdated":1547527612491,"name":"ChItalian Pizzeria","phone":"(713) 213-9392","price":"$","reviewCount":3,"reviewScore":4.5,"meta":{"revision":0,"created":1547531156750,"version":0},"$loki":183},{"_id":"5c3d65bd3525a329e0c183ef","address":"","location":{"type":"Point","coordinates":[-95.2329483,30.0983811]},"isApproved":true,"items":[],"keys":["Barbeque"],"lastUpdated":1547527612814,"name":"Pappy’s Bar-B-Que & Catering","phone":"(936) 258-5060","price":"$","reviewCount":7,"reviewScore":2,"meta":{"revision":0,"created":1547531156750,"version":0},"$loki":184},{"_id":"5c3d65bd3525a329e0c043a3","address":"2527 Highway 90","location":{"type":"Point","coordinates":[-95.2347471,30.0897462]},"isApproved":true,"items":[],"keys":["Seafood","Breakfast & Brunch","Buffets"],"lastUpdated":1547527612321,"name":"My Little Kitchen Restaurant","phone":"(936) 336-5277","price":"$","reviewCount":12,"reviewScore":3.5,"meta":{"revision":0,"created":1547531156750,"version":0},"$loki":185},{"_id":"5c3d65bd3525a329e0c1a20b","address":"16911 Old Louetta Rd","location":{"type":"Point","coordinates":[-95.2299785,30.1031515]},"isApproved":true,"items":[],"keys":["Food Trucks","Tacos"],"lastUpdated":1547527612858,"name":"Ponchy’s Tacos","phone":"(832) 352-7801","price":"","reviewCount":3,"reviewScore":5,"meta":{"revision":0,"created":1547531156750,"version":0},"$loki":186},{"_id":"5c3d65bd3525a329e0c0dee5","address":"3416 Fm 2920 Rd","location":{"type":"Point","coordinates":[-95.2336649,30.103067]},"isApproved":true,"items":[],"keys":["Vietnamese","Bubble Tea","Juice Bars & Smoothies"],"lastUpdated":1547527612564,"name":"Fu Manchung","phone":"(832) 791-5873","price":"$$","reviewCount":295,"reviewScore":5,"meta":{"revision":0,"created":1547531156750,"version":0},"$loki":187},{"_id":"5c3d65bd3525a329e0c05108","address":"25750 Kuykendahl Rd","location":{"type":"Point","coordinates":[-95.233424,30.104012]},"isApproved":true,"items":[],"keys":["Pizza","Italian","Gluten-Free"],"lastUpdated":1547527612340,"name":"Zazza Pizza Cafe","phone":"(832) 534-8479","price":"$","reviewCount":31,"reviewScore":4,"meta":{"revision":0,"created":1547531156750,"version":0},"$loki":188},{"_id":"5c3d65bd3525a329e0c19745","address":"330 N Main St","location":{"type":"Point","coordinates":[-95.234497,30.1039]},"isApproved":true,"items":[],"keys":["Cafes","Comfort Food"],"lastUpdated":1547527612841,"name":"Red Onion Company on the Square","phone":"(936) 521-1121","price":"$$","reviewCount":6,"reviewScore":3,"meta":{"revision":0,"created":1547531156750,"version":0},"$loki":189},{"_id":"5c3d65bd3525a329e0c177f1","address":"25024 I-45 N","location":{"type":"Point","coordinates":[-95.2354067583359,30.102447931693]},"isApproved":true,"items":[],"keys":["Chinese"],"lastUpdated":1547527612792,"name":"Golden China","phone":"(281) 363-2412","price":"$","reviewCount":139,"reviewScore":4,"meta":{"revision":0,"created":1547531156750,"version":0},"$loki":190},{"_id":"5c3d65bd3525a329e0c07e2f","address":"4806 Spring Stuebner Rd","location":{"type":"Point","coordinates":[-95.235809,30.103628]},"isApproved":true,"items":[],"keys":["Food Trucks","Tacos"],"lastUpdated":1547527612417,"name":"Yummy Taco","phone":"(832) 403-0544","price":"","reviewCount":1,"reviewScore":3,"meta":{"revision":0,"created":1547531156750,"version":0},"$loki":191},{"_id":"5c3d65bd3525a329e0c1afde","address":"107 Fm 2025 Rd","location":{"type":"Point","coordinates":[-95.2346262360962,30.1057670443418]},"isApproved":true,"items":[],"keys":["Fast Food","Sandwiches"],"lastUpdated":1547527612876,"name":"Arby’s","phone":"(281) 593-0840","price":"$","reviewCount":4,"reviewScore":3.5,"meta":{"revision":0,"created":1547531156750,"version":0},"$loki":192},{"_id":"5c3d65bd3525a329e0c11655","address":"5407 Loueta Rd","location":{"type":"Point","coordinates":[-95.2330707,30.120018]},"isApproved":true,"items":[],"keys":["Mexican"],"lastUpdated":1547527612649,"name":"Los Generales","phone":"(281) 251-9390","price":"$$","reviewCount":50,"reviewScore":3.5,"meta":{"revision":0,"created":1547531156750,"version":0},"$loki":193},{"_id":"5c3d65bd3525a329e0c032df","address":"16918 Fm 2920","location":{"type":"Point","coordinates":[-95.238289,30.1024344634831]},"isApproved":true,"items":[],"keys":["Food Trucks","Desserts","Salad"],"lastUpdated":1547527612302,"name":"Every-Bellies","phone":"(713) 829-2592","price":"$","reviewCount":63,"reviewScore":4.5,"meta":{"revision":0,"created":1547531156750,"version":0},"$loki":194},{"_id":"5c3d65bd3525a329e0c0a821","address":"23920 Hwy 59","location":{"type":"Point","coordinates":[-95.237805,30.102238]},"isApproved":true,"items":[],"keys":["Donuts","Bakeries","Diners"],"lastUpdated":1547527612482,"name":"Pat’s Donuts","phone":"(281) 354-7474","price":"$","reviewCount":44,"reviewScore":4,"meta":{"revision":0,"created":1547531156750,"version":0},"$loki":195},{"_id":"5c3d65bd3525a329e0c18313","address":"20017 Fm 1485 Rd","location":{"type":"Point","coordinates":[-95.2451655325423,30.1047363173662]},"isApproved":true,"items":[],"keys":["Mexican","Breakfast & Brunch"],"lastUpdated":1547527612813,"name":"El Taco Panchon","phone":"(832) 543-5575","price":"","reviewCount":2,"reviewScore":3,"meta":{"revision":0,"created":1547531156750,"version":0},"$loki":196},{"_id":"5c3d65bd3525a329e0c105da","address":"22442 State Hwy 249","location":{"type":"Point","coordinates":[-95.2450046,30.1050983]},"isApproved":true,"items":[],"keys":["Asian Fusion","Sushi Bars"],"lastUpdated":1547527612618,"name":"Fuji Sushi & Grill","phone":"(832) 843-6311","price":"$$","reviewCount":202,"reviewScore":4.5,"meta":{"revision":0,"created":1547531156750,"version":0},"$loki":197},{"_id":"5c3d65bd3525a329e0c0490c","address":"30420 Fm 2978 Rd","location":{"type":"Point","coordinates":[-95.2502183,30.1046054]},"isApproved":true,"items":[],"keys":["Tex-Mex"],"lastUpdated":1547527612330,"name":"Gringo’s Mexican Kitchen","phone":"(281) 789-4543","price":"$$","reviewCount":67,"reviewScore":3.5,"meta":{"revision":0,"created":1547531156750,"version":0},"$loki":198},{"_id":"5c3d65bd3525a329e0c15caa","address":"6840 Fm 1960","location":{"type":"Point","coordinates":[-95.2529218,30.1039481]},"isApproved":true,"items":[],"keys":["Chicken Wings","Sports Bars","American (Traditional)"],"lastUpdated":1547527612755,"name":"Buffalo Wild Wings","phone":"(281) 883-4874","price":"$$","reviewCount":93,"reviewScore":2,"meta":{"revision":0,"created":1547531156750,"version":0},"$loki":199},{"_id":"5c3d65bd3525a329e0c03529","address":"19330 Interstate 45 N","location":{"type":"Point","coordinates":[-95.26382,30.110865]},"isApproved":true,"items":[],"keys":["Mexican","Tex-Mex"],"lastUpdated":1547527612303,"name":"Gringo’s Mexican Kitchen","phone":"(832) 381-3345","price":"$$","reviewCount":295,"reviewScore":4,"meta":{"revision":0,"created":1547531156750,"version":0},"$loki":200},{"_id":"5c3d65bd3525a329e0c18d00","address":"414 Main St","location":{"type":"Point","coordinates":[-95.2635386997696,30.1108038900817]},"isApproved":true,"items":[],"keys":["Chicken Wings"],"lastUpdated":1547527612825,"name":"Queen Wings","phone":"(936) 336-2495","price":"","reviewCount":1,"reviewScore":5,"meta":{"revision":0,"created":1547531156750,"version":0},"$loki":201},{"_id":"5c3d65bd3525a329e0c02a3e","address":"2417 Research Forest Dr","location":{"type":"Point","coordinates":[-95.2596261352301,30.1076353237457]},"isApproved":true,"items":[],"keys":["Burgers"],"lastUpdated":1547527612286,"name":"Grub Burger Bar","phone":"(281) 907-9001","price":"$$","reviewCount":303,"reviewScore":4,"meta":{"revision":0,"created":1547531156750,"version":0},"$loki":202},{"_id":"5c3d65bd3525a329e0c0cf84","address":"314 Sawdust Rd","location":{"type":"Point","coordinates":[-95.2602926641703,30.1096116515834]},"isApproved":true,"items":[],"keys":["Burgers","American (Traditional)"],"lastUpdated":1547527612539,"name":"Uncle Tony’s","phone":"(281) 719-0916","price":"$$","reviewCount":114,"reviewScore":4.5,"meta":{"revision":0,"created":1547531156750,"version":0},"$loki":203},{"_id":"5c3d65bd3525a329e0c094a7","address":"16540 Kuykendahl","location":{"type":"Point","coordinates":[-95.235305,30.133065]},"isApproved":true,"items":[],"keys":["Barbeque","Salad","Sandwiches"],"lastUpdated":1547527612453,"name":"Southern Q BBQ & Catering","phone":"(832) 250-4851","price":"$$","reviewCount":291,"reviewScore":4.5,"meta":{"revision":0,"created":1547531156750,"version":0},"$loki":204},{"_id":"5c3d65bd3525a329e0c0b156","address":"3645 Cypress Creek Pkwy","location":{"type":"Point","coordinates":[-95.2352033980782,30.133068531714]},"isApproved":true,"items":[],"keys":["Korean","Barbeque","Buffets"],"lastUpdated":1547527612497,"name":"Jin Korean BBQ","phone":"(832) 602-5131","price":"$$","reviewCount":111,"reviewScore":4.5,"meta":{"revision":0,"created":1547531156750,"version":0},"$loki":205},{"_id":"5c3d65bd3525a329e0c08c0c","address":"25806 Lp 494","location":{"type":"Point","coordinates":[-95.2328506,30.130722]},"isApproved":true,"items":[],"keys":["Fast Food","Mexican"],"lastUpdated":1547527612436,"name":"El Pollo Loco","phone":"(281) 359-1383","price":"$","reviewCount":20,"reviewScore":3,"meta":{"revision":0,"created":1547531156750,"version":0},"$loki":206},{"_id":"5c3d65bd3525a329e0c08a86","address":"1956 Northpark Dr","location":{"type":"Point","coordinates":[-95.233573,30.130732]},"isApproved":true,"items":[],"keys":["Greek","Food Trucks"],"lastUpdated":1547527612430,"name":"Taste of Greek","phone":"(832) 335-7587","price":"$","reviewCount":42,"reviewScore":4.5,"meta":{"revision":0,"created":1547531156750,"version":0},"$loki":207},{"_id":"5c3d65bd3525a329e0c0556f","address":"9595 Six Pines Dr","location":{"type":"Point","coordinates":[-95.23451,30.130362]},"isApproved":true,"items":[],"keys":["American (Traditional)","Cajun/Creole","Seafood"],"lastUpdated":1547527612347,"name":"Schilleci’s New Orleans Kitchen","phone":"(281) 419-4242","price":"$$","reviewCount":550,"reviewScore":4.5,"meta":{"revision":0,"created":1547531156750,"version":0},"$loki":208},{"_id":"5c3d65bd3525a329e0c008b4","address":"11971 N Grand Pkwy E","location":{"type":"Point","coordinates":[-95.2347838,30.1308354]},"isApproved":true,"items":[],"keys":["Burgers","Fast Food"],"lastUpdated":1547527612228,"name":"Five Guys","phone":"(281) 577-4012","price":"","reviewCount":5,"reviewScore":4,"meta":{"revision":0,"created":1547531156750,"version":0},"$loki":209},{"_id":"5c3d65bd3525a329e0c0d578","address":"21576 US Hwy 59","location":{"type":"Point","coordinates":[-95.2294872,30.1323073]},"isApproved":true,"items":[],"keys":["Tex-Mex"],"lastUpdated":1547527612548,"name":"Gringo’s Mexican Kitchen","phone":"(281) 354-3663","price":"","reviewCount":11,"reviewScore":3.5,"meta":{"revision":0,"created":1547531156750,"version":0},"$loki":210},{"_id":"5c3d65bd3525a329e0c0efd2","address":"9222 Louetta Rd","location":{"type":"Point","coordinates":[-95.230454,30.134236]},"isApproved":true,"items":[],"keys":["Mediterranean"],"lastUpdated":1547527612589,"name":"Alwadi Mediterranean","phone":"(832) 639-8863","price":"$","reviewCount":24,"reviewScore":4.5,"meta":{"revision":0,"created":1547531156750,"version":0},"$loki":211},{"_id":"5c3d65bd3525a329e0c0c17f","address":"21372 US Highway 59","location":{"type":"Point","coordinates":[-95.228402,30.133855]},"isApproved":true,"items":[],"keys":["Sports Bars","American (Traditional)","Chicken Wings"],"lastUpdated":1547527612517,"name":"Buffalo Wild Wings","phone":"(866) 704-0777","price":"","reviewCount":13,"reviewScore":2,"meta":{"revision":0,"created":1547531156750,"version":0},"$loki":212},{"_id":"5c3d65bd3525a329e0c067d2","address":"5350 Fm 1960 E","location":{"type":"Point","coordinates":[-95.2285075646485,30.1341809200915]},"isApproved":true,"items":[],"keys":["Indian"],"lastUpdated":1547527612378,"name":"Curry Sultan","phone":"(281) 812-4777","price":"$$","reviewCount":222,"reviewScore":4,"meta":{"revision":0,"created":1547531156750,"version":0},"$loki":213},{"_id":"5c3d65bd3525a329e0c0f489","address":"25219 Kuykendahl Rd","location":{"type":"Point","coordinates":[-95.252722799778,30.196212738243]},"isApproved":true,"items":[],"keys":["Southern","Gastropubs","Cocktail Bars"],"lastUpdated":1547527612592,"name":"Craft Grill","phone":"(281) 255-2396","price":"$$","reviewCount":280,"reviewScore":4,"meta":{"revision":0,"created":1547531156750,"version":0},"$loki":214},{"_id":"5c3d65bd3525a329e0c0eea3","address":"25069 Fm 2090 Rd","location":{"type":"Point","coordinates":[-95.175621,30.236322]},"isApproved":true,"items":[],"keys":["Barbeque","Smokehouse","American (Traditional)"],"lastUpdated":1547527612583,"name":"Coals Smokehouse","phone":"(281) 399-7324","price":"$","reviewCount":35,"reviewScore":3,"meta":{"revision":0,"created":1547531156750,"version":0},"$loki":215},{"_id":"5c3d65bd3525a329e0c08be8","address":"1485 Spring Cypress Rd","location":{"type":"Point","coordinates":[-95.1686016,30.2228388]},"isApproved":true,"items":[],"keys":["Mexican","Salad","Soup"],"lastUpdated":1547527612436,"name":"El Palenque Mexican Restaurant & Cantina","phone":"(281) 353-4055","price":"$$","reviewCount":125,"reviewScore":3.5,"meta":{"revision":0,"created":1547531156750,"version":0},"$loki":216},{"_id":"5c3d65bd3525a329e0c1575d","address":"1900 Hughes Landing Blvd","location":{"type":"Point","coordinates":[-95.16547,30.22958]},"isApproved":true,"items":[],"keys":["Pizza","American (New)"],"lastUpdated":1547527612746,"name":"California Pizza Kitchen at Woodlands","phone":"(832) 791-4900","price":"$$","reviewCount":103,"reviewScore":3,"meta":{"revision":0,"created":1547531156750,"version":0},"$loki":217},{"_id":"5c3d65bd3525a329e0c055b7","address":"4775 W Panther Creek Dr","location":{"type":"Point","coordinates":[-95.1643674,30.2313833]},"isApproved":true,"items":[],"keys":["Mexican","Tex-Mex","Bars"],"lastUpdated":1547527612348,"name":"Los Cucos Mexican Cafe - Woodlands","phone":"(281) 296-2303","price":"$$","reviewCount":169,"reviewScore":3.5,"meta":{"revision":0,"created":1547531156750,"version":0},"$loki":218},{"_id":"5c3d65bd3525a329e0c0b58d","address":"18450 I-45 S","location":{"type":"Point","coordinates":[-95.1619496,30.2383798]},"isApproved":true,"items":[],"keys":["American (Traditional)","Comfort Food","Barbeque"],"lastUpdated":1547527612499,"name":"Mia’s Table","phone":"(832) 764-8286","price":"","reviewCount":103,"reviewScore":4,"meta":{"revision":0,"created":1547531156750,"version":0},"$loki":219},{"_id":"5c3d65bd3525a329e0c0738b","address":"24501 FM-2100 Rd","location":{"type":"Point","coordinates":[-95.162453725934,30.2332135324594]},"isApproved":true,"items":[],"keys":["Mexican"],"lastUpdated":1547527612399,"name":"Los Compadres Mexican Restaurant","phone":"(281) 324-9611","price":"$","reviewCount":28,"reviewScore":4,"meta":{"revision":0,"created":1547531156750,"version":0},"$loki":220},{"_id":"5c3d65bd3525a329e0c16aaa","address":"26048 Fm 2090 E","location":{"type":"Point","coordinates":[-95.159601,30.2313309]},"isApproved":true,"items":[],"keys":["Cajun/Creole","Seafood"],"lastUpdated":1547527612773,"name":"Mud Bugs","phone":"(832) 543-5261","price":"$$","reviewCount":3,"reviewScore":5,"meta":{"revision":0,"created":1547531156750,"version":0},"$loki":221},{"_id":"5c3d65bd3525a329e0c1b544","address":"28533 Springs Trails Ridge","location":{"type":"Point","coordinates":[-95.2003425436027,30.1505463343941]},"isApproved":true,"items":[],"keys":["Burgers","Southern","American (Traditional)"],"lastUpdated":1547527612886,"name":"Cast Iron Southern Grill","phone":"(281) 362-5911","price":"$$","reviewCount":79,"reviewScore":3.5,"meta":{"revision":0,"created":1547531156750,"version":0},"$loki":222},{"_id":"5c3d65bd3525a329e0c0e7c0","address":"6730 Atascocita Rd","location":{"type":"Point","coordinates":[-95.1933173,30.1927056]},"isApproved":true,"items":[],"keys":["Buffets","Chinese"],"lastUpdated":1547527612574,"name":"Ling’s Buffet","phone":"(281) 852-0118","price":"$$","reviewCount":87,"reviewScore":3,"meta":{"revision":0,"created":1547531156750,"version":0},"$loki":223},{"_id":"5c3d65bd3525a329e0c04e84","address":"6030 FM 1960 E","location":{"type":"Point","coordinates":[-95.2046639,30.173344]},"isApproved":true,"items":[],"keys":["Barbeque","Food Trucks"],"lastUpdated":1547527612339,"name":"Cobo’s","phone":"(713) 384-4067","price":"","reviewCount":1,"reviewScore":5,"meta":{"revision":0,"created":1547531156750,"version":0},"$loki":224},{"_id":"5c3d65bd3525a329e0c0e3ac","address":"19620 Kuykendahl Rd","location":{"type":"Point","coordinates":[-95.2122233,30.1541768]},"isApproved":true,"items":[],"keys":["Mexican"],"lastUpdated":1547527612572,"name":"Los Tres Ranchitos Mexican Restaurant","phone":"(281) 288-4304","price":"$$","reviewCount":70,"reviewScore":4,"meta":{"revision":0,"created":1547531156750,"version":0},"$loki":225},{"_id":"5c3d65bd3525a329e0c03288","address":"101 Silverdale Dr","location":{"type":"Point","coordinates":[-95.2168434,30.1555504]},"isApproved":true,"items":[],"keys":["Barbeque","Salad","Caterers"],"lastUpdated":1547527612296,"name":"Darrel’s Catering","phone":"(936) 760-2449","price":"","reviewCount":4,"reviewScore":5,"meta":{"revision":0,"created":1547531156750,"version":0},"$loki":226},{"_id":"5c3d65bd3525a329e0c1316f","address":"6534 Fm 1488 Rd","location":{"type":"Point","coordinates":[-95.2229475,30.1549179]},"isApproved":true,"items":[],"keys":["Mexican","Tex-Mex"],"lastUpdated":1547527612688,"name":"7 Leguas Mexican Restaurant","phone":"(936) 321-2478","price":"$$","reviewCount":109,"reviewScore":3.5,"meta":{"revision":0,"created":1547531156750,"version":0},"$loki":227},{"_id":"5c3d65bd3525a329e0c15e0d","address":"9441 Fm 1960 W","location":{"type":"Point","coordinates":[-95.2253319,30.1563913]},"isApproved":true,"items":[],"keys":["Burgers"],"lastUpdated":1547527612755,"name":"Dirty Juicy Burgers","phone":"(281) 570-2708","price":"$$","reviewCount":144,"reviewScore":3.5,"meta":{"revision":0,"created":1547531156750,"version":0},"$loki":228},{"_id":"5c3d65bd3525a329e0c13b13","address":"","location":{"type":"Point","coordinates":[-95.2260354,30.1562621]},"isApproved":true,"items":[],"keys":["Food Trucks","Chicken Wings"],"lastUpdated":1547527612699,"name":"WhataTruck Superior Food on Wheels","phone":"(281) 746-1780","price":"","reviewCount":1,"reviewScore":5,"meta":{"revision":0,"created":1547531156750,"version":0},"$loki":229},{"_id":"5c3d65bd3525a329e0c03c0a","address":"1202 Kingwood Dr","location":{"type":"Point","coordinates":[-95.2242009,30.1286531]},"isApproved":true,"items":[],"keys":["Pizza","Italian","Gluten-Free"],"lastUpdated":1547527612312,"name":"RC’S NYC Pizza & Pasta - Kingwood","phone":"(281) 358-4663","price":"$$","reviewCount":177,"reviewScore":3.5,"meta":{"revision":0,"created":1547531156750,"version":0},"$loki":230},{"_id":"5c3d65bd3525a329e0c055e8","address":"22664 Community Dr","location":{"type":"Point","coordinates":[-95.2228138,30.1284559]},"isApproved":true,"items":[],"keys":["Barbeque"],"lastUpdated":1547527612348,"name":"The Rusty Buckle BBQ Company","phone":"(281) 354-0447","price":"","reviewCount":5,"reviewScore":5,"meta":{"revision":0,"created":1547531156750,"version":0},"$loki":231},{"_id":"5c3d65bd3525a329e0c0d678","address":"7920 FM 1960 E","location":{"type":"Point","coordinates":[-95.2162074,30.1416289]},"isApproved":true,"items":[],"keys":["Mexican","Seafood"],"lastUpdated":1547527612554,"name":"La Villa Mexican Restaurant","phone":"","price":"$","reviewCount":38,"reviewScore":4,"meta":{"revision":0,"created":1547531156750,"version":0},"$loki":232},{"_id":"5c3d65bd3525a329e0c08886","address":"9753 Fm 1960 Bypass Rd W","location":{"type":"Point","coordinates":[-95.2171741,30.0960832]},"isApproved":true,"items":[],"keys":["Steakhouses"],"lastUpdated":1547527612428,"name":"Outback Steakhouse","phone":"(281) 446-4329","price":"$$","reviewCount":72,"reviewScore":2.5,"meta":{"revision":0,"created":1547531156750,"version":0},"$loki":233},{"_id":"5c3d65bd3525a329e0c12786","address":"25201 Kuykendahl Rd","location":{"type":"Point","coordinates":[-95.222872,30.068931]},"isApproved":true,"items":[],"keys":["Mexican","Tex-Mex"],"lastUpdated":1547527612672,"name":"El Mariachi Mexican Bar & Grill","phone":"(281) 516-7731","price":"$$","reviewCount":51,"reviewScore":3.5,"meta":{"revision":0,"created":1547531156750,"version":0},"$loki":234},{"_id":"5c3d65bd3525a329e0c157fa","address":"18790 US 59 N","location":{"type":"Point","coordinates":[-95.2243959903717,30.0682771739707]},"isApproved":true,"items":[],"keys":["Food Trucks","Barbeque"],"lastUpdated":1547527612747,"name":"C & V Sausage Hut","phone":"(713) 822-9305","price":"","reviewCount":5,"reviewScore":5,"meta":{"revision":0,"created":1547531156750,"version":0},"$loki":235},{"_id":"5c3d65bd3525a329e0c1a692","address":"30340 Fm 2978","location":{"type":"Point","coordinates":[-95.211915,30.069659]},"isApproved":true,"items":[],"keys":["Southern","Burgers","American (Traditional)"],"lastUpdated":1547527612866,"name":"The Republic Grille","phone":"(281) 789-7119","price":"$$","reviewCount":95,"reviewScore":4.5,"meta":{"revision":0,"created":1547531156750,"version":0},"$loki":236},{"_id":"5c3d65bd3525a329e0c10240","address":"21322 Kuykendahl Rd","location":{"type":"Point","coordinates":[-95.2125383,30.0696914]},"isApproved":true,"items":[],"keys":["Chicken Wings","Burgers","Sports Bars"],"lastUpdated":1547527612617,"name":"Big City Wings","phone":"(832) 843-6647","price":"","reviewCount":27,"reviewScore":3.5,"meta":{"revision":0,"created":1547531156750,"version":0},"$loki":237},{"_id":"5c3d65bd3525a329e0c130db","address":"9440 Louetta Rd","location":{"type":"Point","coordinates":[-95.2128116,30.0696602]},"isApproved":true,"items":[],"keys":["Sports Bars","American (New)"],"lastUpdated":1547527612688,"name":"Lucky Dog Sport Bar and Grill","phone":"(832) 698-2977","price":"$","reviewCount":34,"reviewScore":4.5,"meta":{"revision":0,"created":1547531156750,"version":0},"$loki":238},{"_id":"5c3d65bd3525a329e0c0dc3c","address":"1825 E Houston St","location":{"type":"Point","coordinates":[-95.1889351,30.065832]},"isApproved":true,"items":[],"keys":["Seafood","Salad","Sandwiches"],"lastUpdated":1547527612556,"name":"Fish Tales","phone":"(281) 592-2110","price":"","reviewCount":7,"reviewScore":2.5,"meta":{"revision":0,"created":1547531156750,"version":0},"$loki":239},{"_id":"5c3d65bd3525a329e0c1992d","address":"20502 Hwy 59 N","location":{"type":"Point","coordinates":[-95.19736032933,30.0960979314521]},"isApproved":true,"items":[],"keys":["Tex-Mex","Mexican","Bars"],"lastUpdated":1547527612843,"name":"Chuy’s","phone":"(281) 540-7778","price":"$$","reviewCount":206,"reviewScore":3.5,"meta":{"revision":0,"created":1547531156750,"version":0},"$loki":240},{"_id":"5c3d65bd3525a329e0c155bf","address":"217 S Ave G","location":{"type":"Point","coordinates":[-95.1698882674591,30.0722963337853]},"isApproved":true,"items":[],"keys":["French"],"lastUpdated":1547527612745,"name":"Chez Nous","phone":"(281) 446-6717","price":"$$$$","reviewCount":118,"reviewScore":4.5,"meta":{"revision":0,"created":1547531156750,"version":0},"$loki":241},{"_id":"5c3d65bd3525a329e0c01430","address":"403 W Clayton St","location":{"type":"Point","coordinates":[-95.0896822,30.0627229]},"isApproved":true,"items":[],"keys":["Seafood"],"lastUpdated":1547527612249,"name":"Fish Tales","phone":"(936) 681-8322","price":"$","reviewCount":13,"reviewScore":3.5,"meta":{"revision":0,"created":1547531156750,"version":0},"$loki":242},{"_id":"5c3d65bd3525a329e0c09350","address":"399 Sawdust Rd","location":{"type":"Point","coordinates":[-95.1320424416591,30.2213729838232]},"isApproved":true,"items":[],"keys":["American (Traditional)","Southern"],"lastUpdated":1547527612452,"name":"The Omega Grill","phone":"(832) 299-6665","price":"$$","reviewCount":180,"reviewScore":4.5,"meta":{"revision":0,"created":1547531156750,"version":0},"$loki":243},{"_id":"5c3d65bd3525a329e0c08eb0","address":"7042 Fm 1960 Rd E","location":{"type":"Point","coordinates":[-95.0860227,30.336221]},"isApproved":true,"items":[],"keys":["Southern","Cajun/Creole","Seafood"],"lastUpdated":1547527612438,"name":"The Lost Cajun","phone":"(281) 570-4759","price":"$$","reviewCount":136,"reviewScore":4,"meta":{"revision":0,"created":1547531156750,"version":0},"$loki":244},{"_id":"5c3d65bd3525a329e0c0e9a5","address":"509 S Washington Ave","location":{"type":"Point","coordinates":[-95.0929350032704,30.3367195158811]},"isApproved":true,"items":[],"keys":["Bars","Mexican"],"lastUpdated":1547527612581,"name":"Agave Mexican Restaurant & Bar","phone":"(281) 593-2535","price":"$$","reviewCount":22,"reviewScore":4.5,"meta":{"revision":0,"created":1547531156750,"version":0},"$loki":245},{"_id":"5c3d65bd3525a329e0c143b3","address":"146 A Truly Plz","location":{"type":"Point","coordinates":[-95.094366,30.334554]},"isApproved":true,"items":[],"keys":["Mexican"],"lastUpdated":1547527612714,"name":"Pueblo Viejo Restaurant","phone":"(281) 432-2616","price":"$$","reviewCount":42,"reviewScore":4,"meta":{"revision":0,"created":1547531156750,"version":0},"$loki":246},{"_id":"5c3d65bd3525a329e0c099fc","address":"20806 I-H 45N","location":{"type":"Point","coordinates":[-95.094403,30.33569]},"isApproved":true,"items":[],"keys":["Barbeque"],"lastUpdated":1547527612463,"name":"Rudy’s Country Store And Bar-B-Q","phone":"(281) 288-0916","price":"$$","reviewCount":403,"reviewScore":4,"meta":{"revision":0,"created":1547531156750,"version":0},"$loki":247},{"_id":"5c3d65bd3525a329e0c0efe2","address":"1400 Research Forest Dr","location":{"type":"Point","coordinates":[-95.0961778,30.3357117]},"isApproved":true,"items":[],"keys":["Brazilian","Steakhouses","Venues & Event Spaces"],"lastUpdated":1547527612589,"name":"Avenida Brazil Churrascaria Steakhouse","phone":"(281) 651-5369","price":"$$$","reviewCount":89,"reviewScore":4.5,"meta":{"revision":0,"created":1547531156750,"version":0},"$loki":248},{"_id":"5c3d65bd3525a329e0c12ccd","address":"3730 Fm 2920","location":{"type":"Point","coordinates":[-95.095675,30.334917]},"isApproved":true,"items":[],"keys":["Cajun/Creole"],"lastUpdated":1547527612680,"name":"Krav’n Cajun","phone":"(832) 299-6775","price":"$","reviewCount":81,"reviewScore":4.5,"meta":{"revision":0,"created":1547531156750,"version":0},"$loki":249},{"_id":"5c3d65bd3525a329e0c1aa78","address":"3559 Rayford Rd","location":{"type":"Point","coordinates":[-95.09691,30.3364]},"isApproved":true,"items":[],"keys":["Indian"],"lastUpdated":1547527612868,"name":"Palette Indian Kitchen","phone":"(281) 362-5999","price":"$$","reviewCount":204,"reviewScore":4.5,"meta":{"revision":0,"created":1547531156750,"version":0},"$loki":250},{"_id":"5c3d65bd3525a329e0c10aff","address":"6606 Fm 1488","location":{"type":"Point","coordinates":[-95.09711,30.33589]},"isApproved":true,"items":[],"keys":["Mexican","Tex-Mex"],"lastUpdated":1547527612632,"name":"Lone Star Taco","phone":"(936) 231-8332","price":"$","reviewCount":140,"reviewScore":3.5,"meta":{"revision":0,"created":1547531156750,"version":0},"$loki":251},{"_id":"5c3d65bd3525a329e0c03d66","address":"23736 Hwy 59","location":{"type":"Point","coordinates":[-95.097665,30.334088]},"isApproved":true,"items":[],"keys":["Chinese"],"lastUpdated":1547527612313,"name":"777 Hunan Cuisine","phone":"(281) 354-8288","price":"$","reviewCount":25,"reviewScore":3.5,"meta":{"revision":0,"created":1547531156750,"version":0},"$loki":252},{"_id":"5c3d65bd3525a329e0c13266","address":"13817 Highway 59","location":{"type":"Point","coordinates":[-95.1564335,30.243213]},"isApproved":true,"items":[],"keys":["American (Traditional)"],"lastUpdated":1547527612689,"name":"Splendora Cafe","phone":"(281) 689-1650","price":"$$","reviewCount":43,"reviewScore":4,"meta":{"revision":0,"created":1547531156750,"version":0},"$loki":253},