{"filename":"-95-39.75","collections":[{"name":"restaurants","data":[{"_id":"5c3d65bd3525a329e0c0971b","address":"613 Oak St","location":{"type":"Point","coordinates":[-95.123867,39.5623873]},"isApproved":true,"items":[],"keys":["American (Traditional)","Pubs"],"lastUpdated":1547527612454,"name":"2 doors down","phone":"(816) 528-4606","price":"","reviewCount":2,"reviewScore":5,"meta":{"revision":0,"created":1547531150543,"version":0},"$loki":1},{"_id":"5c3d65bd3525a329e0c14ff2","address":"2-96 Beirut Cir","location":{"type":"Point","coordinates":[-95.1231138,39.5611449]},"isApproved":true,"items":[],"keys":["American (New)"],"lastUpdated":1547527612736,"name":"KC Top of the Crown Grill","phone":"","price":"$$","reviewCount":117,"reviewScore":1.5,"meta":{"revision":0,"created":1547531150543,"version":0},"$loki":2},{"_id":"5c3d65bd3525a329e0c01269","address":"1651 Meadowlark Ln","location":{"type":"Point","coordinates":[-95.1277579,39.5611994]},"isApproved":true,"items":[],"keys":["Convenience Stores","Pizza"],"lastUpdated":1547527612240,"name":"Casey’s Carry Out Pizza","phone":"(816) 637-5923","price":"","reviewCount":1,"reviewScore":5,"meta":{"revision":0,"created":1547531150543,"version":0},"$loki":3},{"_id":"5c3d65bd3525a329e0c0e160","address":"7200 NW 86th Ter","location":{"type":"Point","coordinates":[-95.1428945,39.5608962]},"isApproved":true,"items":[],"keys":["American (Traditional)","Bars","Seafood"],"lastUpdated":1547527612565,"name":"54th Street Grill and Bar - Kansas City","phone":"(816) 587-0864","price":"$$","reviewCount":151,"reviewScore":4,"meta":{"revision":0,"created":1547531150543,"version":0},"$loki":4},{"_id":"5c3d65bd3525a329e0c12292","address":"202 N 20th St","location":{"type":"Point","coordinates":[-95.1354728,39.556973]},"isApproved":true,"items":[],"keys":["American (Traditional)","Sports Bars"],"lastUpdated":1547527612669,"name":"Ross’s 20th St Bar and Grill","phone":"(913) 651-7809","price":"$","reviewCount":3,"reviewScore":4.5,"meta":{"revision":0,"created":1547531150543,"version":0},"$loki":5},{"_id":"5c3d65bd3525a329e0c0c387","address":"9558 N McGee St","location":{"type":"Point","coordinates":[-95.1291955,39.5403604]},"isApproved":true,"items":[],"keys":["Fast Food","Sandwiches","Delis"],"lastUpdated":1547527612523,"name":"Jimmy John’s","phone":"(816) 468-8383","price":"$","reviewCount":6,"reviewScore":2.5,"meta":{"revision":0,"created":1547531150543,"version":0},"$loki":6},{"_id":"5c3d65bd3525a329e0c014fd","address":"5901 NW 64th St","location":{"type":"Point","coordinates":[-95.1277955,39.5580456]},"isApproved":true,"items":[],"keys":["Fast Food","Burgers","Ice Cream & Frozen Yogurt"],"lastUpdated":1547527612249,"name":"Culver’s","phone":"(816) 886-9212","price":"$","reviewCount":20,"reviewScore":3.5,"meta":{"revision":0,"created":1547531150543,"version":0},"$loki":7},{"_id":"5c3d65bd3525a329e0c16f5e","address":"112 Branch St","location":{"type":"Point","coordinates":[-95.1269848644734,39.5595349221557]},"isApproved":true,"items":[],"keys":["Convenience Stores","Pizza","Gas Stations"],"lastUpdated":1547527612781,"name":"Casey’s General Store","phone":"(816) 431-5704","price":"$","reviewCount":4,"reviewScore":4,"meta":{"revision":0,"created":1547531150543,"version":0},"$loki":8},{"_id":"5c3d65bd3525a329e0c0e874","address":"930 Skyway Hwy","location":{"type":"Point","coordinates":[-95.1267631411773,39.5568493375188]},"isApproved":true,"items":[],"keys":["Fast Food","Desserts","Ice Cream & Frozen Yogurt"],"lastUpdated":1547527612575,"name":"Dairy Queen Brazier","phone":"(913) 367-2878","price":"$$","reviewCount":6,"reviewScore":3,"meta":{"revision":0,"created":1547531150543,"version":0},"$loki":9},{"_id":"5c3d65bd3525a329e0c0e55f","address":"751 Watson Dr","location":{"type":"Point","coordinates":[-95.123975,39.559006]},"isApproved":true,"items":[],"keys":["Sushi Bars"],"lastUpdated":1547527612573,"name":"Kaji Sushi & Grill","phone":"(816) 903-8633","price":"","reviewCount":5,"reviewScore":4.5,"meta":{"revision":0,"created":1547531150543,"version":0},"$loki":10},{"_id":"5c3d65bd3525a329e0c0c492","address":"821 S 5th St","location":{"type":"Point","coordinates":[-95.1194511,39.5594602]},"isApproved":true,"items":[],"keys":["Pizza","Chicken Wings","Sandwiches"],"lastUpdated":1547527612524,"name":"Domino’s Pizza","phone":"(913) 651-7244","price":"$$","reviewCount":8,"reviewScore":2.5,"meta":{"revision":0,"created":1547531150543,"version":0},"$loki":11},{"_id":"5c3d65bd3525a329e0c116f8","address":"11015 NW 45th Hwy","location":{"type":"Point","coordinates":[-95.11306,39.5648159]},"isApproved":true,"items":[],"keys":["Mexican"],"lastUpdated":1547527612650,"name":"Rancho Grande Cantina","phone":"(816) 505-9097","price":"$$","reviewCount":97,"reviewScore":3.5,"meta":{"revision":0,"created":1547531150543,"version":0},"$loki":12},{"_id":"5c3d65bd3525a329e0c041ab","address":"702 Cherokee St","location":{"type":"Point","coordinates":[-95.116727,39.561679]},"isApproved":true,"items":[],"keys":["Coffee & Tea","Desserts","Breakfast & Brunch"],"lastUpdated":1547527612320,"name":"Meriwether’s","phone":"(913) 240-9686","price":"$","reviewCount":74,"reviewScore":4.5,"meta":{"revision":0,"created":1547531150543,"version":0},"$loki":13},{"_id":"5c3d65bd3525a329e0c07d0b","address":"8614 N Boardwalk Ave","location":{"type":"Point","coordinates":[-95.1149638211058,39.560993323627]},"isApproved":true,"items":[],"keys":["Pubs","American (Traditional)"],"lastUpdated":1547527612411,"name":"The Brewtop Pub & Patio","phone":"(816) 584-9292","price":"$$","reviewCount":98,"reviewScore":3,"meta":{"revision":0,"created":1547531150543,"version":0},"$loki":14},{"_id":"5c3d65bd3525a329e0c053a1","address":"8002 N Oak Trafficway","location":{"type":"Point","coordinates":[-95.1167577,39.561243]},"isApproved":true,"items":[],"keys":["Breakfast & Brunch","American (Traditional)"],"lastUpdated":1547527612346,"name":"Kate’s Kitchen","phone":"(816) 436-7200","price":"$","reviewCount":339,"reviewScore":4.5,"meta":{"revision":0,"created":1547531150543,"version":0},"$loki":15},{"_id":"5c3d65bd3525a329e0c0c934","address":"424 Cherokee St","location":{"type":"Point","coordinates":[-95.1194943,39.5615515]},"isApproved":true,"items":[],"keys":["Italian","Caribbean","Asian Fusion"],"lastUpdated":1547527612526,"name":"First Taste Olive Oils & Vinegars","phone":"(913) 744-5138","price":"$$","reviewCount":19,"reviewScore":4.5,"meta":{"revision":0,"created":1547531150543,"version":0},"$loki":16},{"_id":"5c3d65bd3525a329e0c06fde","address":"6109 NW 63rd Ter","location":{"type":"Point","coordinates":[-95.1210786,39.5616038]},"isApproved":true,"items":[],"keys":["Desserts","Shaved Ice","Food Stands"],"lastUpdated":1547527612388,"name":"Hawaiian Ice","phone":"(734) 748-2558","price":"$","reviewCount":5,"reviewScore":4.5,"meta":{"revision":0,"created":1547531150543,"version":0},"$loki":17},{"_id":"5c3d65bd3525a329e0c092a8","address":"1303 Platte Falls Rd","location":{"type":"Point","coordinates":[-95.1214042,39.5615895]},"isApproved":true,"items":[],"keys":["Chinese"],"lastUpdated":1547527612452,"name":"China Wok","phone":"(816) 431-7777","price":"$","reviewCount":19,"reviewScore":4,"meta":{"revision":0,"created":1547531150543,"version":0},"$loki":18},{"_id":"5c3d65bd3525a329e0c0fd70","address":"1501 Metropolitan St","location":{"type":"Point","coordinates":[-95.121953,39.562141]},"isApproved":true,"items":[],"keys":["Steakhouses"],"lastUpdated":1547527612608,"name":"Metropolitan Steakhouse","phone":"(913) 651-6624","price":"$$","reviewCount":57,"reviewScore":3.5,"meta":{"revision":0,"created":1547531150543,"version":0},"$loki":19},{"_id":"5c3d65bd3525a329e0c01f74","address":"210 S Broadway St","location":{"type":"Point","coordinates":[-95.1202691728832,39.5614021286481]},"isApproved":true,"items":[],"keys":["Vietnamese"],"lastUpdated":1547527612269,"name":"Wizard of Pho","phone":"(913) 250-5870","price":"$$","reviewCount":42,"reviewScore":4,"meta":{"revision":0,"created":1547531150543,"version":0},"$loki":20},{"_id":"5c3d65bd3525a329e0c15a9f","address":"21315 Easton Rd","location":{"type":"Point","coordinates":[-95.1194707,39.5627419]},"isApproved":true,"items":[],"keys":["American (Traditional)"],"lastUpdated":1547527612753,"name":"Hilltop Market","phone":"","price":"","reviewCount":2,"reviewScore":4,"meta":{"revision":0,"created":1547531150543,"version":0},"$loki":21},{"_id":"5c3d65bd3525a329e0c0a999","address":"249 E Broadway","location":{"type":"Point","coordinates":[-94.924099,39.5876029]},"isApproved":true,"items":[],"keys":["American (New)","Gift Shops","Beer, Wine & Spirits"],"lastUpdated":1547527612482,"name":"Willow Spring Mercantile","phone":"(816) 630-7467","price":"$","reviewCount":63,"reviewScore":5,"meta":{"revision":0,"created":1547531150543,"version":0},"$loki":22},{"_id":"5c3d65bd3525a329e0c173a7","address":"101 N US Hwy 169","location":{"type":"Point","coordinates":[-94.7910871,39.6009257]},"isApproved":true,"items":[],"keys":["Mexican"],"lastUpdated":1547527612783,"name":"La Fuente Mexican Restaurant","phone":"(816) 873-3101","price":"$","reviewCount":22,"reviewScore":4,"meta":{"revision":0,"created":1547531150543,"version":0},"$loki":23},{"_id":"5c3d65bd3525a329e0c05cef","address":"2404 NW Vivion Rd","location":{"type":"Point","coordinates":[-94.7659335,39.5203094]},"isApproved":true,"items":[],"keys":["Chinese","Buffets","Seafood"],"lastUpdated":1547527612357,"name":"China Gourmet Buffet","phone":"(816) 746-5070","price":"$","reviewCount":9,"reviewScore":4,"meta":{"revision":0,"created":1547531150543,"version":0},"$loki":24},{"_id":"5c3d65bd3525a329e0c0d7c9","address":"7612 NW Prairie View Rd","location":{"type":"Point","coordinates":[-94.7697868548298,39.5201388036485]},"isApproved":true,"items":[],"keys":["Burgers"],"lastUpdated":1547527612554,"name":"LC’s Hamburgers","phone":"(816) 741-6027","price":"$","reviewCount":113,"reviewScore":4,"meta":{"revision":0,"created":1547531150543,"version":0},"$loki":25},{"_id":"5c3d65bd3525a329e0c0d970","address":"7301 NW 87th St","location":{"type":"Point","coordinates":[-94.784085,39.518731]},"isApproved":true,"items":[],"keys":["Italian","Gluten-Free","Wine Bars"],"lastUpdated":1547527612555,"name":"BRAVO! Cucina Italiana","phone":"(816) 741-4114","price":"$$","reviewCount":155,"reviewScore":4,"meta":{"revision":0,"created":1547531150543,"version":0},"$loki":26}],"idIndex":[1,2,3,4,5,6,7,8,9,10,11,12,13,14,15,16,17,18,19,20,21,22,23,24,25,26],"binaryIndices":{},"constraints":null,"uniqueNames":[],"transforms":{},"objType":"restaurants","dirty":true,"cachedIndex":null,"cachedBinaryIndex":null,"cachedData":null,"adaptiveBinaryIndices":true,"transactional":false,"cloneObjects":false,"cloneMethod":"parse-stringify","asyncListeners":false,"disableMeta":false,"disableChangesApi":true,"disableDeltaChangesApi":true,"autoupdate":false,"serializableIndices":true,"ttl":null,"maxId":26,"DynamicViews":[],"events":{"insert":[],"update":[],"pre-insert":[],"pre-update":[],"close":[],"flushbuffer":[],"error":[],"delete":[null],"warning":[null]},"changes":[]}],"databaseVersion":1.5,"engineVersion":1.5,"autosave":false,"autosaveInterval":5000,"autosaveHandle":null,"throttledSaves":true,"options":{"serializationMethod":"normal","destructureDelimiter":"$<\n"},"persistenceMethod":"fs","persistenceAdapter":null,"verbose":false,"events":{"init":[null],"loaded":[],"flushChanges":[],"close":[],"changes":[],"warning":[]},"ENV":"NODEJS"}