{"filename":"-95.5-32.75","collections":[{"name":"restaurants","data":[{"_id":"5c3d65bd3525a329e0c06d22","address":"809 E Pine St","location":{"type":"Point","coordinates":[-95.8738213,32.6938638]},"isApproved":true,"items":[],"keys":["American (Traditional)"],"lastUpdated":1547527612387,"name":"Lumberyard Cafe","phone":"(903) 896-7766","price":"$$","reviewCount":37,"reviewScore":4.5,"meta":{"revision":0,"created":1547531148772,"version":0},"$loki":1},{"_id":"5c3d65bd3525a329e0c0d634","address":"2218 S Jupiter Rd","location":{"type":"Point","coordinates":[-95.8738213,32.6938638]},"isApproved":true,"items":[],"keys":["Tex-Mex","Mexican"],"lastUpdated":1547527612548,"name":"Tranky’s Tacos","phone":"(972) 864-1460","price":"$","reviewCount":202,"reviewScore":5,"meta":{"revision":0,"created":1547531148772,"version":0},"$loki":2},{"_id":"5c3d65bd3525a329e0c02120","address":"124 N Planters St","location":{"type":"Point","coordinates":[-95.7642425224185,32.8746432403704]},"isApproved":true,"items":[],"keys":["Burgers","Sandwiches","Salad"],"lastUpdated":1547527612275,"name":"Big Mouth Burger Company","phone":"(903) 473-3904","price":"$","reviewCount":35,"reviewScore":4.5,"meta":{"revision":0,"created":1547531148772,"version":0},"$loki":3},{"_id":"5c3d65bd3525a329e0c13898","address":"10720 Preston Rd","location":{"type":"Point","coordinates":[-95.758012,32.868368]},"isApproved":true,"items":[],"keys":["American (Traditional)","Bars"],"lastUpdated":1547527612698,"name":"Neighborhood Services Bar Room & Broiler","phone":"(214) 368-1101","price":"$$","reviewCount":196,"reviewScore":4,"meta":{"revision":0,"created":1547531148772,"version":0},"$loki":4},{"_id":"5c3d65bd3525a329e0c04cd8","address":"Fm 779 And Fm 1799 Intersection","location":{"type":"Point","coordinates":[-95.6318118,32.788849]},"isApproved":true,"items":[],"keys":["Delis","Grocery"],"lastUpdated":1547527612338,"name":"Golden Grocery & Deli","phone":"(903) 768-2322","price":"","reviewCount":1,"reviewScore":5,"meta":{"revision":0,"created":1547531148772,"version":0},"$loki":5},{"_id":"5c3d65bd3525a329e0c169d5","address":"1505 W Garland St","location":{"type":"Point","coordinates":[-95.6347577730469,32.7927893814417]},"isApproved":true,"items":[],"keys":["Barbeque","Burgers"],"lastUpdated":1547527612773,"name":"Circle A BBQ and More","phone":"(903) 913-4545","price":"$","reviewCount":5,"reviewScore":3.5,"meta":{"revision":0,"created":1547531148772,"version":0},"$loki":6},{"_id":"5c3d65bd3525a329e0bff904","address":"Highway 69 S","location":{"type":"Point","coordinates":[-95.4355845,32.795785]},"isApproved":true,"items":[],"keys":["Grocery","Delis"],"lastUpdated":1547527612219,"name":"Brookshire’s Food Stores","phone":"(903) 882-3167","price":"","reviewCount":1,"reviewScore":4,"meta":{"revision":0,"created":1547531148772,"version":0},"$loki":7},{"_id":"5c3d65bd3525a329e0c094f3","address":"619 S Main St","location":{"type":"Point","coordinates":[-95.4541687304959,32.7878258922966]},"isApproved":true,"items":[],"keys":["Steakhouses","Burgers"],"lastUpdated":1547527612453,"name":"Red Dome Smokehouse","phone":"(903) 763-8204","price":"$$","reviewCount":29,"reviewScore":4,"meta":{"revision":0,"created":1547531148772,"version":0},"$loki":8},{"_id":"5c3d65bd3525a329e0c004cc","address":"230 E Hwy 243","location":{"type":"Point","coordinates":[-95.4539062,32.7878374]},"isApproved":true,"items":[],"keys":["Mexican"],"lastUpdated":1547527612226,"name":"El Sombrero","phone":"(903) 567-2600","price":"$","reviewCount":12,"reviewScore":4.5,"meta":{"revision":0,"created":1547531148772,"version":0},"$loki":9},{"_id":"5c3d65bd3525a329e0c18c72","address":"2410 E Gentry Pkwy","location":{"type":"Point","coordinates":[-95.453592,32.788952]},"isApproved":true,"items":[],"keys":["Mexican"],"lastUpdated":1547527612824,"name":"Lindo Mexico Restaurant No 2","phone":"(903) 526-5464","price":"$","reviewCount":13,"reviewScore":4,"meta":{"revision":0,"created":1547531148772,"version":0},"$loki":10},{"_id":"5c3d65bd3525a329e0c00a16","address":"1610 Fm 279","location":{"type":"Point","coordinates":[-95.452838,32.789052]},"isApproved":true,"items":[],"keys":["American (Traditional)","Pizza","Music Venues"],"lastUpdated":1547527612229,"name":"The Forge","phone":"(903) 833-5970","price":"$$","reviewCount":54,"reviewScore":4,"meta":{"revision":0,"created":1547531148772,"version":0},"$loki":11},{"_id":"5c3d65bd3525a329e0c03310","address":"700 S Main","location":{"type":"Point","coordinates":[-95.449051,32.7960254]},"isApproved":true,"items":[],"keys":["Fast Food","Ice Cream & Frozen Yogurt","Burgers"],"lastUpdated":1547527612302,"name":"Dairy Queen","phone":"(903) 763-4414","price":"","reviewCount":11,"reviewScore":2,"meta":{"revision":0,"created":1547531148772,"version":0},"$loki":12},{"_id":"5c3d65bd3525a329e0c07cf3","address":"1005 W Upshur Ave","location":{"type":"Point","coordinates":[-95.4515147209167,32.7959780072622]},"isApproved":true,"items":[],"keys":["Karaoke","Steakhouses","Bars"],"lastUpdated":1547527612411,"name":"Cattalo Cowboy","phone":"(903) 374-2517","price":"","reviewCount":1,"reviewScore":5,"meta":{"revision":0,"created":1547531148772,"version":0},"$loki":13},{"_id":"5c3d65bd3525a329e0c0c885","address":"5353 N Fm 17","location":{"type":"Point","coordinates":[-95.4518164,32.7963444]},"isApproved":true,"items":[],"keys":["Italian"],"lastUpdated":1547527612526,"name":"Verona Italian Cafe","phone":"(903) 473-1701","price":"$$","reviewCount":18,"reviewScore":4,"meta":{"revision":0,"created":1547531148772,"version":0},"$loki":14},{"_id":"5c3d65bd3525a329e0c07d83","address":"625 E Lane St","location":{"type":"Point","coordinates":[-95.444178879261,32.7979105265525]},"isApproved":true,"items":[],"keys":["American (Traditional)"],"lastUpdated":1547527612411,"name":"Country Kitchen","phone":"(903) 763-8217","price":"","reviewCount":10,"reviewScore":4,"meta":{"revision":0,"created":1547531148772,"version":0},"$loki":15},{"_id":"5c3d65bd3525a329e0c12d2d","address":"3320 Troup Hwy","location":{"type":"Point","coordinates":[-95.4838098660912,32.6892544754462]},"isApproved":true,"items":[],"keys":["Restaurants"],"lastUpdated":1547527612681,"name":"Taquerie El Lugar II","phone":"(903) 526-1188","price":"","reviewCount":1,"reviewScore":5,"meta":{"revision":0,"created":1547531148772,"version":0},"$loki":16},{"_id":"5c3d65bd3525a329e0c022a2","address":"1667 S State Hwy 37","location":{"type":"Point","coordinates":[-95.4605689,32.7660308]},"isApproved":true,"items":[],"keys":["Seafood","Burgers"],"lastUpdated":1547527612276,"name":"Seth’s Lake Fork Creek","phone":"(903) 763-0320","price":"$$","reviewCount":57,"reviewScore":4.5,"meta":{"revision":0,"created":1547531148772,"version":0},"$loki":17},{"_id":"5c3d65bd3525a329e0c03f20","address":"Highway 69","location":{"type":"Point","coordinates":[-95.4895595088601,32.6445354343082]},"isApproved":true,"items":[],"keys":["Food Trucks","Barbeque"],"lastUpdated":1547527612319,"name":"Big Mike’s Rolling Smoke BBQ & More","phone":"(972) 201-8558","price":"","reviewCount":2,"reviewScore":5,"meta":{"revision":0,"created":1547531148772,"version":0},"$loki":18},{"_id":"5c3d65bd3525a329e0c02ec6","address":"1414 E Broadway Ave","location":{"type":"Point","coordinates":[-95.4920053482055,32.6638743710134]},"isApproved":true,"items":[],"keys":["Mexican","Tex-Mex","American (Traditional)"],"lastUpdated":1547527612294,"name":"Tejas Cafe","phone":"(903) 845-2208","price":"$$","reviewCount":7,"reviewScore":2.5,"meta":{"revision":0,"created":1547531148772,"version":0},"$loki":19},{"_id":"5c3d65bd3525a329e0c0a308","address":"","location":{"type":"Point","coordinates":[-95.4915863,32.6644621]},"isApproved":true,"items":[],"keys":["Desserts","American (Traditional)"],"lastUpdated":1547527612474,"name":"Golden Domino Hall","phone":"(903) 768-2142","price":"","reviewCount":1,"reviewScore":5,"meta":{"revision":0,"created":1547531148772,"version":0},"$loki":20},{"_id":"5c3d65bd3525a329e0c02cfc","address":"126 E Broad St","location":{"type":"Point","coordinates":[-95.4884932,32.663123]},"isApproved":true,"items":[],"keys":["Burgers"],"lastUpdated":1547527612293,"name":"East Texas Burger Company","phone":"(903) 569-3140","price":"$","reviewCount":73,"reviewScore":4,"meta":{"revision":0,"created":1547531148772,"version":0},"$loki":21},{"_id":"5c3d65bd3525a329e0c18e5a","address":"401 Sh 31 W","location":{"type":"Point","coordinates":[-95.4883647596938,32.6632481024542]},"isApproved":true,"items":[],"keys":["Mexican","Tex-Mex"],"lastUpdated":1547527612831,"name":"Los Dos Potrillos","phone":"(903) 849-6000","price":"$$","reviewCount":7,"reviewScore":4,"meta":{"revision":0,"created":1547531148772,"version":0},"$loki":22},{"_id":"5c3d65bd3525a329e0c0a693","address":"407 S Main St","location":{"type":"Point","coordinates":[-95.488371,32.6632145]},"isApproved":true,"items":[],"keys":["Mexican","Breakfast & Brunch","American (Traditional)"],"lastUpdated":1547527612481,"name":"Tio’s Backporch Restaurant","phone":"(903) 877-2225","price":"$$","reviewCount":12,"reviewScore":4.5,"meta":{"revision":0,"created":1547531148772,"version":0},"$loki":23},{"_id":"5c3d65bd3525a329e0c105dd","address":"525 S Beckham Ave","location":{"type":"Point","coordinates":[-95.4882896,32.6631884]},"isApproved":true,"items":[],"keys":["Barbeque","Sandwiches","Breakfast & Brunch"],"lastUpdated":1547527612618,"name":"Stanley’s Famous Pit Barbecue","phone":"(903) 593-0311","price":"$$","reviewCount":740,"reviewScore":4.5,"meta":{"revision":0,"created":1547531148772,"version":0},"$loki":24},{"_id":"5c3d65bd3525a329e0c12787","address":"119 E Broad St","location":{"type":"Point","coordinates":[-95.4884107,32.6636516]},"isApproved":true,"items":[],"keys":["American (New)"],"lastUpdated":1547527612672,"name":"Kitchens Hardware and Deli","phone":"(903) 569-2664","price":"$$","reviewCount":29,"reviewScore":3.5,"meta":{"revision":0,"created":1547531148772,"version":0},"$loki":25},{"_id":"5c3d65bd3525a329e0c152b9","address":"109 N Johnson St","location":{"type":"Point","coordinates":[-95.4892727,32.6639774]},"isApproved":true,"items":[],"keys":["Barbeque"],"lastUpdated":1547527612737,"name":"CowBurners BBQ & Taproom","phone":"(903) 638-8668","price":"$","reviewCount":26,"reviewScore":4,"meta":{"revision":0,"created":1547531148772,"version":0},"$loki":26},{"_id":"5c3d65bd3525a329e0c0c547","address":"1510 E Gentry Pkwy","location":{"type":"Point","coordinates":[-95.4852585867047,32.6625223707188]},"isApproved":true,"items":[],"keys":["Mexican"],"lastUpdated":1547527612524,"name":"Tacos Mexico","phone":"(903) 747-8295","price":"$","reviewCount":12,"reviewScore":5,"meta":{"revision":0,"created":1547531148772,"version":0},"$loki":27},{"_id":"5c3d65bd3525a329e0c18484","address":"416 E Broad St","location":{"type":"Point","coordinates":[-95.4857201,32.6627158]},"isApproved":true,"items":[],"keys":["Mexican"],"lastUpdated":1547527612814,"name":"The Jalapeno Tree","phone":"(903) 638-6901","price":"$$","reviewCount":40,"reviewScore":3.5,"meta":{"revision":0,"created":1547531148772,"version":0},"$loki":28},{"_id":"5c3d65bd3525a329e0c0e93b","address":"1350 N Hill St","location":{"type":"Point","coordinates":[-95.486083,32.674632]},"isApproved":true,"items":[],"keys":["Barbeque"],"lastUpdated":1547527612580,"name":"Bodacious BBQ Tatum","phone":"(903) 947-6400","price":"$$","reviewCount":22,"reviewScore":4.5,"meta":{"revision":0,"created":1547531148772,"version":0},"$loki":29},{"_id":"5c3d65bd3525a329e0c08b0f","address":"2214 Wsw Lp 323","location":{"type":"Point","coordinates":[-95.4857009,32.6756609]},"isApproved":true,"items":[],"keys":["Mexican","Tex-Mex","Bars"],"lastUpdated":1547527612435,"name":"Mercado’s","phone":"(903) 534-1754","price":"$$","reviewCount":152,"reviewScore":3.5,"meta":{"revision":0,"created":1547531148772,"version":0},"$loki":30},{"_id":"5c3d65bd3525a329e0c0a3c0","address":"1220 N Pacific St","location":{"type":"Point","coordinates":[-95.483451,32.676103]},"isApproved":true,"items":[],"keys":["Bakeries","Grocery","Delis"],"lastUpdated":1547527612479,"name":"Brookshires Food Stores","phone":"(903) 569-3176","price":"","reviewCount":4,"reviewScore":3,"meta":{"revision":0,"created":1547531148772,"version":0},"$loki":31},{"_id":"5c3d65bd3525a329e0c0ecb4","address":"3320 S Broadway Ave","location":{"type":"Point","coordinates":[-95.4835839803394,32.6887971884367]},"isApproved":true,"items":[],"keys":["Italian"],"lastUpdated":1547527612582,"name":"Little Italy","phone":"(903) 595-1184","price":"$$","reviewCount":42,"reviewScore":3.5,"meta":{"revision":0,"created":1547531148772,"version":0},"$loki":32},{"_id":"5c3d65bd3525a329e0c063e5","address":"400 W State Hwy 243","location":{"type":"Point","coordinates":[-95.4860761,32.6884404]},"isApproved":true,"items":[],"keys":["Diners","Burgers","American (Traditional)"],"lastUpdated":1547527612370,"name":"DownHome Cafe","phone":"(903) 567-7601","price":"$","reviewCount":16,"reviewScore":4,"meta":{"revision":0,"created":1547531148772,"version":0},"$loki":33},{"_id":"5c3d65bd3525a329e0c0002a","address":"1593 W Sw Loop 323","location":{"type":"Point","coordinates":[-95.5631678401505,32.729757124074]},"isApproved":true,"items":[],"keys":["Greek"],"lastUpdated":1547527612223,"name":"Athena Restaurant","phone":"(903) 561-8065","price":"$$","reviewCount":124,"reviewScore":4.5,"meta":{"revision":0,"created":1547531148772,"version":0},"$loki":34},{"_id":"5c3d65bd3525a329e0c03ca4","address":"1816 E Gentry Pkwy","location":{"type":"Point","coordinates":[-95.562813,32.730005]},"isApproved":true,"items":[],"keys":["Mexican"],"lastUpdated":1547527612312,"name":"Rufis Restaurant","phone":"(903) 630-7185","price":"","reviewCount":3,"reviewScore":3.5,"meta":{"revision":0,"created":1547531148772,"version":0},"$loki":35},{"_id":"5c3d65bd3525a329e0c04af2","address":"552 W Main St","location":{"type":"Point","coordinates":[-95.7205228507519,32.6738283021401]},"isApproved":true,"items":[],"keys":["Chinese","Donuts"],"lastUpdated":1547527612331,"name":"Master Donut & Chinese Food","phone":"(903) 330-4122","price":"","reviewCount":1,"reviewScore":5,"meta":{"revision":0,"created":1547531148772,"version":0},"$loki":36},{"_id":"5c3d65bd3525a329e0c08dae","address":"508 E Broad St","location":{"type":"Point","coordinates":[-95.7202953,32.6741258]},"isApproved":true,"items":[],"keys":["Chinese"],"lastUpdated":1547527612437,"name":"Panda Buffet","phone":"(903) 569-3959","price":"$$","reviewCount":8,"reviewScore":2.5,"meta":{"revision":0,"created":1547531148772,"version":0},"$loki":37},{"_id":"5c3d65bd3525a329e0c02546","address":"6288 N US Hwy 271","location":{"type":"Point","coordinates":[-95.7215192122885,32.6734342656193]},"isApproved":true,"items":[],"keys":["Fast Food","Burgers"],"lastUpdated":1547527612278,"name":"Whataburger","phone":"(903) 526-0490","price":"$$","reviewCount":8,"reviewScore":3.5,"meta":{"revision":0,"created":1547531148772,"version":0},"$loki":38},{"_id":"5c3d65bd3525a329e0c0f7ae","address":"404 State Highway 31 E","location":{"type":"Point","coordinates":[-95.709806419909,32.6741249161111]},"isApproved":true,"items":[],"keys":["Mexican"],"lastUpdated":1547527612600,"name":"San Pedro’s Mexican Restaurant","phone":"(903) 849-2800","price":"$","reviewCount":41,"reviewScore":3,"meta":{"revision":0,"created":1547531148772,"version":0},"$loki":39},{"_id":"5c3d65bd3525a329e0c0d9c1","address":"14889 Hwy 110 N","location":{"type":"Point","coordinates":[-95.7098459,32.6741228]},"isApproved":true,"items":[],"keys":["Coffee & Tea","Juice Bars & Smoothies","Wraps"],"lastUpdated":1547527612555,"name":"The Journey Coffee House","phone":"(903) 944-4869","price":"$","reviewCount":6,"reviewScore":5,"meta":{"revision":0,"created":1547531148772,"version":0},"$loki":40},{"_id":"5c3d65bd3525a329e0c192a2","address":"310 W Garland St","location":{"type":"Point","coordinates":[-95.7120268,32.6745938]},"isApproved":true,"items":[],"keys":["Mexican"],"lastUpdated":1547527612833,"name":"Peraltas Mexican Restaurant","phone":"(903) 962-3949","price":"$$","reviewCount":6,"reviewScore":4.5,"meta":{"revision":0,"created":1547531148772,"version":0},"$loki":41},{"_id":"5c3d65bd3525a329e0c07f48","address":"124 S Main St","location":{"type":"Point","coordinates":[-95.7098129,32.6721071]},"isApproved":true,"items":[],"keys":["Barbeque","Sandwiches"],"lastUpdated":1547527612418,"name":"The Feed Hut","phone":"(903) 530-0689","price":"$$","reviewCount":13,"reviewScore":4.5,"meta":{"revision":0,"created":1547531148772,"version":0},"$loki":42},{"_id":"5c3d65bd3525a329e0c0c399","address":"3979 University Blvd","location":{"type":"Point","coordinates":[-95.7052644,32.6747432]},"isApproved":true,"items":[],"keys":["Sushi Bars","Asian Fusion","Japanese"],"lastUpdated":1547527612523,"name":"Sushi Guy","phone":"(903) 747-3450","price":"","reviewCount":13,"reviewScore":4,"meta":{"revision":0,"created":1547531148772,"version":0},"$loki":43},{"_id":"5c3d65bd3525a329e0c0eb32","address":"304 W Broad St","location":{"type":"Point","coordinates":[-95.7080671851851,32.6743083276749]},"isApproved":true,"items":[],"keys":["Mexican","Buffets","Sports Bars"],"lastUpdated":1547527612581,"name":"Paredes Family Restaurant","phone":"(903) 569-2424","price":"$$","reviewCount":20,"reviewScore":3,"meta":{"revision":0,"created":1547531148772,"version":0},"$loki":44},{"_id":"5c3d65bd3525a329e0c0ed20","address":"","location":{"type":"Point","coordinates":[-95.6371839,32.5248605]},"isApproved":true,"items":[],"keys":["Diners"],"lastUpdated":1547527612582,"name":"Stoney’s Dinner Bell","phone":"(903) 963-5200","price":"$","reviewCount":2,"reviewScore":4.5,"meta":{"revision":0,"created":1547531148772,"version":0},"$loki":45},{"_id":"5c3d65bd3525a329e0c19994","address":"201 Greenville Ave","location":{"type":"Point","coordinates":[-95.6386055,32.5243091]},"isApproved":true,"items":[],"keys":["Barbeque"],"lastUpdated":1547527612843,"name":"Split Rail Pit Bar-B-Q","phone":"(903) 569-9750","price":"$","reviewCount":16,"reviewScore":3.5,"meta":{"revision":0,"created":1547531148772,"version":0},"$loki":46},{"_id":"5c3d65bd3525a329e0c0dc06","address":"3318 S Main St","location":{"type":"Point","coordinates":[-95.644818842411,32.5256663384592]},"isApproved":true,"items":[],"keys":["Mexican"],"lastUpdated":1547527612556,"name":"Juanita’s Express","phone":"(903) 882-6116","price":"","reviewCount":2,"reviewScore":3,"meta":{"revision":0,"created":1547531148772,"version":0},"$loki":47},{"_id":"5c3d65bd3525a329e0c0c63f","address":"110 West Erwin St","location":{"type":"Point","coordinates":[-95.6441483,32.5247671]},"isApproved":true,"items":[],"keys":["Cocktail Bars","Seafood"],"lastUpdated":1547527612525,"name":"Black Pearl","phone":"(903) 531-2415","price":"$$$","reviewCount":18,"reviewScore":4.5,"meta":{"revision":0,"created":1547531148772,"version":0},"$loki":48},{"_id":"5c3d65bd3525a329e0c04cfb","address":"322 E Se Loop 323","location":{"type":"Point","coordinates":[-95.64385,32.524918]},"isApproved":true,"items":[],"keys":["American (Traditional)","Southern","Comfort Food"],"lastUpdated":1547527612338,"name":"Cotton Patch Cafe","phone":"(903) 509-3900","price":"$$","reviewCount":36,"reviewScore":3,"meta":{"revision":0,"created":1547531148772,"version":0},"$loki":49},{"_id":"5c3d65bd3525a329e0c0ea53","address":"14706 County Rd 1134","location":{"type":"Point","coordinates":[-95.642806,32.523914]},"isApproved":true,"items":[],"keys":["American (New)","Bars","Music Venues"],"lastUpdated":1547527612581,"name":"Lago del Pino","phone":"(903) 561-5246","price":"$$","reviewCount":124,"reviewScore":2.5,"meta":{"revision":0,"created":1547531148772,"version":0},"$loki":50},{"_id":"5c3d65bd3525a329e0c0388e","address":"2121 E 5th St","location":{"type":"Point","coordinates":[-95.639835,32.506709]},"isApproved":true,"items":[],"keys":["Mexican"],"lastUpdated":1547527612304,"name":"Taqueria El Lugar 3","phone":"(903) 526-6118","price":"$","reviewCount":12,"reviewScore":3.5,"meta":{"revision":0,"created":1547531148772,"version":0},"$loki":51},{"_id":"5c3d65bd3525a329e0c00087","address":"607 S Main St","location":{"type":"Point","coordinates":[-95.6415443969403,32.5079932128439]},"isApproved":true,"items":[],"keys":["Mexican"],"lastUpdated":1547527612223,"name":"Peralta’s Authentic Mexican Restaurant","phone":"(903) 763-5020","price":"$","reviewCount":10,"reviewScore":3.5,"meta":{"revision":0,"created":1547531148772,"version":0},"$loki":52},{"_id":"5c3d65bd3525a329e0c06f0b","address":"678 W Southwest Loop 323","location":{"type":"Point","coordinates":[-95.6421357,32.5083951]},"isApproved":true,"items":[],"keys":["Mexican","Spanish","Tex-Mex"],"lastUpdated":1547527612388,"name":"El Mejicano","phone":"(903) 939-2818","price":"$","reviewCount":21,"reviewScore":3.5,"meta":{"revision":0,"created":1547531148772,"version":0},"$loki":53},{"_id":"5c3d65bd3525a329e0c097c8","address":"1125 S Oak St","location":{"type":"Point","coordinates":[-95.64255,32.5093915]},"isApproved":true,"items":[],"keys":["Seafood","American (Traditional)"],"lastUpdated":1547527612461,"name":"The Farmhouse Restaurant","phone":"(903) 963-7077","price":"$$","reviewCount":52,"reviewScore":4,"meta":{"revision":0,"created":1547531148772,"version":0},"$loki":54},{"_id":"5c3d65bd3525a329e0c00bb0","address":"4186 S Broadway Ave","location":{"type":"Point","coordinates":[-95.6428219377994,32.5111448811476]},"isApproved":true,"items":[],"keys":["Fast Food"],"lastUpdated":1547527612230,"name":"Raising Cane’s Chicken Fingers","phone":"(903) 581-3923","price":"$","reviewCount":27,"reviewScore":3,"meta":{"revision":0,"created":1547531148772,"version":0},"$loki":55},{"_id":"5c3d65bd3525a329e0c10866","address":"150 E 9th St","location":{"type":"Point","coordinates":[-95.3949364307102,32.4811463743769]},"isApproved":true,"items":[],"keys":["American (New)","Breakfast & Brunch","Cafes"],"lastUpdated":1547527612620,"name":"First Watch","phone":"(903) 592-3447","price":"","reviewCount":14,"reviewScore":3,"meta":{"revision":0,"created":1547531148772,"version":0},"$loki":56},{"_id":"5c3d65bd3525a329e0c0ffa2","address":"2610 S Main St","location":{"type":"Point","coordinates":[-95.394153,32.481025]},"isApproved":true,"items":[],"keys":["Mexican"],"lastUpdated":1547527612609,"name":"Cinco De Mayo","phone":"(903) 881-8600","price":"$","reviewCount":39,"reviewScore":4,"meta":{"revision":0,"created":1547531148772,"version":0},"$loki":57},{"_id":"5c3d65bd3525a329e0c0a7b8","address":"118 W N Commerce St","location":{"type":"Point","coordinates":[-95.3953953172661,32.4814681116045]},"isApproved":true,"items":[],"keys":["Mexican"],"lastUpdated":1547527612481,"name":"Pudgy’s Mexican Food","phone":"(903) 873-8307","price":"$","reviewCount":17,"reviewScore":4,"meta":{"revision":0,"created":1547531148772,"version":0},"$loki":58},{"_id":"5c3d65bd3525a329e0c0fe3a","address":"534 E Garland St","location":{"type":"Point","coordinates":[-95.3974523,32.4871264]},"isApproved":true,"items":[],"keys":["Sandwiches","Fast Food"],"lastUpdated":1547527612609,"name":"Subway","phone":"(903) 962-6265","price":"","reviewCount":2,"reviewScore":2.5,"meta":{"revision":0,"created":1547531148772,"version":0},"$loki":59},{"_id":"5c3d65bd3525a329e0c1b0b6","address":"3500 McCann Rd","location":{"type":"Point","coordinates":[-95.408321775576,32.5105671381029]},"isApproved":true,"items":[],"keys":["Pretzels","Ice Cream & Frozen Yogurt","Fast Food"],"lastUpdated":1547527612877,"name":"Auntie Anne’s and Carvel Ice Cream","phone":"(903) 753-7786","price":"","reviewCount":3,"reviewScore":4.5,"meta":{"revision":0,"created":1547531148772,"version":0},"$loki":60},{"_id":"5c3d65bd3525a329e0bff951","address":"801 Sse Loop 323","location":{"type":"Point","coordinates":[-95.4120481910156,32.5083444963281]},"isApproved":true,"items":[],"keys":["Mexican"],"lastUpdated":1547527612219,"name":"Mi Mexico Lindo","phone":"(903) 787-8811","price":"$","reviewCount":16,"reviewScore":4,"meta":{"revision":0,"created":1547531148772,"version":0},"$loki":61},{"_id":"5c3d65bd3525a329e0c028e1","address":"618 N Fm 17","location":{"type":"Point","coordinates":[-95.4561522,32.4723556]},"isApproved":true,"items":[],"keys":["Tex-Mex"],"lastUpdated":1547527612285,"name":"Log Cabin Inn","phone":"(903) 765-2211","price":"","reviewCount":1,"reviewScore":5,"meta":{"revision":0,"created":1547531148772,"version":0},"$loki":62},{"_id":"5c3d65bd3525a329e0c0347f","address":"5891 Fm 779","location":{"type":"Point","coordinates":[-95.5234298068316,32.4844932292604]},"isApproved":true,"items":[],"keys":["Mexican","American (Traditional)"],"lastUpdated":1547527612302,"name":"Gabby’s Grill","phone":"(903) 768-9459","price":"$","reviewCount":2,"reviewScore":4,"meta":{"revision":0,"created":1547531148772,"version":0},"$loki":63},{"_id":"5c3d65bd3525a329e0c18bf5","address":"806 W Broadway St","location":{"type":"Point","coordinates":[-95.5291098,32.5010981]},"isApproved":true,"items":[],"keys":["Mexican"],"lastUpdated":1547527612824,"name":"Taqueria El Unico","phone":"(903) 636-9705","price":"$","reviewCount":3,"reviewScore":4.5,"meta":{"revision":0,"created":1547531148772,"version":0},"$loki":64},{"_id":"5c3d65bd3525a329e0c123b4","address":"20131 Fm 16 W","location":{"type":"Point","coordinates":[-95.511447,32.510243]},"isApproved":true,"items":[],"keys":["Coffee & Tea","American (New)"],"lastUpdated":1547527612670,"name":"The Substation","phone":"(903) 509-5588","price":"","reviewCount":1,"reviewScore":5,"meta":{"revision":0,"created":1547531148772,"version":0},"$loki":65},{"_id":"5c3d65bd3525a329e0c0cb2f","address":"3222 S Main St","location":{"type":"Point","coordinates":[-95.411668,32.5235725]},"isApproved":true,"items":[],"keys":["Chinese"],"lastUpdated":1547527612533,"name":"Eastern Buffet","phone":"(903) 882-8858","price":"$","reviewCount":8,"reviewScore":3.5,"meta":{"revision":0,"created":1547531148772,"version":0},"$loki":66},{"_id":"5c3d65bd3525a329e0c0beb4","address":"309 N Main St","location":{"type":"Point","coordinates":[-95.40983,32.518308]},"isApproved":true,"items":[],"keys":["Steakhouses","Seafood","American (Traditional)"],"lastUpdated":1547527612515,"name":"Pettys Steak and Catfish","phone":"(903) 882-9510","price":"$$","reviewCount":63,"reviewScore":4,"meta":{"revision":0,"created":1547531148772,"version":0},"$loki":67},{"_id":"5c3d65bd3525a329e0c0b49c","address":"730 Sh 31 E","location":{"type":"Point","coordinates":[-95.408773,32.513013]},"isApproved":true,"items":[],"keys":["Fast Food","Sandwiches"],"lastUpdated":1547527612499,"name":"Subway","phone":"(903) 849-5200","price":"","reviewCount":1,"reviewScore":5,"meta":{"revision":0,"created":1547531148772,"version":0},"$loki":68},{"_id":"5c3d65bd3525a329e0c0ae6a","address":"114 E North St","location":{"type":"Point","coordinates":[-95.4094178,32.5179841]},"isApproved":true,"items":[],"keys":["Bars","American (Traditional)","Music Venues"],"lastUpdated":1547527612491,"name":"Texas Music City Grill & Smokehouse","phone":"(430) 235-2100","price":"$$","reviewCount":73,"reviewScore":3,"meta":{"revision":0,"created":1547531148772,"version":0},"$loki":69},{"_id":"5c3d65bd3525a329e0c01181","address":"502 N Wood St","location":{"type":"Point","coordinates":[-95.392401,32.4791219]},"isApproved":true,"items":[],"keys":["Restaurants"],"lastUpdated":1547527612239,"name":"Buffet Village","phone":"(903) 843-9696","price":"$","reviewCount":6,"reviewScore":3.5,"meta":{"revision":0,"created":1547531148772,"version":0},"$loki":70},{"_id":"5c3d65bd3525a329e0c09ad3","address":"2808 S Main St","location":{"type":"Point","coordinates":[-95.392401,32.4791219]},"isApproved":true,"items":[],"keys":["Asian Fusion"],"lastUpdated":1547527612464,"name":"Leo’s Asian Bistro","phone":"(903) 882-5367","price":"$$","reviewCount":94,"reviewScore":4.5,"meta":{"revision":0,"created":1547531148772,"version":0},"$loki":71},{"_id":"5c3d65bd3525a329e0c13a32","address":"12881 Farm To Market Road 14 A","location":{"type":"Point","coordinates":[-95.387717,32.469101]},"isApproved":true,"items":[],"keys":["Gas Stations","Fast Food","Convenience Stores"],"lastUpdated":1547527612698,"name":"Pilot Travel Center","phone":"(903) 593-5466","price":"","reviewCount":9,"reviewScore":2,"meta":{"revision":0,"created":1547531148772,"version":0},"$loki":72},{"_id":"5c3d65bd3525a329e0c0ab7c","address":"3214 S Main St","location":{"type":"Point","coordinates":[-95.3902859278424,32.4743665821805]},"isApproved":true,"items":[],"keys":["Burgers","Fast Food","Ice Cream & Frozen Yogurt"],"lastUpdated":1547527612489,"name":"Sonic Drive-In","phone":"(903) 881-1923","price":"$$","reviewCount":3,"reviewScore":3,"meta":{"revision":0,"created":1547531148772,"version":0},"$loki":73},{"_id":"5c3d65bd3525a329e0c0f4e3","address":"1725 W Southwest Loop 323","location":{"type":"Point","coordinates":[-95.390403,32.474821]},"isApproved":true,"items":[],"keys":["American (Traditional)","Seafood","Steakhouses"],"lastUpdated":1547527612592,"name":"Aspen Creek Grill","phone":"(903) 630-8370","price":"$$","reviewCount":103,"reviewScore":4,"meta":{"revision":0,"created":1547531148772,"version":0},"$loki":74},{"_id":"5c3d65bd3525a329e0c058b5","address":"290 East Dallas St","location":{"type":"Point","coordinates":[-95.3937569,32.478204]},"isApproved":true,"items":[],"keys":["Greek"],"lastUpdated":1547527612354,"name":"Alex’s Greek Cafe","phone":"(903) 567-0990","price":"$$","reviewCount":16,"reviewScore":4.5,"meta":{"revision":0,"created":1547531148772,"version":0},"$loki":75},{"_id":"5c3d65bd3525a329e0c0ce1e","address":"20101 State Hwy 31 E","location":{"type":"Point","coordinates":[-95.39236,32.4750314]},"isApproved":true,"items":[],"keys":["Barbeque"],"lastUpdated":1547527612534,"name":"Hickory Hill Barbeque","phone":"(903) 566-7923","price":"$","reviewCount":48,"reviewScore":5,"meta":{"revision":0,"created":1547531148772,"version":0},"$loki":76},{"_id":"5c3d65bd3525a329e0c14fd9","address":"1714 S Beckham Ave","location":{"type":"Point","coordinates":[-95.3892517,32.472607]},"isApproved":true,"items":[],"keys":["Seafood","Cajun/Creole","Salad"],"lastUpdated":1547527612736,"name":"The Catch","phone":"(903) 596-8226","price":"$$","reviewCount":93,"reviewScore":4,"meta":{"revision":0,"created":1547531148772,"version":0},"$loki":77},{"_id":"5c3d65bd3525a329e0c1830f","address":"3278 Mineola Hwy","location":{"type":"Point","coordinates":[-95.3888382017612,32.4716176215489]},"isApproved":true,"items":[],"keys":["Seafood"],"lastUpdated":1547527612813,"name":"Jumbo Seafood","phone":"(903) 526-9595","price":"$$","reviewCount":33,"reviewScore":4,"meta":{"revision":0,"created":1547531148772,"version":0},"$loki":78},{"_id":"5c3d65bd3525a329e0c05e8f","address":"4030 Frankston Hwy","location":{"type":"Point","coordinates":[-95.3889245,32.4692701]},"isApproved":true,"items":[],"keys":["Barbeque","Sandwiches","Desserts"],"lastUpdated":1547527612362,"name":"Bodacious BBQ","phone":"(903) 525-9844","price":"$","reviewCount":20,"reviewScore":3,"meta":{"revision":0,"created":1547531148772,"version":0},"$loki":79},{"_id":"5c3d65bd3525a329e0c0d23d","address":"127 Wsw Loop 323","location":{"type":"Point","coordinates":[-95.387534,32.4665951]},"isApproved":true,"items":[],"keys":["Poke","Sushi Bars"],"lastUpdated":1547527612545,"name":"Go Fish modern japanese kitchen","phone":"(903) 747-8662","price":"$$","reviewCount":110,"reviewScore":4.5,"meta":{"revision":0,"created":1547531148772,"version":0},"$loki":80},{"_id":"5c3d65bd3525a329e0c0adb8","address":"110 W Front","location":{"type":"Point","coordinates":[-95.205852,32.5875636]},"isApproved":true,"items":[],"keys":["American (Traditional)","Mexican"],"lastUpdated":1547527612490,"name":"Richies Grill And Cafe","phone":"(903) 769-4806","price":"$$","reviewCount":28,"reviewScore":3,"meta":{"revision":0,"created":1547531148772,"version":0},"$loki":81},{"_id":"5c3d65bd3525a329e0c073a0","address":"1470 N Beaulah St","location":{"type":"Point","coordinates":[-95.2066000551082,32.6067620278667]},"isApproved":true,"items":[],"keys":["American (Traditional)","Music Venues","Burgers"],"lastUpdated":1547527612399,"name":"Red Rooster IceHouse","phone":"(903) 769-0707","price":"$$","reviewCount":34,"reviewScore":4,"meta":{"revision":0,"created":1547531148772,"version":0},"$loki":82},{"_id":"5c3d65bd3525a329e0c076a0","address":"542 Hwy 64 E","location":{"type":"Point","coordinates":[-95.2054036,32.5905776]},"isApproved":true,"items":[],"keys":["Venues & Event Spaces","Breakfast & Brunch","Hot Dogs"],"lastUpdated":1547527612402,"name":"Boot Hill","phone":"(214) 463-8463","price":"$","reviewCount":1,"reviewScore":5,"meta":{"revision":0,"created":1547531148772,"version":0},"$loki":83},{"_id":"5c3d65bd3525a329e0c15f3f","address":"1041 Fm 1002 N","location":{"type":"Point","coordinates":[-95.1410585169039,32.7581895208642]},"isApproved":true,"items":[],"keys":["Chicken Wings"],"lastUpdated":1547527612756,"name":"Eagle Crossing Cafe","phone":"(903) 725-0004","price":"$","reviewCount":1,"reviewScore":5,"meta":{"revision":0,"created":1547531148772,"version":0},"$loki":84},{"_id":"5c3d65bd3525a329e0c09b6f","address":"175 W Main St","location":{"type":"Point","coordinates":[-95.146764,32.759129]},"isApproved":true,"items":[],"keys":["Mexican"],"lastUpdated":1547527612464,"name":"Teles Mexican Restaurant","phone":"(903) 963-7600","price":"","reviewCount":8,"reviewScore":3.5,"meta":{"revision":0,"created":1547531148772,"version":0},"$loki":85},{"_id":"5c3d65bd3525a329e0c09659","address":"200 Warren St","location":{"type":"Point","coordinates":[-95.2076298370957,32.7047823183962]},"isApproved":true,"items":[],"keys":["Mexican"],"lastUpdated":1547527612454,"name":"La Finca","phone":"(903) 843-5355","price":"$$","reviewCount":29,"reviewScore":3.5,"meta":{"revision":0,"created":1547531148772,"version":0},"$loki":86},{"_id":"5c3d65bd3525a329e0c13a8e","address":"2904 Interstate 20","location":{"type":"Point","coordinates":[-95.221441,32.6499485]},"isApproved":true,"items":[],"keys":["Barbeque"],"lastUpdated":1547527612698,"name":"Soulman’s Bar-B-Que","phone":"(903) 963-7777","price":"$$","reviewCount":71,"reviewScore":4,"meta":{"revision":0,"created":1547531148772,"version":0},"$loki":87},{"_id":"5c3d65bd3525a329e0c02c89","address":"3842 S Fm 2869","location":{"type":"Point","coordinates":[-95.224156,32.653056]},"isApproved":true,"items":[],"keys":["Barbeque"],"lastUpdated":1547527612293,"name":"Dubya’s Smokehouse","phone":"(903) 769-0900","price":"$$","reviewCount":24,"reviewScore":4.5,"meta":{"revision":0,"created":1547531148772,"version":0},"$loki":88},{"_id":"5c3d65bd3525a329e0c19d19","address":"3312 N Fourth St","location":{"type":"Point","coordinates":[-95.2247985,32.6544666]},"isApproved":true,"items":[],"keys":["Seafood","Cajun/Creole","American (Traditional)"],"lastUpdated":1547527612850,"name":"The Catch","phone":"(903) 663-2940","price":"$$","reviewCount":96,"reviewScore":4.5,"meta":{"revision":0,"created":1547531148772,"version":0},"$loki":89},{"_id":"5c3d65bd3525a329e0c10259","address":"2448 Cr 3440","location":{"type":"Point","coordinates":[-95.257845,32.618636]},"isApproved":true,"items":[],"keys":["Italian"],"lastUpdated":1547527612617,"name":"Taste of Italy by the Lake","phone":"(903) 769-0600","price":"$$","reviewCount":40,"reviewScore":4,"meta":{"revision":0,"created":1547531148772,"version":0},"$loki":90}],"idIndex":[1,2,3,4,5,6,7,8,9,10,11,12,13,14,15,16,17,18,19,20,21,22,23,24,25,26,27,28,29,30,31,32,33,34,35,36,37,38,39,40,41,42,43,44,45,46,47,48,49,50,51,52,53,54,55,56,57,58,59,60,61,62,63,64,65,66,67,68,69,70,71,72,73,74,75,76,77,78,79,80,81,82,83,84,85,86,87,88,89,90],"binaryIndices":{},"constraints":null,"uniqueNames":[],"transforms":{},"objType":"restaurants","dirty":true,"cachedIndex":null,"cachedBinaryIndex":null,"cachedData":null,"adaptiveBinaryIndices":true,"transactional":false,"cloneObjects":false,"cloneMethod":"parse-stringify","asyncListeners":false,"disableMeta":false,"disableChangesApi":true,"disableDeltaChangesApi":true,"autoupdate":false,"serializableIndices":true,"ttl":null,"maxId":90,"DynamicViews":[],"events":{"insert":[],"update":[],"pre-insert":[],"pre-update":[],"close":[],"flushbuffer":[],"error":[],"delete":[null],"warning":[null]},"changes":[]}],"databaseVersion":1.5,"engineVersion":1.5,"autosave":false,"autosaveInterval":5000,"autosaveHandle":null,"throttledSaves":true,"options":{"serializationMethod":"normal","destructureDelimiter":"$<\n"},"persistenceMethod":"fs","persistenceAdapter":null,"verbose":false,"events":{"init":[null],"loaded":[],"flushChanges":[],"close":[],"changes":[],"warning":[]},"ENV":"NODEJS"}