{"filename":"-95.5-34","collections":[{"name":"restaurants","data":[{"_id":"5c3d65bd3525a329e0c0f5c3","address":"407 W Main St","location":{"type":"Point","coordinates":[-95.627156,34.23007]},"isApproved":true,"items":[],"keys":["Burgers"],"lastUpdated":1547527612598,"name":"Burger Barn","phone":"(580) 298-5600","price":"$","reviewCount":27,"reviewScore":4.5,"meta":{"revision":0,"created":1547531147559,"version":0},"$loki":1},{"_id":"5c3d65bd3525a329e0c11ec0","address":"402 W Main St","location":{"type":"Point","coordinates":[-95.6268613,34.2308788]},"isApproved":true,"items":[],"keys":["Diners"],"lastUpdated":1547527612662,"name":"Mjay’s Diner","phone":"(580) 271-2476","price":"","reviewCount":3,"reviewScore":3.5,"meta":{"revision":0,"created":1547531147559,"version":0},"$loki":2},{"_id":"5c3d65bd3525a329e0c1873a","address":"800 W Main St","location":{"type":"Point","coordinates":[-95.633327,34.23117]},"isApproved":true,"items":[],"keys":["Barbeque"],"lastUpdated":1547527612821,"name":"Ables Western Bar-B-Que","phone":"(580) 298-2573","price":"$$","reviewCount":17,"reviewScore":3.5,"meta":{"revision":0,"created":1547531147559,"version":0},"$loki":3},{"_id":"5c3d65bd3525a329e0c07b7c","address":"226 N High St","location":{"type":"Point","coordinates":[-95.6204761,34.2332273]},"isApproved":true,"items":[],"keys":["Pizza"],"lastUpdated":1547527612410,"name":"High Street Pizza","phone":"(580) 298-5511","price":"$$","reviewCount":4,"reviewScore":4.5,"meta":{"revision":0,"created":1547531147559,"version":0},"$loki":4},{"_id":"5c3d65bd3525a329e0c14b5b","address":"101 W Main St","location":{"type":"Point","coordinates":[-95.6206988,34.2311004]},"isApproved":true,"items":[],"keys":["Mexican"],"lastUpdated":1547527612729,"name":"Marcos Mexican Restaurant","phone":"(580) 271-7001","price":"","reviewCount":5,"reviewScore":4.5,"meta":{"revision":0,"created":1547531147559,"version":0},"$loki":5},{"_id":"5c3d65bd3525a329e0c05fb6","address":"206 SW B St","location":{"type":"Point","coordinates":[-95.6229289081576,34.2296262451727]},"isApproved":true,"items":[],"keys":["Coffee & Tea","Sandwiches","Juice Bars & Smoothies"],"lastUpdated":1547527612368,"name":"Tipp’s Sacred Grounds Coffee","phone":"(580) 298-9826","price":"","reviewCount":1,"reviewScore":5,"meta":{"revision":0,"created":1547531147559,"version":0},"$loki":6},{"_id":"5c3d65bd3525a329e0c1a34f","address":"601 SW C St","location":{"type":"Point","coordinates":[-95.6217491,34.226009]},"isApproved":true,"items":[],"keys":["Barbeque","Sandwiches","Wraps"],"lastUpdated":1547527612858,"name":"Cowboys BBQ","phone":"(580) 271-7070","price":"$","reviewCount":3,"reviewScore":4,"meta":{"revision":0,"created":1547531147559,"version":0},"$loki":7},{"_id":"5c3d65bd3525a329e0c113a1","address":"609 SW C St","location":{"type":"Point","coordinates":[-95.6219383055001,34.2252313999999]},"isApproved":true,"items":[],"keys":["Tex-Mex"],"lastUpdated":1547527612642,"name":"Don Pancho’s Mexican Restaurant","phone":"(580) 271-7075","price":"","reviewCount":3,"reviewScore":3.5,"meta":{"revision":0,"created":1547531147559,"version":0},"$loki":8},{"_id":"5c3d65bd3525a329e0c0378d","address":"816 E Main St","location":{"type":"Point","coordinates":[-95.6100482,34.2318761]},"isApproved":true,"items":[],"keys":["Coffee & Tea","Breakfast & Brunch","Sandwiches"],"lastUpdated":1547527612304,"name":"Bearcat Cafe","phone":"(580) 271-7060","price":"","reviewCount":1,"reviewScore":5,"meta":{"revision":0,"created":1547531147559,"version":0},"$loki":9},{"_id":"5c3d65bd3525a329e0c0b77e","address":"609 S Mississippi Ave","location":{"type":"Point","coordinates":[-95.6133115,34.2322781]},"isApproved":true,"items":[],"keys":["Sandwiches","Fast Food"],"lastUpdated":1547527612505,"name":"Subway","phone":"(580) 889-8994","price":"","reviewCount":2,"reviewScore":5,"meta":{"revision":0,"created":1547531147559,"version":0},"$loki":10},{"_id":"5c3d65bd3525a329e0c181bf","address":"1002 E Main St","location":{"type":"Point","coordinates":[-95.6072084,34.231495]},"isApproved":true,"items":[],"keys":["Restaurants"],"lastUpdated":1547527612809,"name":"Pruett’s Food","phone":"(580) 298-5577","price":"","reviewCount":1,"reviewScore":4,"meta":{"revision":0,"created":1547531147559,"version":0},"$loki":11},{"_id":"5c3d65bd3525a329e0c11de9","address":"10115 US-271 N","location":{"type":"Point","coordinates":[-95.5177907645702,33.8286116019541]},"isApproved":true,"items":[],"keys":["Mexican","Fast Food"],"lastUpdated":1547527612661,"name":"Garibaldi","phone":"(903) 732-3874","price":"","reviewCount":1,"reviewScore":5,"meta":{"revision":0,"created":1547531147559,"version":0},"$loki":12},{"_id":"5c3d65bd3525a329e0c09508","address":"9786 US Hwy 271 N","location":{"type":"Point","coordinates":[-95.5162495,33.8290825]},"isApproved":true,"items":[],"keys":["Cafes","American (New)"],"lastUpdated":1547527612453,"name":"Borderline Cafe","phone":"(903) 732-5757","price":"$$$","reviewCount":12,"reviewScore":3,"meta":{"revision":0,"created":1547531147559,"version":0},"$loki":13},{"_id":"5c3d65bd3525a329e0c06337","address":"3905 Lamar Ave","location":{"type":"Point","coordinates":[-95.517124,33.831823]},"isApproved":true,"items":[],"keys":["American (Traditional)","Sports Bars","Burgers"],"lastUpdated":1547527612369,"name":"Applebee’s Grill + Bar","phone":"(903) 784-1005","price":"$$","reviewCount":10,"reviewScore":3,"meta":{"revision":0,"created":1547531147559,"version":0},"$loki":14},{"_id":"5c3d65bd3525a329e0c1444b","address":"10081 US Highway 271 N","location":{"type":"Point","coordinates":[-95.5158122,33.8348899]},"isApproved":true,"items":[],"keys":["Restaurants"],"lastUpdated":1547527612714,"name":"Don’s Catfish Dock","phone":"(903) 732-5551","price":"","reviewCount":1,"reviewScore":3,"meta":{"revision":0,"created":1547531147559,"version":0},"$loki":15},{"_id":"5c3d65bd3525a329e0c109e4","address":"1001 S Collegiate Dr","location":{"type":"Point","coordinates":[-95.5448433,33.6850679]},"isApproved":true,"items":[],"keys":["Coffee & Tea","Breakfast & Brunch"],"lastUpdated":1547527612626,"name":"The Cozy Cappuccino","phone":"(903) 737-9119","price":"$","reviewCount":21,"reviewScore":5,"meta":{"revision":0,"created":1547531147559,"version":0},"$loki":16},{"_id":"5c3d65bd3525a329e0c01b8d","address":"2315 N Main St","location":{"type":"Point","coordinates":[-95.5552062,33.6834316]},"isApproved":true,"items":[],"keys":["Diners","American (Traditional)","Steakhouses"],"lastUpdated":1547527612258,"name":"Roadhouse Family Diner","phone":"(903) 785-9115","price":"$","reviewCount":38,"reviewScore":4,"meta":{"revision":0,"created":1547531147559,"version":0},"$loki":17},{"_id":"5c3d65bd3525a329e0c0ba48","address":"1580 Clarksville St","location":{"type":"Point","coordinates":[-95.555009,33.685634]},"isApproved":true,"items":[],"keys":["Mexican"],"lastUpdated":1547527612507,"name":"Taco Delite","phone":"(903) 785-7173","price":"$","reviewCount":7,"reviewScore":3,"meta":{"revision":0,"created":1547531147559,"version":0},"$loki":18},{"_id":"5c3d65bd3525a329e0c0bf8c","address":"3355 Lamar Ave","location":{"type":"Point","coordinates":[-95.5551037,33.6851998]},"isApproved":true,"items":[],"keys":["Sandwiches","Fast Food"],"lastUpdated":1547527612516,"name":"Arby’s","phone":"(903) 785-1767","price":"$","reviewCount":2,"reviewScore":2.5,"meta":{"revision":0,"created":1547531147559,"version":0},"$loki":19},{"_id":"5c3d65bd3525a329e0c112a4","address":"265 1st St SW","location":{"type":"Point","coordinates":[-95.5538938,33.6850582]},"isApproved":true,"items":[],"keys":["Barbeque"],"lastUpdated":1547527612642,"name":"Phat Phil’s BBQ","phone":"(903) 782-9545","price":"","reviewCount":6,"reviewScore":4.5,"meta":{"revision":0,"created":1547531147559,"version":0},"$loki":20},{"_id":"5c3d65bd3525a329e0c07bfb","address":"3110 NE Loop 286","location":{"type":"Point","coordinates":[-95.5539663919535,33.6854652093788]},"isApproved":true,"items":[],"keys":["Fast Food"],"lastUpdated":1547527612410,"name":"Jack In the Box","phone":"(903) 784-5119","price":"$","reviewCount":10,"reviewScore":2,"meta":{"revision":0,"created":1547531147559,"version":0},"$loki":21},{"_id":"5c3d65bd3525a329e0bff7b2","address":"2236 N Center St","location":{"type":"Point","coordinates":[-95.5527454,33.6885933]},"isApproved":true,"items":[],"keys":["Pizza","Chicken Wings","Sandwiches"],"lastUpdated":1547527612218,"name":"Domino’s Pizza","phone":"(903) 640-1530","price":"","reviewCount":3,"reviewScore":2.5,"meta":{"revision":0,"created":1547531147559,"version":0},"$loki":22}],"idIndex":[1,2,3,4,5,6,7,8,9,10,11,12,13,14,15,16,17,18,19,20,21,22],"binaryIndices":{},"constraints":null,"uniqueNames":[],"transforms":{},"objType":"restaurants","dirty":true,"cachedIndex":null,"cachedBinaryIndex":null,"cachedData":null,"adaptiveBinaryIndices":true,"transactional":false,"cloneObjects":false,"cloneMethod":"parse-stringify","asyncListeners":false,"disableMeta":false,"disableChangesApi":true,"disableDeltaChangesApi":true,"autoupdate":false,"serializableIndices":true,"ttl":null,"maxId":22,"DynamicViews":[],"events":{"insert":[],"update":[],"pre-insert":[],"pre-update":[],"close":[],"flushbuffer":[],"error":[],"delete":[null],"warning":[null]},"changes":[]}],"databaseVersion":1.5,"engineVersion":1.5,"autosave":false,"autosaveInterval":5000,"autosaveHandle":null,"throttledSaves":true,"options":{"serializationMethod":"normal","destructureDelimiter":"$<\n"},"persistenceMethod":"fs","persistenceAdapter":null,"verbose":false,"events":{"init":[null],"loaded":[],"flushChanges":[],"close":[],"changes":[],"warning":[]},"ENV":"NODEJS"}