{"filename":"-95.25-38","collections":[{"name":"restaurants","data":[{"_id":"5c3d65bd3525a329e0c0df5f","address":"812 Bridge St","location":{"type":"Point","coordinates":[-95.4361946135759,37.8113343087442]},"isApproved":true,"items":[],"keys":["American (New)","Mexican"],"lastUpdated":1547527612564,"name":"Floyd’s Place","phone":"(620) 473-6171","price":"","reviewCount":1,"reviewScore":5,"meta":{"revision":0,"created":1547531149677,"version":0},"$loki":1},{"_id":"5c3d65bd3525a329e0bffb13","address":"119 N 8th St","location":{"type":"Point","coordinates":[-95.43678971121,37.8120750423083]},"isApproved":true,"items":[],"keys":["Barbeque"],"lastUpdated":1547527612220,"name":"H & H Grill","phone":"(620) 473-3332","price":"","reviewCount":4,"reviewScore":4,"meta":{"revision":0,"created":1547531149677,"version":0},"$loki":2},{"_id":"5c3d65bd3525a329e0c0668f","address":"103 S 9th St","location":{"type":"Point","coordinates":[-95.4352083,37.8109875]},"isApproved":true,"items":[],"keys":["Cafes","Coffee & Tea","Gift Shops"],"lastUpdated":1547527612378,"name":"Humboldt Mercantile","phone":"(620) 473-7009","price":"","reviewCount":5,"reviewScore":5,"meta":{"revision":0,"created":1547531149677,"version":0},"$loki":3},{"_id":"5c3d65bd3525a329e0c1037c","address":"27 W Main St","location":{"type":"Point","coordinates":[-95.1431661,37.6897794]},"isApproved":true,"items":[],"keys":["Chinese"],"lastUpdated":1547527612617,"name":"New China Restaurant","phone":"(620) 431-6565","price":"$","reviewCount":7,"reviewScore":3,"meta":{"revision":0,"created":1547531149677,"version":0},"$loki":4},{"_id":"5c3d65bd3525a329e0c1512a","address":"2711 N Broadway St","location":{"type":"Point","coordinates":[-95.1431661,37.6897794]},"isApproved":true,"items":[],"keys":["Sushi Bars","Chinese","Japanese"],"lastUpdated":1547527612737,"name":"Oriental Star","phone":"(620) 330-9928","price":"","reviewCount":12,"reviewScore":3.5,"meta":{"revision":0,"created":1547531149677,"version":0},"$loki":5},{"_id":"5c3d65bd3525a329e0c02dfa","address":"312 W Madison","location":{"type":"Point","coordinates":[-95.0725076,37.8967354]},"isApproved":true,"items":[],"keys":["Fast Food","Burgers","Coffee & Tea"],"lastUpdated":1547527612294,"name":"McDonald’s","phone":"(620) 365-7571","price":"","reviewCount":5,"reviewScore":2,"meta":{"revision":0,"created":1547531149677,"version":0},"$loki":6},{"_id":"5c3d65bd3525a329e0c16abd","address":"501 W Mary St","location":{"type":"Point","coordinates":[-95.169623,37.920916]},"isApproved":true,"items":[],"keys":["Gas Stations","Convenience Stores","Pizza"],"lastUpdated":1547527612773,"name":"Casey’s No 1697","phone":"(620) 625-3664","price":"","reviewCount":1,"reviewScore":5,"meta":{"revision":0,"created":1547531149677,"version":0},"$loki":7},{"_id":"5c3d65bd3525a329e0bffde6","address":"1421 East St","location":{"type":"Point","coordinates":[-95.3876976,37.9218617]},"isApproved":true,"items":[],"keys":["Burgers","Fast Food"],"lastUpdated":1547527612222,"name":"A&W Restaurant","phone":"(620) 365-3011","price":"$","reviewCount":6,"reviewScore":4,"meta":{"revision":0,"created":1547531149677,"version":0},"$loki":8},{"_id":"5c3d65bd3525a329e0c0401a","address":"1401 East St","location":{"type":"Point","coordinates":[-95.3882906,37.9218965]},"isApproved":true,"items":[],"keys":["Mexican"],"lastUpdated":1547527612320,"name":"Coronado Mexican Restaurant","phone":"(620) 365-8352","price":"$","reviewCount":6,"reviewScore":3,"meta":{"revision":0,"created":1547531149677,"version":0},"$loki":9},{"_id":"5c3d65bd3525a329e0c136b0","address":"110 N Taylor St","location":{"type":"Point","coordinates":[-95.3445620679806,37.9222474927921]},"isApproved":true,"items":[],"keys":["American (Traditional)"],"lastUpdated":1547527612696,"name":"Tina’s Place","phone":"(620) 380-6663","price":"","reviewCount":3,"reviewScore":3.5,"meta":{"revision":0,"created":1547531149677,"version":0},"$loki":10},{"_id":"5c3d65bd3525a329e0c09e67","address":"2402 N State St","location":{"type":"Point","coordinates":[-95.4091711691936,37.9438152291904]},"isApproved":true,"items":[],"keys":["Barbeque","American (New)"],"lastUpdated":1547527612471,"name":"Dudley’s Done Right BBQ","phone":"(620) 380-6580","price":"$$","reviewCount":27,"reviewScore":4.5,"meta":{"revision":0,"created":1547531149677,"version":0},"$loki":11},{"_id":"5c3d65bd3525a329e0c12778","address":"1625 S Santa Fe St","location":{"type":"Point","coordinates":[-95.4097042,37.9374507]},"isApproved":true,"items":[],"keys":["Pizza","Italian","Chicken Wings"],"lastUpdated":1547527612672,"name":"Pizza Hut","phone":"(620) 431-3630","price":"","reviewCount":5,"reviewScore":2,"meta":{"revision":0,"created":1547531149677,"version":0},"$loki":12},{"_id":"5c3d65bd3525a329e0c17280","address":"916 E River St","location":{"type":"Point","coordinates":[-95.4101302,37.9298967]},"isApproved":true,"items":[],"keys":["Burgers"],"lastUpdated":1547527612783,"name":"Lo-Mar Drive In","phone":"","price":"$","reviewCount":4,"reviewScore":5,"meta":{"revision":0,"created":1547531149677,"version":0},"$loki":13},{"_id":"5c3d65bd3525a329e0c0dbe0","address":"324 W Garfield St","location":{"type":"Point","coordinates":[-95.4085792601109,37.9334992773614]},"isApproved":true,"items":[],"keys":["Breakfast & Brunch","Cafes"],"lastUpdated":1547527612556,"name":"B&B County Cafe","phone":"(620) 365-8691","price":"","reviewCount":3,"reviewScore":2.5,"meta":{"revision":0,"created":1547531149677,"version":0},"$loki":14},{"_id":"5c3d65bd3525a329e0c08f03","address":"1717 S Santa Fe","location":{"type":"Point","coordinates":[-95.408951,37.937764]},"isApproved":true,"items":[],"keys":["Fast Food","Burgers","Ice Cream & Frozen Yogurt"],"lastUpdated":1547527612438,"name":"Sonic Drive-In","phone":"(620) 431-4410","price":"$","reviewCount":5,"reviewScore":3,"meta":{"revision":0,"created":1547531149677,"version":0},"$loki":15},{"_id":"5c3d65bd3525a329e0c032ed","address":"101 W 14th St","location":{"type":"Point","coordinates":[-95.3957143,37.9219475]},"isApproved":true,"items":[],"keys":["Fast Food","Burgers","Coffee & Tea"],"lastUpdated":1547527612302,"name":"McDonald’s","phone":"(620) 431-2938","price":"$","reviewCount":6,"reviewScore":2.5,"meta":{"revision":0,"created":1547531149677,"version":0},"$loki":16},{"_id":"5c3d65bd3525a329e0c0ffc6","address":"321 S State St","location":{"type":"Point","coordinates":[-95.4088655,37.9192196]},"isApproved":true,"items":[],"keys":["Sandwiches","Burgers"],"lastUpdated":1547527612609,"name":"King’s Sandwich Shop","phone":"(620) 365-6271","price":"$","reviewCount":16,"reviewScore":4.5,"meta":{"revision":0,"created":1547531149677,"version":0},"$loki":17},{"_id":"5c3d65bd3525a329e0c158b9","address":"201 S State St","location":{"type":"Point","coordinates":[-95.4087223,37.9210637]},"isApproved":true,"items":[],"keys":["Meat Shops","Delis"],"lastUpdated":1547527612747,"name":"Bolling’s Meat Market and Deli","phone":"(620) 380-6328","price":"","reviewCount":7,"reviewScore":4.5,"meta":{"revision":0,"created":1547531149677,"version":0},"$loki":18},{"_id":"5c3d65bd3525a329e0c09848","address":"712 E Madison Ave","location":{"type":"Point","coordinates":[-95.4086138215462,37.9217028555352]},"isApproved":true,"items":[],"keys":["Pizza"],"lastUpdated":1547527612461,"name":"Casey’s Carry Out Pizza","phone":"(620) 365-7680","price":"","reviewCount":1,"reviewScore":1,"meta":{"revision":0,"created":1547531149677,"version":0},"$loki":19},{"_id":"5c3d65bd3525a329e0c16907","address":"102 S Washington Ave","location":{"type":"Point","coordinates":[-95.4057492406683,37.9211951]},"isApproved":true,"items":[],"keys":["Coffee & Tea","Breakfast & Brunch","Bakeries"],"lastUpdated":1547527612772,"name":"Around The Corner","phone":"(620) 380-6595","price":"$$","reviewCount":6,"reviewScore":5,"meta":{"revision":0,"created":1547531149677,"version":0},"$loki":20},{"_id":"5c3d65bd3525a329e0c1540f","address":"17 W Madison Ave","location":{"type":"Point","coordinates":[-95.4053093,37.9212035]},"isApproved":true,"items":[],"keys":["Mexican"],"lastUpdated":1547527612739,"name":"El Charro of Iola","phone":"(620) 365-7771","price":"$","reviewCount":16,"reviewScore":3.5,"meta":{"revision":0,"created":1547531149677,"version":0},"$loki":21},{"_id":"5c3d65bd3525a329e0c17933","address":"110 N State St","location":{"type":"Point","coordinates":[-95.409412,37.923571]},"isApproved":true,"items":[],"keys":["Chinese"],"lastUpdated":1547527612792,"name":"China Palace","phone":"(620) 365-3723","price":"$","reviewCount":10,"reviewScore":4,"meta":{"revision":0,"created":1547531149677,"version":0},"$loki":22},{"_id":"5c3d65bd3525a329e0c06e89","address":"112 2nd St","location":{"type":"Point","coordinates":[-95.535987,37.922114]},"isApproved":true,"items":[],"keys":["Steakhouses","American (New)"],"lastUpdated":1547527612387,"name":"Silverado’s","phone":"(620) 468-2132","price":"","reviewCount":2,"reviewScore":4.5,"meta":{"revision":0,"created":1547531149677,"version":0},"$loki":23}],"idIndex":[1,2,3,4,5,6,7,8,9,10,11,12,13,14,15,16,17,18,19,20,21,22,23],"binaryIndices":{},"constraints":null,"uniqueNames":[],"transforms":{},"objType":"restaurants","dirty":true,"cachedIndex":null,"cachedBinaryIndex":null,"cachedData":null,"adaptiveBinaryIndices":true,"transactional":false,"cloneObjects":false,"cloneMethod":"parse-stringify","asyncListeners":false,"disableMeta":false,"disableChangesApi":true,"disableDeltaChangesApi":true,"autoupdate":false,"serializableIndices":true,"ttl":null,"maxId":23,"DynamicViews":[],"events":{"insert":[],"update":[],"pre-insert":[],"pre-update":[],"close":[],"flushbuffer":[],"error":[],"delete":[null],"warning":[null]},"changes":[]}],"databaseVersion":1.5,"engineVersion":1.5,"autosave":false,"autosaveInterval":5000,"autosaveHandle":null,"throttledSaves":true,"options":{"serializationMethod":"normal","destructureDelimiter":"$<\n"},"persistenceMethod":"fs","persistenceAdapter":null,"verbose":false,"events":{"init":[null],"loaded":[],"flushChanges":[],"close":[],"changes":[],"warning":[]},"ENV":"NODEJS"}