{"filename":"-95.5-29.75","collections":[{"name":"restaurants","data":[{"_id":"5c3d65bd3525a329e0c00b73","address":"","location":{"type":"Point","coordinates":[-95.2534201741,29.9356299454]},"isApproved":true,"items":[],"keys":["Food Trucks","Cajun/Creole"],"lastUpdated":1547527612230,"name":"Harbor’s Cajun Station","phone":"(281) 698-0081","price":"$","reviewCount":8,"reviewScore":3.5,"meta":{"revision":0,"created":1547531156545,"version":0},"$loki":1},{"_id":"5c3d65bd3525a329e0c1557f","address":"2325 W Holcombe Blvd","location":{"type":"Point","coordinates":[-95.2534201741,29.9356299454]},"isApproved":true,"items":[],"keys":["Food Trucks","Halal","Mediterranean"],"lastUpdated":1547527612745,"name":"Sizzling Gyro","phone":"(713) 561-1714","price":"","reviewCount":33,"reviewScore":4.5,"meta":{"revision":0,"created":1547531156545,"version":0},"$loki":2},{"_id":"5c3d65bd3525a329e0c1871f","address":"23918 Hwy 59 N","location":{"type":"Point","coordinates":[-95.2600779,29.9950759]},"isApproved":true,"items":[],"keys":["American (New)","Breakfast & Brunch"],"lastUpdated":1547527612821,"name":"The Union Kitchen","phone":"(832) 644-9067","price":"$$","reviewCount":365,"reviewScore":4,"meta":{"revision":0,"created":1547531156545,"version":0},"$loki":3},{"_id":"5c3d65bd3525a329e0c19199","address":"930 FM 1960 Rd","location":{"type":"Point","coordinates":[-95.2645667,29.9976887]},"isApproved":true,"items":[],"keys":["Donuts","Breakfast & Brunch"],"lastUpdated":1547527612833,"name":"Donut Delight","phone":"(281) 982-3839","price":"","reviewCount":2,"reviewScore":5,"meta":{"revision":0,"created":1547531156545,"version":0},"$loki":4},{"_id":"5c3d65bd3525a329e0c01a1c","address":"3779 Riley Fuzzel Rd","location":{"type":"Point","coordinates":[-95.2681099623442,29.9986952746141]},"isApproved":true,"items":[],"keys":["Chinese"],"lastUpdated":1547527612257,"name":"T Jin China Diner","phone":"(281) 528-8883","price":"$$","reviewCount":40,"reviewScore":4.5,"meta":{"revision":0,"created":1547531156545,"version":0},"$loki":5},{"_id":"5c3d65bd3525a329e0bff8f2","address":"1418 N Loop 336 W","location":{"type":"Point","coordinates":[-95.3094112,30.0039093]},"isApproved":true,"items":[],"keys":["Mexican"],"lastUpdated":1547527612219,"name":"Anitas Mexican Restaurant","phone":"","price":"","reviewCount":11,"reviewScore":4,"meta":{"revision":0,"created":1547531156545,"version":0},"$loki":6},{"_id":"5c3d65bd3525a329e0c156e6","address":"1660 W Lake Houston Pkwy","location":{"type":"Point","coordinates":[-95.3094112,30.0039093]},"isApproved":true,"items":[],"keys":["Pizza","Italian"],"lastUpdated":1547527612746,"name":"Zammitti’s","phone":"(281) 361-7499","price":"$$","reviewCount":79,"reviewScore":3.5,"meta":{"revision":0,"created":1547531156545,"version":0},"$loki":7},{"_id":"5c3d65bd3525a329e0c1595c","address":"2162 Spring Stuebner Rd","location":{"type":"Point","coordinates":[-95.3099922473617,30.0040774176961]},"isApproved":true,"items":[],"keys":["Mediterranean","Greek","Sandwiches"],"lastUpdated":1547527612747,"name":"Zoës Kitchen","phone":"(832) 403-3579","price":"$$","reviewCount":20,"reviewScore":4.5,"meta":{"revision":0,"created":1547531156545,"version":0},"$loki":8},{"_id":"5c3d65bd3525a329e0c0ff63","address":"7501 Fm 1960 Rd W","location":{"type":"Point","coordinates":[-95.2987253665924,30.004231151809]},"isApproved":true,"items":[],"keys":["Restaurants"],"lastUpdated":1547527612609,"name":"Popeyes Fried Chicken","phone":"(281) 812-4547","price":"","reviewCount":2,"reviewScore":3.5,"meta":{"revision":0,"created":1547531156545,"version":0},"$loki":9},{"_id":"5c3d65bd3525a329e0c0d975","address":"25602 I-45","location":{"type":"Point","coordinates":[-95.2955697,30.0046654]},"isApproved":true,"items":[],"keys":["Mexican"],"lastUpdated":1547527612555,"name":"Express Regio","phone":"(281) 651-4468","price":"","reviewCount":2,"reviewScore":5,"meta":{"revision":0,"created":1547531156545,"version":0},"$loki":10},{"_id":"5c3d65bd3525a329e0c09adc","address":"27765 Fm 2090","location":{"type":"Point","coordinates":[-95.2919767,30.0042693]},"isApproved":true,"items":[],"keys":["Latin American"],"lastUpdated":1547527612464,"name":"Grandma’s Taco Shack","phone":"(832) 629-9709","price":"","reviewCount":3,"reviewScore":4.5,"meta":{"revision":0,"created":1547531156545,"version":0},"$loki":11},{"_id":"5c3d65bd3525a329e0c1276d","address":"3702 Fm 1960 Rd","location":{"type":"Point","coordinates":[-95.2881067492823,30.0056833752449]},"isApproved":true,"items":[],"keys":["Cajun/Creole","Asian Fusion","Seafood"],"lastUpdated":1547527612672,"name":"Cajun Fuze","phone":"(281) 919-2184","price":"$$","reviewCount":255,"reviewScore":3.5,"meta":{"revision":0,"created":1547531156545,"version":0},"$loki":12},{"_id":"5c3d65bd3525a329e0c0e916","address":"4509 Kingwood Dr","location":{"type":"Point","coordinates":[-95.284208,30.006057]},"isApproved":true,"items":[],"keys":["Fast Food"],"lastUpdated":1547527612575,"name":"Raising Cane’s Chicken Fingers","phone":"(281) 359-1818","price":"$","reviewCount":29,"reviewScore":3.5,"meta":{"revision":0,"created":1547531156545,"version":0},"$loki":13},{"_id":"5c3d65bd3525a329e0c077a2","address":"5354 Fm 1960 Rd E","location":{"type":"Point","coordinates":[-95.2842314,30.005969]},"isApproved":true,"items":[],"keys":["Korean"],"lastUpdated":1547527612402,"name":"Taste of Korea","phone":"(281) 570-4094","price":"$$","reviewCount":199,"reviewScore":4.5,"meta":{"revision":0,"created":1547531156545,"version":0},"$loki":14},{"_id":"5c3d65bd3525a329e0c03d6e","address":"16000 Stuebner Airline Rd","location":{"type":"Point","coordinates":[-95.2842652132141,30.0058790298424]},"isApproved":true,"items":[],"keys":["Seafood","Cajun/Creole","Sports Bars"],"lastUpdated":1547527612313,"name":"Crazy Cajun Seafood and Sports","phone":"(832) 534-1263","price":"","reviewCount":22,"reviewScore":3.5,"meta":{"revision":0,"created":1547531156545,"version":0},"$loki":15},{"_id":"5c3d65bd3525a329e0c14547","address":"163 Cypresswood Dr","location":{"type":"Point","coordinates":[-95.281540453434,30.0041893420824]},"isApproved":true,"items":[],"keys":["Pizza"],"lastUpdated":1547527612715,"name":"Brother’s Pizza Express","phone":"(281) 288-1300","price":"$","reviewCount":121,"reviewScore":3.5,"meta":{"revision":0,"created":1547531156545,"version":0},"$loki":16},{"_id":"5c3d65bd3525a329e0c05583","address":"407 Sawdust Rd","location":{"type":"Point","coordinates":[-95.2817774,30.0041946]},"isApproved":true,"items":[],"keys":["Indian"],"lastUpdated":1547527612347,"name":"Hyderabad House","phone":"(281) 203-5020","price":"$$","reviewCount":150,"reviewScore":3.5,"meta":{"revision":0,"created":1547531156545,"version":0},"$loki":17},{"_id":"5c3d65bd3525a329e0c0fc8e","address":"1400 N Frazier St","location":{"type":"Point","coordinates":[-95.2831068858205,30.0050249663664]},"isApproved":true,"items":[],"keys":["Seafood"],"lastUpdated":1547527612607,"name":"Baytown Seafood Restaurant","phone":"(936) 494-2246","price":"$$","reviewCount":27,"reviewScore":3,"meta":{"revision":0,"created":1547531156545,"version":0},"$loki":18},{"_id":"5c3d65bd3525a329e0c0bee9","address":"17020 Beaver Springs Dr","location":{"type":"Point","coordinates":[-95.2829394084595,30.0057100936201]},"isApproved":true,"items":[],"keys":["Seafood","Mexican"],"lastUpdated":1547527612515,"name":"Cancun Seafood & Oyster Bar","phone":"(832) 602-5444","price":"","reviewCount":1,"reviewScore":4,"meta":{"revision":0,"created":1547531156545,"version":0},"$loki":19},{"_id":"5c3d65bd3525a329e0c1357b","address":"2020 Fm 1960 Rd","location":{"type":"Point","coordinates":[-95.2809584140778,30.0048304226203]},"isApproved":true,"items":[],"keys":["Seafood","American (Traditional)","Steakhouses"],"lastUpdated":1547527612696,"name":"Potatoe Patch","phone":"(281) 443-3530","price":"$$","reviewCount":299,"reviewScore":3,"meta":{"revision":0,"created":1547531156545,"version":0},"$loki":20},{"_id":"5c3d65bd3525a329e0bffe45","address":"9710 Fm 1960 Bypass Rd W","location":{"type":"Point","coordinates":[-95.2800801,30.0042776]},"isApproved":true,"items":[],"keys":["Tex-Mex","Mexican","Seafood"],"lastUpdated":1547527612222,"name":"Patrón Grill","phone":"(281) 973-9027","price":"$$","reviewCount":50,"reviewScore":3,"meta":{"revision":0,"created":1547531156545,"version":0},"$loki":21},{"_id":"5c3d65bd3525a329e0c124aa","address":"24891 FM 1314 Rd.","location":{"type":"Point","coordinates":[-95.2768163584747,30.0056536881165]},"isApproved":true,"items":[],"keys":["Fast Food","Mexican","Tex-Mex"],"lastUpdated":1547527612670,"name":"Taco Bell","phone":"(281) 354-4608","price":"$$","reviewCount":5,"reviewScore":4.5,"meta":{"revision":0,"created":1547531156545,"version":0},"$loki":22},{"_id":"5c3d65bd3525a329e0c0df2c","address":"14543 Hwy105 W","location":{"type":"Point","coordinates":[-95.276563928836,30.0051059826378]},"isApproved":true,"items":[],"keys":["American (Traditional)","Breakfast & Brunch"],"lastUpdated":1547527612564,"name":"Kitchen Tales","phone":"(936) 588-5105","price":"$$","reviewCount":95,"reviewScore":4.5,"meta":{"revision":0,"created":1547531156545,"version":0},"$loki":23},{"_id":"5c3d65bd3525a329e0c1953f","address":"Highway 59 N","location":{"type":"Point","coordinates":[-95.2785965931153,30.0043208255251]},"isApproved":true,"items":[],"keys":["Chicken Wings","Sports Bars","American (Traditional)"],"lastUpdated":1547527612840,"name":"Hooters","phone":"(281) 446-9464","price":"$$","reviewCount":67,"reviewScore":2,"meta":{"revision":0,"created":1547531156545,"version":0},"$loki":24},{"_id":"5c3d65bd3525a329e0c0d161","address":"6880 Louetta Rd","location":{"type":"Point","coordinates":[-95.2780354,30.0042649]},"isApproved":true,"items":[],"keys":["Falafel","Halal","Food Trucks"],"lastUpdated":1547527612545,"name":"Abu Omar Halal","phone":"(346) 262-6094","price":"","reviewCount":12,"reviewScore":4.5,"meta":{"revision":0,"created":1547531156545,"version":0},"$loki":25},{"_id":"5c3d65bd3525a329e0c0e3f1","address":"142 Vintage Park Blvd","location":{"type":"Point","coordinates":[-95.2778,30.0041]},"isApproved":true,"items":[],"keys":["Burgers"],"lastUpdated":1547527612572,"name":"Hopdoddy Burger Bar","phone":"(281) 554-2337","price":"$$","reviewCount":327,"reviewScore":3.5,"meta":{"revision":0,"created":1547531156545,"version":0},"$loki":26},{"_id":"5c3d65bd3525a329e0c03fcd","address":"314 Sawdust Rd","location":{"type":"Point","coordinates":[-95.2779295295477,30.0036641058907]},"isApproved":true,"items":[],"keys":["Mexican"],"lastUpdated":1547527612319,"name":"Cilantro’s Mexican Grill","phone":"(281) 419-3180","price":"$$","reviewCount":56,"reviewScore":3.5,"meta":{"revision":0,"created":1547531156545,"version":0},"$loki":27},{"_id":"5c3d65bd3525a329e0c14eba","address":"20131 Highway 59 N","location":{"type":"Point","coordinates":[-95.278573,30.003488]},"isApproved":true,"items":[],"keys":["Restaurants"],"lastUpdated":1547527612736,"name":"Thirsty’s","phone":"(281) 359-5300","price":"","reviewCount":1,"reviewScore":5,"meta":{"revision":0,"created":1547531156545,"version":0},"$loki":28},{"_id":"5c3d65bd3525a329e0c127ca","address":"1821 Highway 90","location":{"type":"Point","coordinates":[-95.277214050293,30.0016249785057]},"isApproved":true,"items":[],"keys":["Fast Food","Burgers","Ice Cream & Frozen Yogurt"],"lastUpdated":1547527612672,"name":"Sonic Drive-In","phone":"(936) 336-2626","price":"$","reviewCount":2,"reviewScore":3.5,"meta":{"revision":0,"created":1547531156545,"version":0},"$loki":29},{"_id":"5c3d65bd3525a329e0c01df0","address":"1706 N Frazier St","location":{"type":"Point","coordinates":[-95.277504946133,30.0032933058714]},"isApproved":true,"items":[],"keys":["Salvadoran","Bakeries"],"lastUpdated":1547527612260,"name":"Martita’s Restaurant and Bakery","phone":"(936) 217-3302","price":"","reviewCount":5,"reviewScore":4,"meta":{"revision":0,"created":1547531156545,"version":0},"$loki":30},{"_id":"5c3d65bd3525a329e0c0fb96","address":"25510 Zion Lutheran Cemetery Rd","location":{"type":"Point","coordinates":[-95.277226,30.003389]},"isApproved":true,"items":[],"keys":["Cafes","American (New)"],"lastUpdated":1547527612601,"name":"The Wheel Kitchen","phone":"(346) 225-0996","price":"$$","reviewCount":69,"reviewScore":4.5,"meta":{"revision":0,"created":1547531156545,"version":0},"$loki":31},{"_id":"5c3d65bd3525a329e0c13555","address":"9595 Six Pines Dr","location":{"type":"Point","coordinates":[-95.276992,30.004319]},"isApproved":true,"items":[],"keys":["Mediterranean","Greek","Sandwiches"],"lastUpdated":1547527612696,"name":"Zoës Kitchen","phone":"(832) 585-0430","price":"$$","reviewCount":75,"reviewScore":4,"meta":{"revision":0,"created":1547531156545,"version":0},"$loki":32},{"_id":"5c3d65bd3525a329e0c1a42b","address":"4747 Research Forest Dr","location":{"type":"Point","coordinates":[-95.2757120132446,30.0057316447795]},"isApproved":true,"items":[],"keys":["Tacos","Breakfast & Brunch"],"lastUpdated":1547527612859,"name":"Torchy’s Tacos","phone":"(281) 465-8918","price":"$","reviewCount":299,"reviewScore":3,"meta":{"revision":0,"created":1547531156545,"version":0},"$loki":33},{"_id":"5c3d65bd3525a329e0c097e9","address":"10005 Fm 1960","location":{"type":"Point","coordinates":[-95.2757472,30.0058855]},"isApproved":true,"items":[],"keys":["Tex-Mex","Seafood"],"lastUpdated":1547527612461,"name":"Pappasito’s Cantina","phone":"(281) 540-8664","price":"$$","reviewCount":201,"reviewScore":3.5,"meta":{"revision":0,"created":1547531156545,"version":0},"$loki":34},{"_id":"5c3d65bd3525a329e0c13743","address":"1702 N Main St","location":{"type":"Point","coordinates":[-95.2722802,29.9990468]},"isApproved":true,"items":[],"keys":["Sushi Bars","Chinese"],"lastUpdated":1547527612697,"name":"China Wok","phone":"(936) 336-9855","price":"$","reviewCount":14,"reviewScore":3.5,"meta":{"revision":0,"created":1547531156545,"version":0},"$loki":35},{"_id":"5c3d65bd3525a329e0c03c73","address":"3930 Louetta Rd","location":{"type":"Point","coordinates":[-95.2696408331394,29.9989342418084]},"isApproved":true,"items":[],"keys":["Chinese"],"lastUpdated":1547527612312,"name":"Hunam Garden","phone":"(281) 288-6288","price":"$","reviewCount":109,"reviewScore":4,"meta":{"revision":0,"created":1547531156545,"version":0},"$loki":36},{"_id":"5c3d65bd3525a329e0c0fd15","address":"8000 Tx Hwy 242","location":{"type":"Point","coordinates":[-95.315109,30.006174]},"isApproved":true,"items":[],"keys":["Chicken Wings"],"lastUpdated":1547527612608,"name":"Wingstop","phone":"(936) 242-1568","price":"$$","reviewCount":21,"reviewScore":4,"meta":{"revision":0,"created":1547531156545,"version":0},"$loki":37},{"_id":"5c3d65bd3525a329e0c088e3","address":"4535 Kingwood Dr","location":{"type":"Point","coordinates":[-95.3186236,30.0077676]},"isApproved":true,"items":[],"keys":["Asian Fusion","Chinese"],"lastUpdated":1547527612429,"name":"Mama Fu’s Asian House","phone":"(832) 839-4356","price":"$","reviewCount":55,"reviewScore":2.5,"meta":{"revision":0,"created":1547531156545,"version":0},"$loki":38},{"_id":"5c3d65bd3525a329e0c0fc6b","address":"373 Sawdust Rd","location":{"type":"Point","coordinates":[-95.3187523460327,30.0075167503174]},"isApproved":true,"items":[],"keys":["Greek","Mediterranean"],"lastUpdated":1547527612607,"name":"The Olive Oil Restaurant","phone":"(281) 367-0114","price":"$$","reviewCount":414,"reviewScore":4.5,"meta":{"revision":0,"created":1547531156545,"version":0},"$loki":39},{"_id":"5c3d65bd3525a329e0c13477","address":"560 Spring Park Center Blvd","location":{"type":"Point","coordinates":[-95.3302473974483,30.0115734011484]},"isApproved":true,"items":[],"keys":["Bars","Golf","American (New)"],"lastUpdated":1547527612690,"name":"Topgolf","phone":"(832) 200-0106","price":"$$","reviewCount":229,"reviewScore":4,"meta":{"revision":0,"created":1547531156545,"version":0},"$loki":40},{"_id":"5c3d65bd3525a329e0c158b0","address":"146 FM 1960","location":{"type":"Point","coordinates":[-95.3531215712428,30.0148339941946]},"isApproved":true,"items":[],"keys":["Pizza","Arcades","Venues & Event Spaces"],"lastUpdated":1547527612747,"name":"Chuck E Cheese’s","phone":"(281) 893-2148","price":"","reviewCount":1,"reviewScore":1,"meta":{"revision":0,"created":1547531156545,"version":0},"$loki":41},{"_id":"5c3d65bd3525a329e0c13a0f","address":"4409 Treaschwig Rd","location":{"type":"Point","coordinates":[-95.3633254,30.0364786]},"isApproved":true,"items":[],"keys":["Mexican"],"lastUpdated":1547527612698,"name":"Casa Del Pueblo 5","phone":"(281) 209-0981","price":"$","reviewCount":2,"reviewScore":4,"meta":{"revision":0,"created":1547531156545,"version":0},"$loki":42},{"_id":"5c3d65bd3525a329e0c11c5d","address":"343 Sawdust Rd","location":{"type":"Point","coordinates":[-95.379721,30.028368]},"isApproved":true,"items":[],"keys":["Barbeque"],"lastUpdated":1547527612660,"name":"Pit Master BBQ","phone":"(281) 419-3644","price":"$$","reviewCount":124,"reviewScore":3,"meta":{"revision":0,"created":1547531156545,"version":0},"$loki":43},{"_id":"5c3d65bd3525a329e0c0b737","address":"30420 Fm 2978","location":{"type":"Point","coordinates":[-95.3827204519258,30.0443822419334]},"isApproved":true,"items":[],"keys":["Japanese","Sushi Bars"],"lastUpdated":1547527612505,"name":"Sapporo Japanese Bistro Sushi & Bar","phone":"(281) 789-4445","price":"$$","reviewCount":105,"reviewScore":4,"meta":{"revision":0,"created":1547531156545,"version":0},"$loki":44},{"_id":"5c3d65bd3525a329e0bff45b","address":"13120 Highway 105 E","location":{"type":"Point","coordinates":[-95.383261218667,30.0421531538336]},"isApproved":true,"items":[],"keys":["Mexican"],"lastUpdated":1547527612216,"name":"Leija Mexican Food Restaurant","phone":"(936) 264-4411","price":"","reviewCount":10,"reviewScore":3.5,"meta":{"revision":0,"created":1547531156545,"version":0},"$loki":45},{"_id":"5c3d65bd3525a329e0c0cd5b","address":"4702 Louetta Rd","location":{"type":"Point","coordinates":[-95.3864565364948,30.0474172942222]},"isApproved":true,"items":[],"keys":["Mexican"],"lastUpdated":1547527612534,"name":"La Cabana Mexican Restaurant","phone":"(281) 907-7007","price":"$$","reviewCount":62,"reviewScore":3,"meta":{"revision":0,"created":1547531156545,"version":0},"$loki":46},{"_id":"5c3d65bd3525a329e0c10364","address":"401 W Clayton St","location":{"type":"Point","coordinates":[-95.386307037037,30.0470817982785]},"isApproved":true,"items":[],"keys":["Sports Bars","American (Traditional)"],"lastUpdated":1547527612617,"name":"Dayton Sports Bar N Grill","phone":"(936) 257-8415","price":"","reviewCount":1,"reviewScore":5,"meta":{"revision":0,"created":1547531156545,"version":0},"$loki":47},{"_id":"5c3d65bd3525a329e0c11522","address":"21005 Interstate 45 N","location":{"type":"Point","coordinates":[-95.3871129,30.0475489]},"isApproved":true,"items":[],"keys":["Sports Bars","American (Traditional)","Chicken Wings"],"lastUpdated":1547527612649,"name":"Bombshells","phone":"(281) 288-2769","price":"$$","reviewCount":273,"reviewScore":2,"meta":{"revision":0,"created":1547531156545,"version":0},"$loki":48},{"_id":"5c3d65bd3525a329e0c17a8a","address":"20444 Kuykendahl Rd","location":{"type":"Point","coordinates":[-95.3887594,30.0232816]},"isApproved":true,"items":[],"keys":["Beer Bar","Gastropubs","American (Traditional)"],"lastUpdated":1547527612799,"name":"Tapped Drafthouse & Kitchen","phone":"(281) 719-0360","price":"$$","reviewCount":136,"reviewScore":4.5,"meta":{"revision":0,"created":1547531156545,"version":0},"$loki":49},{"_id":"5c3d65bd3525a329e0bffb84","address":"17615 Kuykendahl Rd","location":{"type":"Point","coordinates":[-95.388001,30.021774]},"isApproved":true,"items":[],"keys":["Meat Shops","Mexican"],"lastUpdated":1547527612220,"name":"Iguala Meat Market","phone":"(281) 257-2991","price":"$","reviewCount":9,"reviewScore":4.5,"meta":{"revision":0,"created":1547531156545,"version":0},"$loki":50},{"_id":"5c3d65bd3525a329e0c02da5","address":"21131 Aldine Westfield Rd","location":{"type":"Point","coordinates":[-95.3809202,30.0223251]},"isApproved":true,"items":[],"keys":["Chinese"],"lastUpdated":1547527612294,"name":"Beijing Wok Restaurant","phone":"(281) 821-0367","price":"$","reviewCount":11,"reviewScore":3.5,"meta":{"revision":0,"created":1547531156545,"version":0},"$loki":51},{"_id":"5c3d65bd3525a329e0c051c1","address":"1660 Louetta Rd","location":{"type":"Point","coordinates":[-95.3806213,30.0203447]},"isApproved":true,"items":[],"keys":["Pizza"],"lastUpdated":1547527612340,"name":"Firenza Pizza","phone":"(346) 351-2888","price":"","reviewCount":30,"reviewScore":4.5,"meta":{"revision":0,"created":1547531156545,"version":0},"$loki":52},{"_id":"5c3d65bd3525a329e0c1a08d","address":"14519 Walters Rd","location":{"type":"Point","coordinates":[-95.3788104821159,30.0207208920706]},"isApproved":true,"items":[],"keys":["Food Trucks","Mexican"],"lastUpdated":1547527612857,"name":"Loz Lokoz Takoz","phone":"(281) 919-1881","price":"$","reviewCount":103,"reviewScore":4,"meta":{"revision":0,"created":1547531156545,"version":0},"$loki":53},{"_id":"5c3d65bd3525a329e0c0a277","address":"2466 Fm 1488 Rd","location":{"type":"Point","coordinates":[-95.3758666167544,30.0190316105729]},"isApproved":true,"items":[],"keys":["Pizza","Italian","Breakfast & Brunch"],"lastUpdated":1547527612473,"name":"Zazza Pizza Cafe","phone":"(936) 271-2776","price":"$$","reviewCount":98,"reviewScore":4,"meta":{"revision":0,"created":1547531156545,"version":0},"$loki":54},{"_id":"5c3d65bd3525a329e0c14857","address":"4580 Kingwood Dr","location":{"type":"Point","coordinates":[-95.379234,30.018685]},"isApproved":true,"items":[],"keys":["Mexican"],"lastUpdated":1547527612727,"name":"Hacienda Palomas Mexican Restaurant","phone":"(281) 318-7192","price":"","reviewCount":12,"reviewScore":3,"meta":{"revision":0,"created":1547531156545,"version":0},"$loki":55},{"_id":"5c3d65bd3525a329e0c011f1","address":"1900  Fm 2854 Rd","location":{"type":"Point","coordinates":[-95.3818918379007,30.0201674684358]},"isApproved":true,"items":[],"keys":["Soul Food","Barbeque","Comfort Food"],"lastUpdated":1547527612239,"name":"King’s Kitchen At West Tabernacle Church","phone":"(936) 441-8688","price":"$","reviewCount":7,"reviewScore":4.5,"meta":{"revision":0,"created":1547531156545,"version":0},"$loki":56},{"_id":"5c3d65bd3525a329e0c03061","address":"1202 N Frazier St","location":{"type":"Point","coordinates":[-95.377509,30.0141371]},"isApproved":true,"items":[],"keys":["Mexican"],"lastUpdated":1547527612295,"name":"La Palma Mexicana 2","phone":"(936) 494-2515","price":"$","reviewCount":16,"reviewScore":4,"meta":{"revision":0,"created":1547531156545,"version":0},"$loki":57},{"_id":"5c3d65bd3525a329e0c171c4","address":"25222 Aldine Westfield Rd","location":{"type":"Point","coordinates":[-95.3916250772595,30.0030796667459]},"isApproved":true,"items":[],"keys":["Mexican"],"lastUpdated":1547527612782,"name":"Alma Latina Taqueria","phone":"(281) 288-1767","price":"$","reviewCount":41,"reviewScore":3.5,"meta":{"revision":0,"created":1547531156545,"version":0},"$loki":58},{"_id":"5c3d65bd3525a329e0c08993","address":"702 Kingwood Dr","location":{"type":"Point","coordinates":[-95.3677844,29.7901812]},"isApproved":true,"items":[],"keys":["Asian Fusion","Chinese","Gluten-Free"],"lastUpdated":1547527612429,"name":"Pei Wei","phone":"(281) 318-2877","price":"$$","reviewCount":75,"reviewScore":3,"meta":{"revision":0,"created":1547531156545,"version":0},"$loki":59},{"_id":"5c3d65bd3525a329e0c158ca","address":"","location":{"type":"Point","coordinates":[-95.417519,29.7333171]},"isApproved":true,"items":[],"keys":["Food Trucks","Brazilian"],"lastUpdated":1547527612747,"name":"Brazilian Joe’s","phone":"(832) 314-1828","price":"$$","reviewCount":8,"reviewScore":4,"meta":{"revision":0,"created":1547531156545,"version":0},"$loki":60},{"_id":"5c3d65bd3525a329e0c16144","address":"5610 Richmond Ave","location":{"type":"Point","coordinates":[-95.477601,29.732288]},"isApproved":true,"items":[],"keys":["Hot Dogs","American (Traditional)","Food Trucks"],"lastUpdated":1547527612762,"name":"Midwest Coney Connection","phone":"(832) 523-2973","price":"$","reviewCount":10,"reviewScore":5,"meta":{"revision":0,"created":1547531156545,"version":0},"$loki":61},{"_id":"5c3d65bd3525a329e0c1a0cf","address":"5447 Fm 1488","location":{"type":"Point","coordinates":[-95.477601,29.732288]},"isApproved":true,"items":[],"keys":["Food Trucks","Caterers","Sandwiches"],"lastUpdated":1547527612857,"name":"Wiches On Wheels","phone":"(832) 418-1088","price":"","reviewCount":6,"reviewScore":5,"meta":{"revision":0,"created":1547531156545,"version":0},"$loki":62},{"_id":"5c3d65bd3525a329e0c0be5b","address":"","location":{"type":"Point","coordinates":[-95.4201377,29.7765065]},"isApproved":true,"items":[],"keys":["Filipino","Burgers","Food Trucks"],"lastUpdated":1547527612515,"name":"Flip ‘n Patties Food Truck","phone":"(281) 813-6091","price":"$$","reviewCount":206,"reviewScore":4.5,"meta":{"revision":0,"created":1547531156545,"version":0},"$loki":63},{"_id":"5c3d65bd3525a329e0c1313c","address":"200 Cypresswood Dr","location":{"type":"Point","coordinates":[-95.4201377,29.7765065]},"isApproved":true,"items":[],"keys":["Chinese","Noodles","Soup"],"lastUpdated":1547527612688,"name":"Hoi Yin","phone":"(281) 355-6800","price":"$","reviewCount":65,"reviewScore":3.5,"meta":{"revision":0,"created":1547531156545,"version":0},"$loki":64},{"_id":"5c3d65bd3525a329e0c171dd","address":"23607 Highway 59","location":{"type":"Point","coordinates":[-95.4201377,29.7765065]},"isApproved":true,"items":[],"keys":["Burgers","Fast Food"],"lastUpdated":1547527612783,"name":"Whataburger","phone":"(281) 354-5446","price":"$","reviewCount":11,"reviewScore":4.5,"meta":{"revision":0,"created":1547531156545,"version":0},"$loki":65},{"_id":"5c3d65bd3525a329e0c06bad","address":"24 Waterway Ave","location":{"type":"Point","coordinates":[-95.4074868,29.9444044]},"isApproved":true,"items":[],"keys":["Mexican","Bars","Latin American"],"lastUpdated":1547527612385,"name":"Yucatan Taco Stand & Tequila Bar","phone":"(281) 419-6300","price":"$$","reviewCount":249,"reviewScore":3,"meta":{"revision":0,"created":1547531156545,"version":0},"$loki":66},{"_id":"5c3d65bd3525a329e0c110ea","address":"1600 Louetta Rd","location":{"type":"Point","coordinates":[-95.4261769541414,29.9957528180307]},"isApproved":true,"items":[],"keys":["Salad","Soup"],"lastUpdated":1547527612641,"name":"Salata","phone":"(281) 719-0001","price":"$$","reviewCount":67,"reviewScore":4.5,"meta":{"revision":0,"created":1547531156545,"version":0},"$loki":67},{"_id":"5c3d65bd3525a329e0c0c194","address":"1502 1st St E","location":{"type":"Point","coordinates":[-95.4264351535782,29.9971087839322]},"isApproved":true,"items":[],"keys":["Fast Food","Mexican"],"lastUpdated":1547527612517,"name":"Granny’s Tamales Houston","phone":"(281) 446-0363","price":"$","reviewCount":39,"reviewScore":3.5,"meta":{"revision":0,"created":1547531156545,"version":0},"$loki":68},{"_id":"5c3d65bd3525a329e0c122b3","address":"15770 North Fwy","location":{"type":"Point","coordinates":[-95.424047,29.996002]},"isApproved":true,"items":[],"keys":["Italian","Salad"],"lastUpdated":1547527612669,"name":"Olive Garden Italian Restaurant","phone":"(281) 209-2777","price":"$$","reviewCount":80,"reviewScore":2.5,"meta":{"revision":0,"created":1547531156545,"version":0},"$loki":69},{"_id":"5c3d65bd3525a329e0c0cece","address":"West Denton","location":{"type":"Point","coordinates":[-95.4243361398097,29.9965210896903]},"isApproved":true,"items":[],"keys":["Barbeque"],"lastUpdated":1547527612535,"name":"Hawaiian Grill","phone":"","price":"","reviewCount":6,"reviewScore":3,"meta":{"revision":0,"created":1547531156545,"version":0},"$loki":70},{"_id":"5c3d65bd3525a329e0c016c6","address":"3416 Fm 2920 Rd","location":{"type":"Point","coordinates":[-95.408395,29.9971845]},"isApproved":true,"items":[],"keys":["Chinese"],"lastUpdated":1547527612250,"name":"998 Sichuan","phone":"(281) 528-0848","price":"$","reviewCount":138,"reviewScore":4,"meta":{"revision":0,"created":1547531156545,"version":0},"$loki":71},{"_id":"5c3d65bd3525a329e0c0ce20","address":"603 N Thompson St","location":{"type":"Point","coordinates":[-95.3951769324741,30.0249551399427]},"isApproved":true,"items":[],"keys":["Italian"],"lastUpdated":1547527612534,"name":"Villa Italia","phone":"(936) 539-5599","price":"$$","reviewCount":39,"reviewScore":4,"meta":{"revision":0,"created":1547531156545,"version":0},"$loki":72},{"_id":"5c3d65bd3525a329e0c1903a","address":"302 Fm 1960 W","location":{"type":"Point","coordinates":[-95.433315,30.020607]},"isApproved":true,"items":[],"keys":["Seafood","American (Traditional)"],"lastUpdated":1547527612832,"name":"Red Lobster","phone":"(281) 440-6028","price":"$$","reviewCount":77,"reviewScore":3,"meta":{"revision":0,"created":1547531156545,"version":0},"$loki":73},{"_id":"5c3d65bd3525a329e0c10bc9","address":"22400 Tomball Pkwy","location":{"type":"Point","coordinates":[-95.43502,30.020254]},"isApproved":true,"items":[],"keys":["Seafood","Mexican","Sports Bars"],"lastUpdated":1547527612632,"name":"Vida Mariscos","phone":"(832) 559-3709","price":"$$","reviewCount":180,"reviewScore":3.5,"meta":{"revision":0,"created":1547531156545,"version":0},"$loki":74},{"_id":"5c3d65bd3525a329e0c0d968","address":"14 Town Ctr","location":{"type":"Point","coordinates":[-95.4349474,30.0202785]},"isApproved":true,"items":[],"keys":["Seafood"],"lastUpdated":1547527612555,"name":"Fish Tales Catfish & Shrimp","phone":"(936) 681-8322","price":"","reviewCount":1,"reviewScore":2,"meta":{"revision":0,"created":1547531156545,"version":0},"$loki":75},{"_id":"5c3d65bd3525a329e0c0d4ed","address":"4562 Kingwood Dr","location":{"type":"Point","coordinates":[-95.426626,30.0208895]},"isApproved":true,"items":[],"keys":["Pizza"],"lastUpdated":1547527612547,"name":"Papa Murphy’s","phone":"(281) 312-4971","price":"$$","reviewCount":14,"reviewScore":3.5,"meta":{"revision":0,"created":1547531156545,"version":0},"$loki":76},{"_id":"5c3d65bd3525a329e0c10776","address":"330 1st St E","location":{"type":"Point","coordinates":[-95.4268367377246,30.0201752855248]},"isApproved":true,"items":[],"keys":["Chinese"],"lastUpdated":1547527612619,"name":"Jade Palace Restaurant","phone":"(281) 446-1616","price":"$","reviewCount":57,"reviewScore":3,"meta":{"revision":0,"created":1547531156545,"version":0},"$loki":77},{"_id":"5c3d65bd3525a329e0c15321","address":"4775 W Panther Creek Dr","location":{"type":"Point","coordinates":[-95.427639809654,30.0208627518115]},"isApproved":true,"items":[],"keys":["Pizza","Italian"],"lastUpdated":1547527612738,"name":"Crust Pizza Co","phone":"(281) 298-8844","price":"$$","reviewCount":180,"reviewScore":4,"meta":{"revision":0,"created":1547531156545,"version":0},"$loki":78},{"_id":"5c3d65bd3525a329e0c047a1","address":"20 Waterway Ave","location":{"type":"Point","coordinates":[-95.4303383413026,30.0196925246024]},"isApproved":true,"items":[],"keys":["Mexican","Bars","Tex-Mex"],"lastUpdated":1547527612330,"name":"Cyclone Anaya’s Mexican Kitchen","phone":"(281) 419-5771","price":"$$","reviewCount":184,"reviewScore":3,"meta":{"revision":0,"created":1547531156545,"version":0},"$loki":79},{"_id":"5c3d65bd3525a329e0c0c540","address":"1647 N Frazier St","location":{"type":"Point","coordinates":[-95.430124,30.021812]},"isApproved":true,"items":[],"keys":["Mexican"],"lastUpdated":1547527612524,"name":"Angie’s Mexican Restaurant","phone":"(936) 788-1647","price":"","reviewCount":9,"reviewScore":4.5,"meta":{"revision":0,"created":1547531156545,"version":0},"$loki":80},{"_id":"5c3d65bd3525a329e0c1af80","address":"4523 Kingwood Dr","location":{"type":"Point","coordinates":[-95.4152406,30.0240214]},"isApproved":true,"items":[],"keys":["Salad","Wraps","Soup"],"lastUpdated":1547527612876,"name":"Salata","phone":"(281) 973-8236","price":"$$","reviewCount":29,"reviewScore":4,"meta":{"revision":0,"created":1547531156545,"version":0},"$loki":81},{"_id":"5c3d65bd3525a329e0c19043","address":"19440 Hwy 59 N","location":{"type":"Point","coordinates":[-95.4194421,30.0211306]},"isApproved":true,"items":[],"keys":["Chicken Wings","Seafood"],"lastUpdated":1547527612832,"name":"Louisiana Famous Fried Chicken and Seafood","phone":"(281) 446-0534","price":"$","reviewCount":18,"reviewScore":3,"meta":{"revision":0,"created":1547531156545,"version":0},"$loki":82},{"_id":"5c3d65bd3525a329e0c17ab2","address":"501 Sawdust Rd","location":{"type":"Point","coordinates":[-95.4487479,30.013909]},"isApproved":true,"items":[],"keys":["Pizza","Italian","Delis"],"lastUpdated":1547527612799,"name":"RC’S NYC Pizza & Pasta- The Woodlands","phone":"(281) 298-4663","price":"$$","reviewCount":294,"reviewScore":4,"meta":{"revision":0,"created":1547531156545,"version":0},"$loki":83},{"_id":"5c3d65bd3525a329e0c1856f","address":"600 Hwy 105 E","location":{"type":"Point","coordinates":[-95.4487479,30.013909]},"isApproved":true,"items":[],"keys":["American (Traditional)","Salad","Sandwiches"],"lastUpdated":1547527612815,"name":"Fesco’s Good Eats","phone":"(409) 287-4444","price":"","reviewCount":2,"reviewScore":5,"meta":{"revision":0,"created":1547531156545,"version":0},"$loki":84},{"_id":"5c3d65bd3525a329e0c186a0","address":"2855 W Lake Houston Pkwy","location":{"type":"Point","coordinates":[-95.4546031,30.0115484]},"isApproved":true,"items":[],"keys":["Delis","Breakfast & Brunch","Bagels"],"lastUpdated":1547527612815,"name":"Kingwood Bagel & Sandwich","phone":"(281) 360-8006","price":"$","reviewCount":92,"reviewScore":4.5,"meta":{"revision":0,"created":1547531156545,"version":0},"$loki":85},{"_id":"5c3d65bd3525a329e0c00c26","address":"4521 Kingwood Dr","location":{"type":"Point","coordinates":[-95.454682,30.012936]},"isApproved":true,"items":[],"keys":["Vietnamese","Soup","Juice Bars & Smoothies"],"lastUpdated":1547527612230,"name":"Pholicious","phone":"(281) 913-5419","price":"$","reviewCount":50,"reviewScore":3,"meta":{"revision":0,"created":1547531156545,"version":0},"$loki":86},{"_id":"5c3d65bd3525a329e0c15002","address":"17540 Kuykendahl Rd","location":{"type":"Point","coordinates":[-95.4420338,30.0179495]},"isApproved":true,"items":[],"keys":["Vegetarian","Breakfast & Brunch","Burgers"],"lastUpdated":1547527612736,"name":"Levi’s Cafe","phone":"(832) 246-8969","price":"","reviewCount":1,"reviewScore":5,"meta":{"revision":0,"created":1547531156545,"version":0},"$loki":87},{"_id":"5c3d65bd3525a329e0c10f02","address":"26400 Kuykendahl Rd","location":{"type":"Point","coordinates":[-95.4417757472908,30.01825084127]},"isApproved":true,"items":[],"keys":["Sushi Bars","Teppanyaki"],"lastUpdated":1547527612640,"name":"Shogun Japanese Grill & Sushi Bar","phone":"(832) 639-8524","price":"$$","reviewCount":47,"reviewScore":4,"meta":{"revision":0,"created":1547531156545,"version":0},"$loki":88},{"_id":"5c3d65bd3525a329e0c03f89","address":"9490 Fm 1960 Bypass Rd W","location":{"type":"Point","coordinates":[-95.4449779,30.017137]},"isApproved":true,"items":[],"keys":["Mexican","Tex-Mex"],"lastUpdated":1547527612319,"name":"Freebirds World Burrito","phone":"(281) 446-0279","price":"$","reviewCount":56,"reviewScore":3,"meta":{"revision":0,"created":1547531156545,"version":0},"$loki":89},{"_id":"5c3d65bd3525a329e0c123de","address":"944 Cypress Creek Pkwy","location":{"type":"Point","coordinates":[-95.4447125,30.0172158]},"isApproved":true,"items":[],"keys":["Salvadoran"],"lastUpdated":1547527612670,"name":"Cristo Rey Restaurant & Bakery","phone":"(281) 781-8454","price":"$","reviewCount":9,"reviewScore":4,"meta":{"revision":0,"created":1547531156545,"version":0},"$loki":90},{"_id":"5c3d65bd3525a329e0c00960","address":"8021 Research Forest","location":{"type":"Point","coordinates":[-95.442808,30.017749]},"isApproved":true,"items":[],"keys":["Tacos"],"lastUpdated":1547527612229,"name":"Taco Nation","phone":"(713) 389-5391","price":"$","reviewCount":108,"reviewScore":4,"meta":{"revision":0,"created":1547531156545,"version":0},"$loki":91},{"_id":"5c3d65bd3525a329e0c0a692","address":"4660 Louetta Rd","location":{"type":"Point","coordinates":[-95.4413376,30.0176319]},"isApproved":true,"items":[],"keys":["Pizza","Salad"],"lastUpdated":1547527612481,"name":"Pizza Zone","phone":"(281) 288-8500","price":"$","reviewCount":203,"reviewScore":4.5,"meta":{"revision":0,"created":1547531156545,"version":0},"$loki":92},{"_id":"5c3d65bd3525a329e0c0208e","address":"1240 N Loop 336 W","location":{"type":"Point","coordinates":[-95.43631,30.020022]},"isApproved":true,"items":[],"keys":["Pizza","Fast Food"],"lastUpdated":1547527612275,"name":"MOD Pizza","phone":"(936) 441-0054","price":"$","reviewCount":107,"reviewScore":4.5,"meta":{"revision":0,"created":1547531156545,"version":0},"$loki":93},{"_id":"5c3d65bd3525a329e0c04f73","address":"32907 Tamina Rd","location":{"type":"Point","coordinates":[-95.4383313,30.0189963]},"isApproved":true,"items":[],"keys":["Desserts","American (Traditional)","Breakfast & Brunch"],"lastUpdated":1547527612339,"name":"Victory Pie Co","phone":"(832) 403-3066","price":"$$","reviewCount":12,"reviewScore":5,"meta":{"revision":0,"created":1547531156545,"version":0},"$loki":94},{"_id":"5c3d65bd3525a329e0c10578","address":"225 S Main St","location":{"type":"Point","coordinates":[-95.4679105,30.0137282]},"isApproved":true,"items":[],"keys":["Grocery","Delis"],"lastUpdated":1547527612618,"name":"El Ahorro Supermarket","phone":"(936) 756-4315","price":"","reviewCount":2,"reviewScore":5,"meta":{"revision":0,"created":1547531156545,"version":0},"$loki":95},{"_id":"5c3d65bd3525a329e0c148f9","address":"566 Fm 1960 Rd W","location":{"type":"Point","coordinates":[-95.4704679,30.0168449]},"isApproved":true,"items":[],"keys":["Chicken Wings","American (New)"],"lastUpdated":1547527612727,"name":"Queen’s Kitchen","phone":"(281) 586-8444","price":"","reviewCount":9,"reviewScore":3.5,"meta":{"revision":0,"created":1547531156545,"version":0},"$loki":96},{"_id":"5c3d65bd3525a329e0c16c17","address":"24895 Fm 1314 Rd","location":{"type":"Point","coordinates":[-95.465781,30.009135]},"isApproved":true,"items":[],"keys":["Chicken Wings","Fast Food"],"lastUpdated":1547527612774,"name":"Popeyes Louisiana Kitchen","phone":"(281) 354-6818","price":"","reviewCount":6,"reviewScore":3.5,"meta":{"revision":0,"created":1547531156545,"version":0},"$loki":97},{"_id":"5c3d65bd3525a329e0c188f3","address":"309A N Fwy Service Rd","location":{"type":"Point","coordinates":[-95.466433,30.006187]},"isApproved":true,"items":[],"keys":["Chicken Wings","Sports Bars","American (Traditional)"],"lastUpdated":1547527612822,"name":"Buffalo Wild Wings","phone":"(281) 443-0760","price":"$$","reviewCount":118,"reviewScore":2,"meta":{"revision":0,"created":1547531156545,"version":0},"$loki":98},{"_id":"5c3d65bd3525a329e0c17b2b","address":"820 Fm 1960 Rd W","location":{"type":"Point","coordinates":[-95.4645384095718,30.0063030381986]},"isApproved":true,"items":[],"keys":["Mexican","Bars"],"lastUpdated":1547527612799,"name":"El Imperial Mexican Restaurant","phone":"(281) 893-2165","price":"$","reviewCount":47,"reviewScore":3.5,"meta":{"revision":0,"created":1547531156545,"version":0},"$loki":99},{"_id":"5c3d65bd3525a329e0c086b2","address":"2209 Cypress Creek Pkwy","location":{"type":"Point","coordinates":[-95.4615591,30.0072282]},"isApproved":true,"items":[],"keys":["Mexican"],"lastUpdated":1547527612427,"name":"Casa Nueva Mexican Restaurant","phone":"(281) 781-7376","price":"$","reviewCount":104,"reviewScore":4,"meta":{"revision":0,"created":1547531156545,"version":0},"$loki":100},{"_id":"5c3d65bd3525a329e0c12e8a","address":"309 W Avenue G","location":{"type":"Point","coordinates":[-95.4604568,30.0017581]},"isApproved":true,"items":[],"keys":["Mexican"],"lastUpdated":1547527612687,"name":"La Palma Taco","phone":"(936) 539-6792","price":"$","reviewCount":94,"reviewScore":4.5,"meta":{"revision":0,"created":1547531156545,"version":0},"$loki":101},{"_id":"5c3d65bd3525a329e0c0195b","address":"3390 Fm 1960 Rd W","location":{"type":"Point","coordinates":[-95.4677036,30.005037]},"isApproved":true,"items":[],"keys":["Tex-Mex","Mexican"],"lastUpdated":1547527612251,"name":"La Cabana","phone":"(281) 209-1585","price":"$$","reviewCount":28,"reviewScore":3,"meta":{"revision":0,"created":1547531156545,"version":0},"$loki":102},{"_id":"5c3d65bd3525a329e0c157c7","address":"2040 Fm 1960 Rd W","location":{"type":"Point","coordinates":[-95.477679669857,29.9986761107558]},"isApproved":true,"items":[],"keys":["Cheesesteaks","Burgers","Pizza"],"lastUpdated":1547527612747,"name":"Mr Hoagie’s","phone":"(281) 440-1988","price":"$","reviewCount":79,"reviewScore":4.5,"meta":{"revision":0,"created":1547531156545,"version":0},"$loki":103},{"_id":"5c3d65bd3525a329e0c06cc0","address":"2129 W Davis","location":{"type":"Point","coordinates":[-95.4848333866711,29.9944473572884]},"isApproved":true,"items":[],"keys":["Breakfast & Brunch","American (New)"],"lastUpdated":1547527612386,"name":"The Toasted Yolk Cafe","phone":"(936) 828-3944","price":"$$","reviewCount":315,"reviewScore":4.5,"meta":{"revision":0,"created":1547531156545,"version":0},"$loki":104},{"_id":"5c3d65bd3525a329e0c0b15a","address":"2 Waterway Square Pl","location":{"type":"Point","coordinates":[-95.4856542,29.9951529]},"isApproved":true,"items":[],"keys":["American (New)"],"lastUpdated":1547527612497,"name":"CURRENT","phone":"(832) 839-5436","price":"$$$","reviewCount":22,"reviewScore":3.5,"meta":{"revision":0,"created":1547531156545,"version":0},"$loki":105},{"_id":"5c3d65bd3525a329e0c18de0","address":"19620 Kuykendahl Rd","location":{"type":"Point","coordinates":[-95.4858450818137,29.9952063764019]},"isApproved":true,"items":[],"keys":["Italian","Pizza"],"lastUpdated":1547527612831,"name":"Italian Cafe","phone":"(281) 528-2919","price":"$$","reviewCount":196,"reviewScore":4.5,"meta":{"revision":0,"created":1547531156545,"version":0},"$loki":106},{"_id":"5c3d65bd3525a329e0c06820","address":"9950 Woodlands Pkwy","location":{"type":"Point","coordinates":[-95.4818625748158,29.9963990696221]},"isApproved":true,"items":[],"keys":["Seafood","Mexican"],"lastUpdated":1547527612378,"name":"Fish and Camaron Sterling Ridge","phone":"(713) 389-5363","price":"$$","reviewCount":77,"reviewScore":4,"meta":{"revision":0,"created":1547531156545,"version":0},"$loki":107},{"_id":"5c3d65bd3525a329e0c15229","address":"1900 Hughes Landing Blvd","location":{"type":"Point","coordinates":[-95.4824274,29.9966334]},"isApproved":true,"items":[],"keys":["American (Traditional)","Bars"],"lastUpdated":1547527612737,"name":"Local Pour","phone":"(281) 419-7687","price":"$$","reviewCount":324,"reviewScore":3.5,"meta":{"revision":0,"created":1547531156545,"version":0},"$loki":108},{"_id":"5c3d65bd3525a329e0c11189","address":"9490 Farm To Market 1960 Bypass","location":{"type":"Point","coordinates":[-95.4824958,29.9964123]},"isApproved":true,"items":[],"keys":["Mongolian","Chinese","Asian Fusion"],"lastUpdated":1547527612641,"name":"Genghis Grill","phone":"(281) 964-4000","price":"$$","reviewCount":102,"reviewScore":3,"meta":{"revision":0,"created":1547531156545,"version":0},"$loki":109},{"_id":"5c3d65bd3525a329e0c08413","address":"314 Sawdust Rd","location":{"type":"Point","coordinates":[-95.4828814814815,29.9954195221068]},"isApproved":true,"items":[],"keys":["Dance Clubs","Lounges","Latin American"],"lastUpdated":1547527612421,"name":"Cielo Latin Bar & Lounge","phone":"(832) 257-4940","price":"$$","reviewCount":37,"reviewScore":4,"meta":{"revision":0,"created":1547531156545,"version":0},"$loki":110},{"_id":"5c3d65bd3525a329e0c0a06d","address":"22626 Aldine Westfield Rd","location":{"type":"Point","coordinates":[-95.482373,29.995545]},"isApproved":true,"items":[],"keys":["Chinese"],"lastUpdated":1547527612472,"name":"Great Wall Chinese Restaurant","phone":"(281) 528-8001","price":"$","reviewCount":38,"reviewScore":3.5,"meta":{"revision":0,"created":1547531156545,"version":0},"$loki":111},{"_id":"5c3d65bd3525a329e0c09c84","address":"11550 Louetta Rd","location":{"type":"Point","coordinates":[-95.48242,29.995652]},"isApproved":true,"items":[],"keys":["Vietnamese","Noodles","Soup"],"lastUpdated":1547527612465,"name":"Kim’s Pho & Grill","phone":"(713) 380-0088","price":"$","reviewCount":165,"reviewScore":4.5,"meta":{"revision":0,"created":1547531156545,"version":0},"$loki":112},{"_id":"5c3d65bd3525a329e0c0b9e1","address":"4510 Fm 1960 Rd E","location":{"type":"Point","coordinates":[-95.4821499064565,29.9958491107688]},"isApproved":true,"items":[],"keys":["Mexican"],"lastUpdated":1547527612507,"name":"Taqueria Las Margarita","phone":"(832) 777-6997","price":"$$","reviewCount":44,"reviewScore":4,"meta":{"revision":0,"created":1547531156545,"version":0},"$loki":113},{"_id":"5c3d65bd3525a329e0c16e23","address":"1640 Lake Woodlands Dr","location":{"type":"Point","coordinates":[-95.4796841438749,29.9978801877206]},"isApproved":true,"items":[],"keys":["Mediterranean","Buffets"],"lastUpdated":1547527612780,"name":"Dimassi’s Mediterranean Buffet","phone":"(281) 363-0200","price":"$$","reviewCount":114,"reviewScore":3,"meta":{"revision":0,"created":1547531156545,"version":0},"$loki":114},{"_id":"5c3d65bd3525a329e0c0f168","address":"4057 Riley Fuzzel Rd","location":{"type":"Point","coordinates":[-95.478814,29.998538]},"isApproved":true,"items":[],"keys":["Vietnamese"],"lastUpdated":1547527612591,"name":"Tt Pho","phone":"(281) 771-3983","price":"$","reviewCount":29,"reviewScore":4,"meta":{"revision":0,"created":1547531156545,"version":0},"$loki":115},{"_id":"5c3d65bd3525a329e0c08bf8","address":"4529 Kingwood Dr","location":{"type":"Point","coordinates":[-95.4781046288189,30.0277350298837]},"isApproved":true,"items":[],"keys":["Tacos","Breakfast & Brunch"],"lastUpdated":1547527612436,"name":"Torchy’s Tacos","phone":"(346) 251-0742","price":"$","reviewCount":135,"reviewScore":3.5,"meta":{"revision":0,"created":1547531156545,"version":0},"$loki":116},{"_id":"5c3d65bd3525a329e0c145ff","address":"4223 Research Forest Dr","location":{"type":"Point","coordinates":[-95.48029,30.029332]},"isApproved":true,"items":[],"keys":["Shanghainese"],"lastUpdated":1547527612715,"name":"Shanghai Bistro","phone":"(281) 298-9998","price":"$$","reviewCount":99,"reviewScore":3.5,"meta":{"revision":0,"created":1547531156545,"version":0},"$loki":117},{"_id":"5c3d65bd3525a329e0c07bf7","address":"9803 Spring Cypress Rd","location":{"type":"Point","coordinates":[-95.4788563,30.0288264]},"isApproved":true,"items":[],"keys":["Cajun/Creole","American (New)"],"lastUpdated":1547527612410,"name":"The Bayou Cajun Cafe","phone":"(281) 257-5922","price":"$$","reviewCount":65,"reviewScore":4,"meta":{"revision":0,"created":1547531156545,"version":0},"$loki":118},{"_id":"5c3d65bd3525a329e0c0420a","address":"3040 Fm 1960","location":{"type":"Point","coordinates":[-95.4847344,30.0430825]},"isApproved":true,"items":[],"keys":["Juice Bars & Smoothies","Ice Cream & Frozen Yogurt","Mexican"],"lastUpdated":1547527612321,"name":"El Kiosko","phone":"(713) 763-8078","price":"$","reviewCount":15,"reviewScore":4,"meta":{"revision":0,"created":1547531156545,"version":0},"$loki":119},{"_id":"5c3d65bd3525a329e0c1779a","address":"1155 Lake Woodlands Dr","location":{"type":"Point","coordinates":[-95.4860329,30.0425961]},"isApproved":true,"items":[],"keys":["Italian"],"lastUpdated":1547527612791,"name":"Romano’s Macaroni Grill","phone":"(281) 367-3773","price":"$$","reviewCount":95,"reviewScore":3,"meta":{"revision":0,"created":1547531156545,"version":0},"$loki":120},{"_id":"5c3d65bd3525a329e0bffe36","address":"2300 Woodforest Pkwy N","location":{"type":"Point","coordinates":[-95.4858508,30.0413382]},"isApproved":true,"items":[],"keys":["Pizza"],"lastUpdated":1547527612222,"name":"Crust Pizza","phone":"(936) 588-6911","price":"","reviewCount":4,"reviewScore":4.5,"meta":{"revision":0,"created":1547531156545,"version":0},"$loki":121},{"_id":"5c3d65bd3525a329e0c06e07","address":"7316 Louetta Rd","location":{"type":"Point","coordinates":[-95.487375923254,30.0388950670203]},"isApproved":true,"items":[],"keys":["Mediterranean","Greek"],"lastUpdated":1547527612387,"name":"Olivit Mediterranean Grill","phone":"(281) 257-4445","price":"$$","reviewCount":190,"reviewScore":4,"meta":{"revision":0,"created":1547531156545,"version":0},"$loki":122},{"_id":"5c3d65bd3525a329e0c0d615","address":"19411 Kuykendahl Rd","location":{"type":"Point","coordinates":[-95.4872478,30.0382076]},"isApproved":true,"items":[],"keys":["Mexican"],"lastUpdated":1547527612548,"name":"Taqueria El Rodeo De Jalisco","phone":"(281) 251-3186","price":"$","reviewCount":118,"reviewScore":4,"meta":{"revision":0,"created":1547531156545,"version":0},"$loki":123},{"_id":"5c3d65bd3525a329e0c089fc","address":"7 Switchbud Pl","location":{"type":"Point","coordinates":[-95.4869003295898,30.0377635955811]},"isApproved":true,"items":[],"keys":["Chinese","Seafood"],"lastUpdated":1547527612430,"name":"Chef Chan’s","phone":"(281) 363-0037","price":"$$","reviewCount":94,"reviewScore":3.5,"meta":{"revision":0,"created":1547531156545,"version":0},"$loki":124},{"_id":"5c3d65bd3525a329e0c00ac5","address":"466 Rayford Rd","location":{"type":"Point","coordinates":[-95.4917509,30.0391528]},"isApproved":true,"items":[],"keys":["Burgers","Sports Bars"],"lastUpdated":1547527612230,"name":"3B’s Burgers & Beer","phone":"(281) 419-3553","price":"$$","reviewCount":100,"reviewScore":3.5,"meta":{"revision":0,"created":1547531156545,"version":0},"$loki":125},{"_id":"5c3d65bd3525a329e0c0ca1e","address":"1027 Sawdust Rd","location":{"type":"Point","coordinates":[-95.4944543,30.0380096]},"isApproved":true,"items":[],"keys":["Sports Bars","American (Traditional)"],"lastUpdated":1547527612532,"name":"Ronny G’s","phone":"(346) 831-0953","price":"$$","reviewCount":52,"reviewScore":4.5,"meta":{"revision":0,"created":1547531156545,"version":0},"$loki":126},{"_id":"5c3d65bd3525a329e0c0eca8","address":"10 FM 1960 Rd W","location":{"type":"Point","coordinates":[-95.4967488,30.0346736]},"isApproved":true,"items":[],"keys":["Mexican","Tex-Mex"],"lastUpdated":1547527612582,"name":"Cilantros Mexican Restaurant","phone":"(281) 580-0082","price":"$$","reviewCount":65,"reviewScore":3,"meta":{"revision":0,"created":1547531156545,"version":0},"$loki":127},{"_id":"5c3d65bd3525a329e0c17ccd","address":"20030 US Hwy 59 N","location":{"type":"Point","coordinates":[-95.5130950460114,30.027197882068]},"isApproved":true,"items":[],"keys":["Salad","Soup","Buffets"],"lastUpdated":1547527612800,"name":"Souper Salad","phone":"(281) 548-1122","price":"$","reviewCount":44,"reviewScore":3,"meta":{"revision":0,"created":1547531156545,"version":0},"$loki":128},{"_id":"5c3d65bd3525a329e0c01ea5","address":"2907 Rayford Rd","location":{"type":"Point","coordinates":[-95.5128444323353,30.027991328278]},"isApproved":true,"items":[],"keys":["Asian Fusion"],"lastUpdated":1547527612260,"name":"Spring Asian Cusine","phone":"(281) 298-7798","price":"$$","reviewCount":43,"reviewScore":3.5,"meta":{"revision":0,"created":1547531156545,"version":0},"$loki":129},{"_id":"5c3d65bd3525a329e0c1ae66","address":"7 Switchbud Pl","location":{"type":"Point","coordinates":[-95.5182843,30.0246602]},"isApproved":true,"items":[],"keys":["Sandwiches"],"lastUpdated":1547527612876,"name":"Mainely Sandwiches","phone":"(281) 719-5828","price":"$$","reviewCount":34,"reviewScore":3.5,"meta":{"revision":0,"created":1547531156545,"version":0},"$loki":130},{"_id":"5c3d65bd3525a329e0c0758e","address":"810 North Washington Ave","location":{"type":"Point","coordinates":[-95.514852,30.0118828992204]},"isApproved":true,"items":[],"keys":["Mexican"],"lastUpdated":1547527612401,"name":"El Ranchito","phone":"(281) 432-2363","price":"$","reviewCount":3,"reviewScore":2.5,"meta":{"revision":0,"created":1547531156545,"version":0},"$loki":131},{"_id":"5c3d65bd3525a329e0c0970f","address":"9595 Six Pines Dr","location":{"type":"Point","coordinates":[-95.5151721906246,30.0123288486623]},"isApproved":true,"items":[],"keys":["American (New)","Steakhouses","American (Traditional)"],"lastUpdated":1547527612454,"name":"Jaspers The Woodlands","phone":"(281) 298-6600","price":"$$$","reviewCount":341,"reviewScore":3.5,"meta":{"revision":0,"created":1547531156545,"version":0},"$loki":132},{"_id":"5c3d65bd3525a329e0c17612","address":"204 West Highway 90","location":{"type":"Point","coordinates":[-95.5131917,30.0107267]},"isApproved":true,"items":[],"keys":["Southern","Chicken Shop","Fast Food"],"lastUpdated":1547527612791,"name":"Hartz Chicken Buffet","phone":"(936) 258-1919","price":"$","reviewCount":5,"reviewScore":3,"meta":{"revision":0,"created":1547531156545,"version":0},"$loki":133},{"_id":"5c3d65bd3525a329e0c09f14","address":"850 W Fm 1960 Rd","location":{"type":"Point","coordinates":[-95.5126487,30.0110555]},"isApproved":true,"items":[],"keys":["Thai"],"lastUpdated":1547527612472,"name":"Nara Thai 1960","phone":"(346) 270-2109","price":"$$","reviewCount":99,"reviewScore":4,"meta":{"revision":0,"created":1547531156545,"version":0},"$loki":134},{"_id":"5c3d65bd3525a329e0c053f9","address":"346 Fm 1960 W","location":{"type":"Point","coordinates":[-95.540099,30.01296]},"isApproved":true,"items":[],"keys":["Chinese"],"lastUpdated":1547527612346,"name":"Great Wall","phone":"(281) 583-5188","price":"$","reviewCount":54,"reviewScore":4,"meta":{"revision":0,"created":1547531156545,"version":0},"$loki":135},{"_id":"5c3d65bd3525a329e0c04b3c","address":"51 W Main St","location":{"type":"Point","coordinates":[-95.5392948,30.0129997]},"isApproved":true,"items":[],"keys":["Mexican"],"lastUpdated":1547527612331,"name":"Taqueria La Lupita","phone":"(832) 644-8084","price":"$","reviewCount":23,"reviewScore":4.5,"meta":{"revision":0,"created":1547531156545,"version":0},"$loki":136},{"_id":"5c3d65bd3525a329e0c069bb","address":"3335 College Park Dr","location":{"type":"Point","coordinates":[-95.5381228,30.0134675]},"isApproved":true,"items":[],"keys":["Coffee & Tea","Bubble Tea","Vegetarian"],"lastUpdated":1547527612379,"name":"DrinkabiliTea Cafe","phone":"(936) 231-8989","price":"$","reviewCount":110,"reviewScore":4.5,"meta":{"revision":0,"created":1547531156545,"version":0},"$loki":137},{"_id":"5c3d65bd3525a329e0c0c96e","address":"20706 Kuykendahl Rd","location":{"type":"Point","coordinates":[-95.5381467,30.0140382]},"isApproved":true,"items":[],"keys":["Italian"],"lastUpdated":1547527612526,"name":"Vero Italian Kitchen","phone":"(281) 288-2900","price":"$","reviewCount":251,"reviewScore":4.5,"meta":{"revision":0,"created":1547531156545,"version":0},"$loki":138},{"_id":"5c3d65bd3525a329e0c09c1a","address":"9595 Six Pines Dr","location":{"type":"Point","coordinates":[-95.5321687,30.0171322]},"isApproved":true,"items":[],"keys":["Wine Bars","American (New)","Venues & Event Spaces"],"lastUpdated":1547527612465,"name":"CRÚ Food & Wine Bar - The Woodlands","phone":"(281) 465-9463","price":"$$","reviewCount":105,"reviewScore":3.5,"meta":{"revision":0,"created":1547531156545,"version":0},"$loki":139},{"_id":"5c3d65bd3525a329e0c016b7","address":"7110 Louetta Rd","location":{"type":"Point","coordinates":[-95.5213365121581,30.0227645358293]},"isApproved":true,"items":[],"keys":["Seafood"],"lastUpdated":1547527612250,"name":"Drunken Oyster","phone":"(832) 843-6196","price":"$$","reviewCount":149,"reviewScore":4,"meta":{"revision":0,"created":1547531156545,"version":0},"$loki":140},{"_id":"5c3d65bd3525a329e0c0d4c4","address":"300 E HWY 90","location":{"type":"Point","coordinates":[-95.5205182,30.0218888]},"isApproved":true,"items":[],"keys":["Fast Food","Chicken Wings"],"lastUpdated":1547527612547,"name":"Chicken Express","phone":"(936) 391-5166","price":"","reviewCount":3,"reviewScore":4,"meta":{"revision":0,"created":1547531156545,"version":0},"$loki":141},{"_id":"5c3d65bd3525a329e0c18fd5","address":"18310 Interstate 45","location":{"type":"Point","coordinates":[-95.5251298,30.0223932]},"isApproved":true,"items":[],"keys":["Sports Bars","American (Traditional)","Burgers"],"lastUpdated":1547527612832,"name":"Twin Peaks","phone":"(346) 226-2452","price":"$$","reviewCount":166,"reviewScore":3.5,"meta":{"revision":0,"created":1547531156545,"version":0},"$loki":142},{"_id":"5c3d65bd3525a329e0c0952b","address":"30420 Fm 2978","location":{"type":"Point","coordinates":[-95.526837,30.02278]},"isApproved":true,"items":[],"keys":["Tea Rooms","Bakeries","Breakfast & Brunch"],"lastUpdated":1547527612453,"name":"Hummingbird Tea Room & Bakery","phone":"(281) 419-8362","price":"$","reviewCount":100,"reviewScore":4.5,"meta":{"revision":0,"created":1547531156545,"version":0},"$loki":143},{"_id":"5c3d65bd3525a329e0c12a5b","address":"7312 Louetta Rd","location":{"type":"Point","coordinates":[-95.5271077612049,30.020764560589]},"isApproved":true,"items":[],"keys":["Japanese","Sushi Bars"],"lastUpdated":1547527612679,"name":"Akaihi Japanese Restaurant","phone":"(832) 717-4999","price":"$$","reviewCount":137,"reviewScore":3.5,"meta":{"revision":0,"created":1547531156545,"version":0},"$loki":144},{"_id":"5c3d65bd3525a329e0c18d81","address":"9440 Louetta Rd","location":{"type":"Point","coordinates":[-95.5270209,30.0203753]},"isApproved":true,"items":[],"keys":["Mexican","Food Trucks"],"lastUpdated":1547527612831,"name":"Taqueria Lupita","phone":"(713) 528-0797","price":"$","reviewCount":14,"reviewScore":4.5,"meta":{"revision":0,"created":1547531156545,"version":0},"$loki":145},{"_id":"5c3d65bd3525a329e0c1b2ab","address":"3838 Fm 2920 Rd","location":{"type":"Point","coordinates":[-95.5270209,30.0203753]},"isApproved":true,"items":[],"keys":["Mexican","Breakfast & Brunch","Tex-Mex"],"lastUpdated":1547527612878,"name":"Taqueria El Real","phone":"(281) 771-3881","price":"$","reviewCount":93,"reviewScore":4,"meta":{"revision":0,"created":1547531156545,"version":0},"$loki":146},{"_id":"5c3d65bd3525a329e0c0c10f","address":"204 Charles St","location":{"type":"Point","coordinates":[-95.526931,30.022955]},"isApproved":true,"items":[],"keys":["Sandwiches"],"lastUpdated":1547527612516,"name":"Kay’s PO Boys","phone":"(281) 446-2662","price":"$","reviewCount":26,"reviewScore":4.5,"meta":{"revision":0,"created":1547531156545,"version":0},"$loki":147},{"_id":"5c3d65bd3525a329e0c16303","address":"6334 Fm 2920 Rd","location":{"type":"Point","coordinates":[-95.5302337,30.0314279]},"isApproved":true,"items":[],"keys":["Italian"],"lastUpdated":1547527612763,"name":"Grazie Italian Restaurant","phone":"(281) 376-4800","price":"$$","reviewCount":68,"reviewScore":3,"meta":{"revision":0,"created":1547531156545,"version":0},"$loki":148},{"_id":"5c3d65bd3525a329e0c06eb7","address":"8510 Spring Cypress Rd","location":{"type":"Point","coordinates":[-95.552931,30.036272]},"isApproved":true,"items":[],"keys":["Fast Food"],"lastUpdated":1547527612387,"name":"Chick-fil-A","phone":"(281) 251-0996","price":"","reviewCount":11,"reviewScore":3.5,"meta":{"revision":0,"created":1547531156545,"version":0},"$loki":149},{"_id":"5c3d65bd3525a329e0c0b7ad","address":"8610 Louetta Rd","location":{"type":"Point","coordinates":[-95.5420708049544,30.0111129977618]},"isApproved":true,"items":[],"keys":["Pizza"],"lastUpdated":1547527612505,"name":"Flamin’ Stone","phone":"(832) 843-6201","price":"$","reviewCount":85,"reviewScore":4,"meta":{"revision":0,"created":1547531156545,"version":0},"$loki":150},{"_id":"5c3d65bd3525a329e0c0970a","address":"831 South US 59","location":{"type":"Point","coordinates":[-95.545858,30.008147]},"isApproved":true,"items":[],"keys":["Sandwiches","Delis"],"lastUpdated":1547527612454,"name":"Schlotzsky’s","phone":"(832) 966-9669","price":"","reviewCount":2,"reviewScore":2.5,"meta":{"revision":0,"created":1547531156545,"version":0},"$loki":151},{"_id":"5c3d65bd3525a329e0c11b98","address":"15361 1st St","location":{"type":"Point","coordinates":[-95.5508917851407,30.0066845970296]},"isApproved":true,"items":[],"keys":["Bars","Steakhouses"],"lastUpdated":1547527612659,"name":"Montana Steak House And Saloon","phone":"(281) 689-7332","price":"","reviewCount":2,"reviewScore":2.5,"meta":{"revision":0,"created":1547531156545,"version":0},"$loki":152},{"_id":"5c3d65bd3525a329e0c107ab","address":"9203 Louetta Rd","location":{"type":"Point","coordinates":[-95.5488992,30.0067401]},"isApproved":true,"items":[],"keys":["Pizza"],"lastUpdated":1547527612619,"name":"Tony’s New York Pizza II","phone":"(281) 251-4513","price":"$","reviewCount":142,"reviewScore":4,"meta":{"revision":0,"created":1547531156545,"version":0},"$loki":153},{"_id":"5c3d65bd3525a329e0c182cd","address":"14954 Hwy 105 W","location":{"type":"Point","coordinates":[-95.5476665,30.0072885]},"isApproved":true,"items":[],"keys":["Chicken Wings","Bars"],"lastUpdated":1547527612813,"name":"Wolfies","phone":"(936) 588-8200","price":"$$","reviewCount":159,"reviewScore":2,"meta":{"revision":0,"created":1547531156545,"version":0},"$loki":154},{"_id":"5c3d65bd3525a329e0c0035a","address":"10675 Hwy 242","location":{"type":"Point","coordinates":[-95.5549493074097,30.0045822353917]},"isApproved":true,"items":[],"keys":["Gas Stations","Convenience Stores","Delis"],"lastUpdated":1547527612225,"name":"Amato’s Food Mart","phone":"(936) 273-2377","price":"","reviewCount":1,"reviewScore":5,"meta":{"revision":0,"created":1547531156545,"version":0},"$loki":155},{"_id":"5c3d65bd3525a329e0c05c9d","address":"24890 Fm 1314 Rd","location":{"type":"Point","coordinates":[-95.5548065803566,30.0052963907496]},"isApproved":true,"items":[],"keys":["Steakhouses"],"lastUpdated":1547527612357,"name":"Hofbrau Steaks","phone":"(281) 354-8854","price":"$$","reviewCount":95,"reviewScore":3.5,"meta":{"revision":0,"created":1547531156545,"version":0},"$loki":156},{"_id":"5c3d65bd3525a329e0c04142","address":"1275 Kingwood Dr","location":{"type":"Point","coordinates":[-95.554448,30.004376]},"isApproved":true,"items":[],"keys":["Delis","Sandwiches","Salad"],"lastUpdated":1547527612320,"name":"Jason’s Deli","phone":"(281) 358-2603","price":"$$","reviewCount":43,"reviewScore":3.5,"meta":{"revision":0,"created":1547531156545,"version":0},"$loki":157},{"_id":"5c3d65bd3525a329e0c05093","address":"21001 Interstate 45","location":{"type":"Point","coordinates":[-95.5575031,30.0032315]},"isApproved":true,"items":[],"keys":["American (Traditional)","Comfort Food","Bars"],"lastUpdated":1547527612340,"name":"Cheddar’s Scratch Kitchen","phone":"(281) 528-7629","price":"$$","reviewCount":239,"reviewScore":2.5,"meta":{"revision":0,"created":1547531156545,"version":0},"$loki":158},{"_id":"5c3d65bd3525a329e0c1a083","address":"3 Waterway Square","location":{"type":"Point","coordinates":[-95.5607757,30.0001268]},"isApproved":true,"items":[],"keys":["American (New)","Sushi Bars","Cocktail Bars"],"lastUpdated":1547527612857,"name":"Kona Grill","phone":"(281) 466-4061","price":"$$","reviewCount":245,"reviewScore":3.5,"meta":{"revision":0,"created":1547531156545,"version":0},"$loki":159},{"_id":"5c3d65bd3525a329e0c00bdf","address":"2115 Rayford Rd","location":{"type":"Point","coordinates":[-95.560803,30.000182]},"isApproved":true,"items":[],"keys":["Sushi Bars","Steakhouses","Japanese"],"lastUpdated":1547527612230,"name":"Kan’s Sushi & Steakhouse","phone":"(832) 823-4881","price":"$$","reviewCount":96,"reviewScore":3.5,"meta":{"revision":0,"created":1547531156545,"version":0},"$loki":160},{"_id":"5c3d65bd3525a329e0c031a9","address":"24 Waterway Ave","location":{"type":"Point","coordinates":[-95.560878,30.000111]},"isApproved":true,"items":[],"keys":["Bars","American (New)"],"lastUpdated":1547527612296,"name":"Bar Louie","phone":"(281) 719-1900","price":"$$","reviewCount":259,"reviewScore":3,"meta":{"revision":0,"created":1547531156545,"version":0},"$loki":161},{"_id":"5c3d65bd3525a329e0c03281","address":"19333 David Memorial Dr","location":{"type":"Point","coordinates":[-95.5611126,29.9999285]},"isApproved":true,"items":[],"keys":["Steakhouses","Italian","Seafood"],"lastUpdated":1547527612296,"name":"Johnny’s Italian Steakhouse","phone":"(346) 331-2060","price":"$$","reviewCount":98,"reviewScore":4,"meta":{"revision":0,"created":1547531156545,"version":0},"$loki":162},{"_id":"5c3d65bd3525a329e0c114fb","address":"820 Cypress Creek Pkwy","location":{"type":"Point","coordinates":[-95.4882679,29.9179181]},"isApproved":true,"items":[],"keys":["Delis","Sandwiches"],"lastUpdated":1547527612643,"name":"4 Girls Deli","phone":"(281) 444-6800","price":"$","reviewCount":78,"reviewScore":4.5,"meta":{"revision":0,"created":1547531156545,"version":0},"$loki":163},{"_id":"5c3d65bd3525a329e0c0e338","address":"19529 Interstate 45","location":{"type":"Point","coordinates":[-95.6348694,29.9167015]},"isApproved":true,"items":[],"keys":["Seafood","Cajun/Creole"],"lastUpdated":1547527612572,"name":"Babin’s Seafood House","phone":"(281) 296-8829","price":"$$","reviewCount":125,"reviewScore":4,"meta":{"revision":0,"created":1547531156545,"version":0},"$loki":164},{"_id":"5c3d65bd3525a329e0c0eb06","address":"6243 Fm 1960","location":{"type":"Point","coordinates":[-95.5724401282448,29.9948578498437]},"isApproved":true,"items":[],"keys":["Mexican","Spanish","Food Trucks"],"lastUpdated":1547527612581,"name":"Cinco’s Taco House","phone":"(832) 515-8675","price":"","reviewCount":1,"reviewScore":5,"meta":{"revision":0,"created":1547531156545,"version":0},"$loki":165},{"_id":"5c3d65bd3525a329e0c13924","address":"6450 Louetta Rd","location":{"type":"Point","coordinates":[-95.5723461322632,29.994479674743]},"isApproved":true,"items":[],"keys":["Pizza"],"lastUpdated":1547527612698,"name":"Jackpot Pizza","phone":"(281) 257-0762","price":"$$","reviewCount":86,"reviewScore":4,"meta":{"revision":0,"created":1547531156545,"version":0},"$loki":166},{"_id":"5c3d65bd3525a329e0c19747","address":"1118 League Line Rd","location":{"type":"Point","coordinates":[-95.5720041226845,29.9943541670463]},"isApproved":true,"items":[],"keys":["Mexican","Wine Bars","Soup"],"lastUpdated":1547527612841,"name":"Mama Juanita’s","phone":"(936) 856-9012","price":"$$","reviewCount":101,"reviewScore":3,"meta":{"revision":0,"created":1547531156545,"version":0},"$loki":167},{"_id":"5c3d65bd3525a329e0c12a76","address":"25602 Interstate 45","location":{"type":"Point","coordinates":[-95.5718195,29.9944801]},"isApproved":true,"items":[],"keys":["Seafood","Tex-Mex","Mexican"],"lastUpdated":1547527612679,"name":"Ostioneria Acapulco","phone":"","price":"$","reviewCount":3,"reviewScore":4.5,"meta":{"revision":0,"created":1547531156545,"version":0},"$loki":168},{"_id":"5c3d65bd3525a329e0c04760","address":"1440 Sawdust Rd","location":{"type":"Point","coordinates":[-95.5720014370178,29.9944648137595]},"isApproved":true,"items":[],"keys":["Mexican"],"lastUpdated":1547527612329,"name":"Red Salsa Tacos & More","phone":"(281) 465-9255","price":"$","reviewCount":165,"reviewScore":4,"meta":{"revision":0,"created":1547531156545,"version":0},"$loki":169},{"_id":"5c3d65bd3525a329e0c067a9","address":"7725 Fm 1960 Bypass Rd W","location":{"type":"Point","coordinates":[-95.5719778441958,29.9947455438592]},"isApproved":true,"items":[],"keys":["Food Trucks","Mediterranean","Indian"],"lastUpdated":1547527612378,"name":"Guilty Trips","phone":"(281) 706-4022","price":"","reviewCount":5,"reviewScore":4,"meta":{"revision":0,"created":1547531156545,"version":0},"$loki":170},{"_id":"5c3d65bd3525a329e0c01f09","address":"417 Gentry St","location":{"type":"Point","coordinates":[-95.5667746067047,29.9978340587857]},"isApproved":true,"items":[],"keys":["Cafes","Breakfast & Brunch","Coffee Roasteries"],"lastUpdated":1547527612261,"name":"The Blue Giraffe","phone":"(281) 288-4233","price":"$","reviewCount":54,"reviewScore":3.5,"meta":{"revision":0,"created":1547531156545,"version":0},"$loki":171},{"_id":"5c3d65bd3525a329e0c0c931","address":"Wildwood Forest","location":{"type":"Point","coordinates":[-95.5711119337924,29.9960918087061]},"isApproved":true,"items":[],"keys":["Irish"],"lastUpdated":1547527612526,"name":"Molly’s Pub","phone":"","price":"","reviewCount":1,"reviewScore":5,"meta":{"revision":0,"created":1547531156545,"version":0},"$loki":172},{"_id":"5c3d65bd3525a329e0c03016","address":"20430 Highway 59 N","location":{"type":"Point","coordinates":[-95.5715629784348,29.9952585818553]},"isApproved":true,"items":[],"keys":["American (Traditional)"],"lastUpdated":1547527612295,"name":"TGI Fridays","phone":"(281) 540-1375","price":"$$","reviewCount":73,"reviewScore":3,"meta":{"revision":0,"created":1547531156545,"version":0},"$loki":173},{"_id":"5c3d65bd3525a329e0c09428","address":"314 Sawdust Rd","location":{"type":"Point","coordinates":[-95.5721477,29.9953666]},"isApproved":true,"items":[],"keys":["Vietnamese","Soup"],"lastUpdated":1547527612453,"name":"Pho Be","phone":"(281) 465-9598","price":"$$","reviewCount":121,"reviewScore":3,"meta":{"revision":0,"created":1547531156545,"version":0},"$loki":174},{"_id":"5c3d65bd3525a329e0c1aaaa","address":"3403 Louetta Rd","location":{"type":"Point","coordinates":[-95.5739118,29.9957872]},"isApproved":true,"items":[],"keys":["Mexican"],"lastUpdated":1547527612868,"name":"Cisco’s Taqueria","phone":"(281) 528-0700","price":"$","reviewCount":20,"reviewScore":4.5,"meta":{"revision":0,"created":1547531156545,"version":0},"$loki":175},{"_id":"5c3d65bd3525a329e0c18292","address":"1201 Lake Woodlands Dr","location":{"type":"Point","coordinates":[-95.5819855,29.9971906]},"isApproved":true,"items":[],"keys":["Chinese","Gluten-Free","Asian Fusion"],"lastUpdated":1547527612813,"name":"P.F. Chang’s","phone":"(281) 203-6350","price":"$$","reviewCount":128,"reviewScore":3.5,"meta":{"revision":0,"created":1547531156545,"version":0},"$loki":176},{"_id":"5c3d65bd3525a329e0c05620","address":"8540 Hwy 242","location":{"type":"Point","coordinates":[-95.5652557,30.0113216]},"isApproved":true,"items":[],"keys":["Sports Bars","American (Traditional)"],"lastUpdated":1547527612348,"name":"242 Pub & Grill - Conroe","phone":"(936) 271-4200","price":"$","reviewCount":44,"reviewScore":4,"meta":{"revision":0,"created":1547531156545,"version":0},"$loki":177},{"_id":"5c3d65bd3525a329e0c127b1","address":"9305 Spring Cypress Rd","location":{"type":"Point","coordinates":[-95.561838869329,30.0268171651589]},"isApproved":true,"items":[],"keys":["Seafood","Bars","Cajun/Creole"],"lastUpdated":1547527612672,"name":"Bleu Oyster Bar and Seafood","phone":"(281) 251-0596","price":"$$","reviewCount":165,"reviewScore":3.5,"meta":{"revision":0,"created":1547531156545,"version":0},"$loki":178},{"_id":"5c3d65bd3525a329e0c123bd","address":"209 1st St E","location":{"type":"Point","coordinates":[-95.5947986,30.0156523]},"isApproved":true,"items":[],"keys":["Vietnamese","Soup"],"lastUpdated":1547527612670,"name":"Pho An Restaurant","phone":"(281) 446-4320","price":"$","reviewCount":78,"reviewScore":3.5,"meta":{"revision":0,"created":1547531156545,"version":0},"$loki":179},{"_id":"5c3d65bd3525a329e0c0d834","address":"2477 Louetta Rd","location":{"type":"Point","coordinates":[-95.5924454404754,30.0134087848805]},"isApproved":true,"items":[],"keys":["Food Trucks","Mexican"],"lastUpdated":1547527612555,"name":"El Rapido Food Truck","phone":"(832) 515-2885","price":"$","reviewCount":3,"reviewScore":5,"meta":{"revision":0,"created":1547531156545,"version":0},"$loki":180},{"_id":"5c3d65bd3525a329e0c12a50","address":"525 Sawdust Rd","location":{"type":"Point","coordinates":[-95.5878642226447,30.0109942620712]},"isApproved":true,"items":[],"keys":["Vegetarian","Juice Bars & Smoothies","Caterers"],"lastUpdated":1547527612679,"name":"Pure Healthy Eatery","phone":"(832) 299-6765","price":"$$","reviewCount":85,"reviewScore":4,"meta":{"revision":0,"created":1547531156545,"version":0},"$loki":181},{"_id":"5c3d65bd3525a329e0c11998","address":"9595 Six Pines Dr","location":{"type":"Point","coordinates":[-95.587423990199,30.0090933520272]},"isApproved":true,"items":[],"keys":["Coffee & Tea","Breakfast & Brunch","Bakeries"],"lastUpdated":1547527612651,"name":"Levure Bakery & Patisserie","phone":"(281) 419-1260","price":"","reviewCount":19,"reviewScore":3,"meta":{"revision":0,"created":1547531156545,"version":0},"$loki":182},{"_id":"5c3d65bd3525a329e0c09e22","address":"","location":{"type":"Point","coordinates":[-95.58640498561,30.008444812794]},"isApproved":true,"items":[],"keys":["Food Trucks","Asian Fusion","Chicken Wings"],"lastUpdated":1547527612471,"name":"Kaow","phone":"(281) 948-3668","price":"","reviewCount":2,"reviewScore":4.5,"meta":{"revision":0,"created":1547531156545,"version":0},"$loki":183},{"_id":"5c3d65bd3525a329e0c02b50","address":"5200 F M 2920","location":{"type":"Point","coordinates":[-95.5844107,30.0002279]},"isApproved":true,"items":[],"keys":["American (Traditional)","Breakfast & Brunch"],"lastUpdated":1547527612286,"name":"Waterfalls Cafe","phone":"(346) 224-8555","price":"$","reviewCount":50,"reviewScore":3.5,"meta":{"revision":0,"created":1547531156545,"version":0},"$loki":184},{"_id":"5c3d65bd3525a329e0c0f118","address":"1604 N Frazier St","location":{"type":"Point","coordinates":[-95.5924316,29.9971937]},"isApproved":true,"items":[],"keys":["Italian","Pizza","Salad"],"lastUpdated":1547527612590,"name":"Joe’s Italian Restaurant","phone":"(936) 760-9002","price":"$$","reviewCount":160,"reviewScore":4.5,"meta":{"revision":0,"created":1547531156545,"version":0},"$loki":185},{"_id":"5c3d65bd3525a329e0c15e4b","address":"2017 N Fraizer St","location":{"type":"Point","coordinates":[-95.5924316,29.9971937]},"isApproved":true,"items":[],"keys":["Mexican"],"lastUpdated":1547527612755,"name":"El Tri Mexican Restaurant","phone":"(936) 756-0626","price":"$","reviewCount":20,"reviewScore":4,"meta":{"revision":0,"created":1547531156545,"version":0},"$loki":186},{"_id":"5c3d65bd3525a329e0c0d5e7","address":"1704 Avenue H","location":{"type":"Point","coordinates":[-95.6142558,29.5662952]},"isApproved":true,"items":[],"keys":["Fast Food","Burgers","Ice Cream & Frozen Yogurt"],"lastUpdated":1547527612548,"name":"Sonic Drive-In","phone":"(713) 342-8788","price":"","reviewCount":14,"reviewScore":1.5,"meta":{"revision":0,"created":1547531156545,"version":0},"$loki":187},{"_id":"5c3d65bd3525a329e0c00c78","address":"819 2nd St","location":{"type":"Point","coordinates":[-95.8105119840415,29.6285434348687]},"isApproved":true,"items":[],"keys":["Cafes"],"lastUpdated":1547527612231,"name":"Donna’s Place","phone":"","price":"","reviewCount":1,"reviewScore":3,"meta":{"revision":0,"created":1547531156545,"version":0},"$loki":188},{"_id":"5c3d65bd3525a329e0c158b4","address":"1300 1st St","location":{"type":"Point","coordinates":[-95.811136,29.630274]},"isApproved":true,"items":[],"keys":["Chicken Wings","Fast Food"],"lastUpdated":1547527612747,"name":"Popeyes Louisiana Kitchen","phone":"(281) 344-8800","price":"","reviewCount":7,"reviewScore":1,"meta":{"revision":0,"created":1547531156545,"version":0},"$loki":189},{"_id":"5c3d65bd3525a329e0c18157","address":"20071 I-45 N","location":{"type":"Point","coordinates":[-95.5728707205774,30.0554615383814]},"isApproved":true,"items":[],"keys":["Sushi Bars"],"lastUpdated":1547527612809,"name":"Rock N Roll Sushi","phone":"(346) 268-7050","price":"","reviewCount":50,"reviewScore":4,"meta":{"revision":0,"created":1547531156545,"version":0},"$loki":190},{"_id":"5c3d65bd3525a329e0c15578","address":"20444 Kuykendahl Rd","location":{"type":"Point","coordinates":[-95.504956394434,30.0682365518886]},"isApproved":true,"items":[],"keys":["Mexican"],"lastUpdated":1547527612745,"name":"El Chaparro","phone":"(281) 719-5964","price":"$$","reviewCount":41,"reviewScore":4,"meta":{"revision":0,"created":1547531156545,"version":0},"$loki":191},{"_id":"5c3d65bd3525a329e0c09fab","address":"17249-17269 Farm 1485 Rd","location":{"type":"Point","coordinates":[-95.505072,30.068135]},"isApproved":true,"items":[],"keys":["Mexican"],"lastUpdated":1547527612472,"name":"Taqueria El Rey","phone":"(281) 399-7363","price":"","reviewCount":1,"reviewScore":5,"meta":{"revision":0,"created":1547531156545,"version":0},"$loki":192},{"_id":"5c3d65bd3525a329e0c0986d","address":"24814 Stanolind Rd","location":{"type":"Point","coordinates":[-95.5077932,30.0706124]},"isApproved":true,"items":[],"keys":["Southern","American (Traditional)"],"lastUpdated":1547527612461,"name":"Mel’s Country Cafe","phone":"(281) 255-6357","price":"$$","reviewCount":375,"reviewScore":4.5,"meta":{"revision":0,"created":1547531156545,"version":0},"$loki":193},{"_id":"5c3d65bd3525a329e0c14d04","address":"19940 Kuykendahl Rd","location":{"type":"Point","coordinates":[-95.4987597,30.0618606]},"isApproved":true,"items":[],"keys":["Cajun/Creole","Seafood","Southern"],"lastUpdated":1547527612729,"name":"Bebe’s Crav’n Cajun","phone":"(832) 764-2878","price":"$","reviewCount":30,"reviewScore":4.5,"meta":{"revision":0,"created":1547531156545,"version":0},"$loki":194},{"_id":"5c3d65bd3525a329e0c15d79","address":"114 Vintage Park Blvd","location":{"type":"Point","coordinates":[-95.497874,30.06197]},"isApproved":true,"items":[],"keys":["Creperies"],"lastUpdated":1547527612755,"name":"CoCo Crepes, Waffles & Coffee","phone":"(281) 378-7600","price":"$","reviewCount":309,"reviewScore":4,"meta":{"revision":0,"created":1547531156545,"version":0},"$loki":195},{"_id":"5c3d65bd3525a329e0c113d0","address":"2971 Hawthorne Dr","location":{"type":"Point","coordinates":[-95.4947834,30.0566886]},"isApproved":true,"items":[],"keys":["American (New)","Breakfast & Brunch","Cafes"],"lastUpdated":1547527612642,"name":"Black Walnut Café","phone":"(936) 202-2824","price":"$$","reviewCount":74,"reviewScore":4,"meta":{"revision":0,"created":1547531156545,"version":0},"$loki":196},{"_id":"5c3d65bd3525a329e0c176f8","address":"22598 Community Dr","location":{"type":"Point","coordinates":[-95.4947834,30.0566886]},"isApproved":true,"items":[],"keys":["American (New)","Breakfast & Brunch"],"lastUpdated":1547527612791,"name":"Fat Boy’s Restaurant","phone":"(281) 354-2040","price":"$","reviewCount":23,"reviewScore":4,"meta":{"revision":0,"created":1547531156545,"version":0},"$loki":197},{"_id":"5c3d65bd3525a329e0c00b0e","address":"9595 Six Pines Dr","location":{"type":"Point","coordinates":[-95.4939012,30.0520506]},"isApproved":true,"items":[],"keys":["Pizza"],"lastUpdated":1547527612230,"name":"South Flo Pizza","phone":"(281) 292-7821","price":"","reviewCount":9,"reviewScore":5,"meta":{"revision":0,"created":1547531156545,"version":0},"$loki":198},{"_id":"5c3d65bd3525a329e0c17801","address":"20205 Hwy 59 N","location":{"type":"Point","coordinates":[-95.4947411,30.0515431]},"isApproved":true,"items":[],"keys":["Chinese","Sushi Bars","Teppanyaki"],"lastUpdated":1547527612792,"name":"Asian City Restaurant","phone":"(281) 319-4567","price":"$$","reviewCount":214,"reviewScore":3.5,"meta":{"revision":0,"created":1547531156545,"version":0},"$loki":199},{"_id":"5c3d65bd3525a329e0c11dc1","address":"7031 Fm 1960 Rd W","location":{"type":"Point","coordinates":[-95.4929998,30.0498382]},"isApproved":true,"items":[],"keys":["Breakfast & Brunch","Mexican"],"lastUpdated":1547527612661,"name":"Rose’s Grill","phone":"(281) 446-3253","price":"","reviewCount":1,"reviewScore":2,"meta":{"revision":0,"created":1547531156545,"version":0},"$loki":200},{"_id":"5c3d65bd3525a329e0c1a4cf","address":"3835 Fm 2920 Rd","location":{"type":"Point","coordinates":[-95.474873,30.070054]},"isApproved":true,"items":[],"keys":["Sandwiches","Vietnamese","Breakfast & Brunch"],"lastUpdated":1547527612859,"name":"Banh Mi Houston","phone":"(281) 651-2263","price":"$","reviewCount":264,"reviewScore":4.5,"meta":{"revision":0,"created":1547531156545,"version":0},"$loki":201},{"_id":"5c3d65bd3525a329e0c03860","address":"604 N Loop 336 W","location":{"type":"Point","coordinates":[-95.4742455403635,30.070233039002]},"isApproved":true,"items":[],"keys":["Vietnamese"],"lastUpdated":1547527612304,"name":"Asian BBQ & Grill","phone":"(936) 539-3995","price":"$","reviewCount":109,"reviewScore":4.5,"meta":{"revision":0,"created":1547531156545,"version":0},"$loki":202},{"_id":"5c3d65bd3525a329e0c0c582","address":"217 E Davis St","location":{"type":"Point","coordinates":[-95.4755426198244,30.0705818831921]},"isApproved":true,"items":[],"keys":["Ice Cream & Frozen Yogurt","American (New)"],"lastUpdated":1547527612524,"name":"The Burger Boy","phone":"(936) 756-3440","price":"$","reviewCount":46,"reviewScore":4,"meta":{"revision":0,"created":1547531156545,"version":0},"$loki":203},{"_id":"5c3d65bd3525a329e0c0a0b3","address":"7316 Louetta Rd","location":{"type":"Point","coordinates":[-95.4681960493326,30.0631322546166]},"isApproved":true,"items":[],"keys":["Ice Cream & Frozen Yogurt","Juice Bars & Smoothies","Mexican"],"lastUpdated":1547527612472,"name":"El Kiosko Frutas Y Helados","phone":"(281) 257-2244","price":"$","reviewCount":49,"reviewScore":4.5,"meta":{"revision":0,"created":1547531156545,"version":0},"$loki":204},{"_id":"5c3d65bd3525a329e0c01131","address":"8000 McBeth Way","location":{"type":"Point","coordinates":[-95.4753616,30.0483446]},"isApproved":true,"items":[],"keys":["Pizza","Chicken Wings","Salad"],"lastUpdated":1547527612239,"name":"Zoner’s Pizza, Wings and Waffles","phone":"(281) 292-7100","price":"$$","reviewCount":42,"reviewScore":4,"meta":{"revision":0,"created":1547531156545,"version":0},"$loki":205},{"_id":"5c3d65bd3525a329e0c0e3fd","address":"16000 Stuebner Airline Rd","location":{"type":"Point","coordinates":[-95.475856,30.0481442]},"isApproved":true,"items":[],"keys":["Pizza","Bars","Sandwiches"],"lastUpdated":1547527612572,"name":"Mellow Mushroom","phone":"(346) 808-7320","price":"$$","reviewCount":374,"reviewScore":4,"meta":{"revision":0,"created":1547531156545,"version":0},"$loki":206},{"_id":"5c3d65bd3525a329e0c1a193","address":"23201 Aldine Westfield Rd","location":{"type":"Point","coordinates":[-95.475856,30.0481442]},"isApproved":true,"items":[],"keys":["Seafood","Steakhouses"],"lastUpdated":1547527612857,"name":"Bay Seafood Grill & Steakhouse","phone":"(281) 355-0950","price":"$","reviewCount":25,"reviewScore":3.5,"meta":{"revision":0,"created":1547531156545,"version":0},"$loki":207},{"_id":"5c3d65bd3525a329e0c03e66","address":"8320 Hwy 242","location":{"type":"Point","coordinates":[-95.4672106727958,30.0518142900198]},"isApproved":true,"items":[],"keys":["Mexican","Fast Food"],"lastUpdated":1547527612313,"name":"Taqueria Los Lira","phone":"(832) 312-3370","price":"$","reviewCount":7,"reviewScore":4.5,"meta":{"revision":0,"created":1547531156545,"version":0},"$loki":208},{"_id":"5c3d65bd3525a329e0c04d91","address":"21710 Kuykendahl Rd","location":{"type":"Point","coordinates":[-95.449157,30.0670706]},"isApproved":true,"items":[],"keys":["Burgers","Fast Food"],"lastUpdated":1547527612338,"name":"Whataburger","phone":"(281) 753-5095","price":"","reviewCount":3,"reviewScore":3.5,"meta":{"revision":0,"created":1547531156545,"version":0},"$loki":209},{"_id":"5c3d65bd3525a329e0c05843","address":"820 N Loop 336 W","location":{"type":"Point","coordinates":[-95.449157,30.0670706]},"isApproved":true,"items":[],"keys":["Mexican"],"lastUpdated":1547527612349,"name":"Taqueria Sol De Mexico","phone":"(936) 756-9316","price":"$$","reviewCount":18,"reviewScore":4,"meta":{"revision":0,"created":1547531156545,"version":0},"$loki":210},{"_id":"5c3d65bd3525a329e0c199de","address":"4750 Fm 2920 Rd","location":{"type":"Point","coordinates":[-95.449157,30.0670706]},"isApproved":true,"items":[],"keys":["American (Traditional)"],"lastUpdated":1547527612848,"name":"The Original Neal’s Restaurant","phone":"(281) 323-4207","price":"$$","reviewCount":25,"reviewScore":3.5,"meta":{"revision":0,"created":1547531156545,"version":0},"$loki":211},{"_id":"5c3d65bd3525a329e0c175d6","address":"4334 FM 2920 Rd","location":{"type":"Point","coordinates":[-95.4470579,30.0638847]},"isApproved":true,"items":[],"keys":["American (Traditional)","Chicken Wings","Hot Dogs"],"lastUpdated":1547527612790,"name":"Jax Burgers Fries Shakes","phone":"(281) 288-7711","price":"$$","reviewCount":181,"reviewScore":4,"meta":{"revision":0,"created":1547531156545,"version":0},"$loki":212},{"_id":"5c3d65bd3525a329e0c1ae07","address":"2021 Louetta Rd","location":{"type":"Point","coordinates":[-95.447151,30.0627888]},"isApproved":true,"items":[],"keys":["Puerto Rican"],"lastUpdated":1547527612875,"name":"El Caribeño","phone":"(281) 818-0239","price":"","reviewCount":3,"reviewScore":5,"meta":{"revision":0,"created":1547531156545,"version":0},"$loki":213},{"_id":"5c3d65bd3525a329e0c0156b","address":"3335 College Park Dr","location":{"type":"Point","coordinates":[-95.454305,30.0588522844381]},"isApproved":true,"items":[],"keys":["Sushi Bars","Chinese","Asian Fusion"],"lastUpdated":1547527612249,"name":"Atsumi Asian Kitchen & Sushi Bar","phone":"(936) 242-0044","price":"$$","reviewCount":178,"reviewScore":4,"meta":{"revision":0,"created":1547531156545,"version":0},"$loki":214},{"_id":"5c3d65bd3525a329e0c056a5","address":"15895 N Fwy","location":{"type":"Point","coordinates":[-95.4375312,30.0512611]},"isApproved":true,"items":[],"keys":["Indian"],"lastUpdated":1547527612348,"name":"Taj Indian Restaurant","phone":"(281) 874-6800","price":"$$","reviewCount":89,"reviewScore":3.5,"meta":{"revision":0,"created":1547531156545,"version":0},"$loki":215},{"_id":"5c3d65bd3525a329e0c036ec","address":"24930 Aldine Westfield Rd","location":{"type":"Point","coordinates":[-95.4358735,30.052252]},"isApproved":true,"items":[],"keys":["Mexican"],"lastUpdated":1547527612304,"name":"Taqueria 3 Sabores","phone":"(832) 283-7740","price":"","reviewCount":3,"reviewScore":4,"meta":{"revision":0,"created":1547531156545,"version":0},"$loki":216},{"_id":"5c3d65bd3525a329e0c0800d","address":"2400 FM 1488","location":{"type":"Point","coordinates":[-95.4411333,30.0642524]},"isApproved":true,"items":[],"keys":["Vietnamese","Noodles"],"lastUpdated":1547527612419,"name":"Saigon USA Pho & Grill","phone":"(936) 271-4555","price":"$$","reviewCount":62,"reviewScore":4,"meta":{"revision":0,"created":1547531156545,"version":0},"$loki":217},{"_id":"5c3d65bd3525a329e0c122d6","address":"6402 Louetta Rd","location":{"type":"Point","coordinates":[-95.4404496029019,30.0643115096574]},"isApproved":true,"items":[],"keys":["Ice Cream & Frozen Yogurt","Desserts","Waffles"],"lastUpdated":1547527612669,"name":"Chill...The Milkshake Bar","phone":"(832) 559-7093","price":"$","reviewCount":184,"reviewScore":4.5,"meta":{"revision":0,"created":1547531156545,"version":0},"$loki":218},{"_id":"5c3d65bd3525a329e0c0cfd6","address":"25629 Hwy 59 N","location":{"type":"Point","coordinates":[-95.4378586,30.0661864]},"isApproved":true,"items":[],"keys":["American (Traditional)","Chicken Wings","Sports Bars"],"lastUpdated":1547527612539,"name":"BreWingZ Restaurant and Bar","phone":"(832) 644-9636","price":"$$","reviewCount":108,"reviewScore":2,"meta":{"revision":0,"created":1547531156545,"version":0},"$loki":219},{"_id":"5c3d65bd3525a329e0c1585a","address":"16882 Stuebner Airline Rd","location":{"type":"Point","coordinates":[-95.4378187,30.0661864]},"isApproved":true,"items":[],"keys":["Pizza","Italian","Chicken Wings"],"lastUpdated":1547527612747,"name":"Korner Slice","phone":"(832) 953-2816","price":"$$","reviewCount":104,"reviewScore":4,"meta":{"revision":0,"created":1547531156545,"version":0},"$loki":220},{"_id":"5c3d65bd3525a329e0c07206","address":"10700 Kuykendahl Rd","location":{"type":"Point","coordinates":[-95.4336632,30.0549083]},"isApproved":true,"items":[],"keys":["Italian","Seafood","Piano Bars"],"lastUpdated":1547527612398,"name":"Via Emilia Italian Restaurant","phone":"(281) 465-9555","price":"$$$","reviewCount":190,"reviewScore":4,"meta":{"revision":0,"created":1547531156545,"version":0},"$loki":221},{"_id":"5c3d65bd3525a329e0c1622d","address":"22510 US Hwy 59","location":{"type":"Point","coordinates":[-95.4354684,30.0539296]},"isApproved":true,"items":[],"keys":["Barbeque","American (Traditional)","Southern"],"lastUpdated":1547527612763,"name":"Dickey’s Barbecue Pit","phone":"(281) 577-0071","price":"","reviewCount":1,"reviewScore":4,"meta":{"revision":0,"created":1547531156545,"version":0},"$loki":222},{"_id":"5c3d65bd3525a329e0c08373","address":"225 Cypresswood Dr","location":{"type":"Point","coordinates":[-95.4344186,30.0521149]},"isApproved":true,"items":[],"keys":["Burgers"],"lastUpdated":1547527612420,"name":"Smashburger","phone":"(281) 466-4704","price":"$","reviewCount":105,"reviewScore":3,"meta":{"revision":0,"created":1547531156545,"version":0},"$loki":223},{"_id":"5c3d65bd3525a329e0c0c32b","address":"2174 Spring Stuebner Rd","location":{"type":"Point","coordinates":[-95.433818,30.051937]},"isApproved":true,"items":[],"keys":["Salad","Wraps","Sandwiches"],"lastUpdated":1547527612518,"name":"The Big Salad","phone":"(281) 288-4466","price":"$$","reviewCount":21,"reviewScore":4,"meta":{"revision":0,"created":1547531156545,"version":0},"$loki":224},{"_id":"5c3d65bd3525a329e0c19954","address":"138 Vintage Park Blvd","location":{"type":"Point","coordinates":[-95.4327589371392,30.0519728252301]},"isApproved":true,"items":[],"keys":["American (Traditional)","Irish Pub"],"lastUpdated":1547527612843,"name":"Mo’s Irish Pub","phone":"(281) 251-0715","price":"$$","reviewCount":216,"reviewScore":3.5,"meta":{"revision":0,"created":1547531156545,"version":0},"$loki":225},{"_id":"5c3d65bd3525a329e0c10089","address":"20629 Aldine Westfield Rd","location":{"type":"Point","coordinates":[-95.428062826395,30.0516036002947]},"isApproved":true,"items":[],"keys":["American (Traditional)","Breakfast & Brunch","Caterers"],"lastUpdated":1547527612610,"name":"Mi Chef","phone":"(281) 851-5500","price":"$","reviewCount":12,"reviewScore":4.5,"meta":{"revision":0,"created":1547531156545,"version":0},"$loki":226},{"_id":"5c3d65bd3525a329e0c0680a","address":"22559 Aldine Westfield Rd","location":{"type":"Point","coordinates":[-95.4267975,30.0481135]},"isApproved":true,"items":[],"keys":["Sports Bars","Fast Food"],"lastUpdated":1547527612378,"name":"The Twisted Monkey","phone":"(832) 585-1972","price":"$","reviewCount":7,"reviewScore":3.5,"meta":{"revision":0,"created":1547531156545,"version":0},"$loki":227},{"_id":"5c3d65bd3525a329e0c0df22","address":"124-B Fm 1960 E","location":{"type":"Point","coordinates":[-95.388508,30.053643]},"isApproved":true,"items":[],"keys":["Steakhouses","Barbeque","American (Traditional)"],"lastUpdated":1547527612564,"name":"Texas Roadhouse","phone":"(281) 821-7427","price":"$$","reviewCount":163,"reviewScore":3.5,"meta":{"revision":0,"created":1547531156545,"version":0},"$loki":228},{"_id":"5c3d65bd3525a329e0c081a1","address":"3702 Cypress Creek Pkwy","location":{"type":"Point","coordinates":[-95.3885168,30.050214]},"isApproved":true,"items":[],"keys":["Chinese","Sushi Bars"],"lastUpdated":1547527612419,"name":"Wok & Roll","phone":"(281) 580-1000","price":"$$","reviewCount":174,"reviewScore":4,"meta":{"revision":0,"created":1547531156545,"version":0},"$loki":229},{"_id":"5c3d65bd3525a329e0c03c4b","address":"23206 Aldine Westfield Rd","location":{"type":"Point","coordinates":[-95.3875973,30.0496359]},"isApproved":true,"items":[],"keys":["Tacos"],"lastUpdated":1547527612312,"name":"Chycho’s Tacos Al Carbon","phone":"(832) 566-3022","price":"$","reviewCount":90,"reviewScore":3.5,"meta":{"revision":0,"created":1547531156545,"version":0},"$loki":230}],"idIndex":[1,2,3,4,5,6,7,8,9,10,11,12,13,14,15,16,17,18,19,20,21,22,23,24,25,26,27,28,29,30,31,32,33,34,35,36,37,38,39,40,41,42,43,44,45,46,47,48,49,50,51,52,53,54,55,56,57,58,59,60,61,62,63,64,65,66,67,68,69,70,71,72,73,74,75,76,77,78,79,80,81,82,83,84,85,86,87,88,89,90,91,92,93,94,95,96,97,98,99,100,101,102,103,104,105,106,107,108,109,110,111,112,113,114,115,116,117,118,119,120,121,122,123,124,125,126,127,128,129,130,131,132,133,134,135,136,137,138,139,140,141,142,143,144,145,146,147,148,149,150,151,152,153,154,155,156,157,158,159,160,161,162,163,164,165,166,167,168,169,170,171,172,173,174,175,176,177,178,179,180,181,182,183,184,185,186,187,188,189,190,191,192,193,194,195,196,197,198,199,200,201,202,203,204,205,206,207,208,209,210,211,212,213,214,215,216,217,218,219,220,221,222,223,224,225,226,227,228,229,230],"binaryIndices":{},"constraints":null,"uniqueNames":[],"transforms":{},"objType":"restaurants","dirty":true,"cachedIndex":null,"cachedBinaryIndex":null,"cachedData":null,"adaptiveBinaryIndices":true,"transactional":false,"cloneObjects":false,"cloneMethod":"parse-stringify","asyncListeners":false,"disableMeta":false,"disableChangesApi":true,"disableDeltaChangesApi":true,"autoupdate":false,"serializableIndices":true,"ttl":null,"maxId":230,"DynamicViews":[],"events":{"insert":[],"update":[],"pre-insert":[],"pre-update":[],"close":[],"flushbuffer":[],"error":[],"delete":[null],"warning":[null]},"changes":[]}],"databaseVersion":1.5,"engineVersion":1.5,"autosave":false,"autosaveInterval":5000,"autosaveHandle":null,"throttledSaves":true,"options":{"serializationMethod":"normal","destructureDelimiter":"$<\n"},"persistenceMethod":"fs","persistenceAdapter":null,"verbose":false,"events":{"init":[null],"loaded":[],"flushChanges":[],"close":[],"changes":[],"warning":[]},"ENV":"NODEJS"}