{"filename":"-95.25-30.75","collections":[{"name":"restaurants","data":[{"_id":"5c3d65bd3525a329e0c0ee7a","address":"52 State Highway 150","location":{"type":"Point","coordinates":[-95.014751,30.738696]},"isApproved":true,"items":[],"keys":["American (New)","Sports Bars"],"lastUpdated":1547527612583,"name":"my placeToo","phone":"(936) 653-2000","price":"$$","reviewCount":3,"reviewScore":4.5,"meta":{"revision":0,"created":1547531153575,"version":0},"$loki":1},{"_id":"5c3d65bd3525a329e0c10a15","address":"3676 US 190","location":{"type":"Point","coordinates":[-94.9794321,30.7326396]},"isApproved":true,"items":[],"keys":["Mexican","Meat Shops"],"lastUpdated":1547527612631,"name":"La Flor De Puebla","phone":"(936) 967-2375","price":"","reviewCount":6,"reviewScore":5,"meta":{"revision":0,"created":1547531153575,"version":0},"$loki":2},{"_id":"5c3d65bd3525a329e0c19446","address":"4562 US Hwy 190 W","location":{"type":"Point","coordinates":[-94.994149,30.73648]},"isApproved":true,"items":[],"keys":["Mexican"],"lastUpdated":1547527612840,"name":"Pueblo Viejo","phone":"(936) 967-5700","price":"$$","reviewCount":63,"reviewScore":3.5,"meta":{"revision":0,"created":1547531153575,"version":0},"$loki":3},{"_id":"5c3d65bd3525a329e0c0d2f6","address":"5076 Fm 350 S","location":{"type":"Point","coordinates":[-95.0347064527196,30.6908807964275]},"isApproved":true,"items":[],"keys":["American (Traditional)"],"lastUpdated":1547527612546,"name":"The Wet Deck","phone":"(936) 967-2337","price":"$$","reviewCount":11,"reviewScore":3.5,"meta":{"revision":0,"created":1547531153575,"version":0},"$loki":4},{"_id":"5c3d65bd3525a329e0c0d403","address":"1880 Fm 350 S","location":{"type":"Point","coordinates":[-94.986067,30.707867]},"isApproved":true,"items":[],"keys":["Barbeque"],"lastUpdated":1547527612546,"name":"Hitch-N-Post BBQ/Cafe","phone":"(936) 967-0161","price":"$$","reviewCount":28,"reviewScore":4.5,"meta":{"revision":0,"created":1547531153575,"version":0},"$loki":5},{"_id":"5c3d65bd3525a329e0c10a29","address":"1301 W Church St","location":{"type":"Point","coordinates":[-94.948566,30.709598]},"isApproved":true,"items":[],"keys":["Mexican"],"lastUpdated":1547527612631,"name":"Patron Grill","phone":"(936) 328-8333","price":"$$","reviewCount":75,"reviewScore":3.5,"meta":{"revision":0,"created":1547531153575,"version":0},"$loki":6},{"_id":"5c3d65bd3525a329e0c06b3e","address":"1908 N Washington Ave","location":{"type":"Point","coordinates":[-94.9476937155248,30.7092780547817]},"isApproved":true,"items":[],"keys":["American (Traditional)"],"lastUpdated":1547527612385,"name":"El Taquito","phone":"(936) 327-2160","price":"","reviewCount":1,"reviewScore":5,"meta":{"revision":0,"created":1547531153575,"version":0},"$loki":7},{"_id":"5c3d65bd3525a329e0c0344f","address":"119 S Point Ln","location":{"type":"Point","coordinates":[-94.9397588,30.7004394]},"isApproved":true,"items":[],"keys":["Delis","Cajun/Creole","American (New)"],"lastUpdated":1547527612302,"name":"My Place Eatery","phone":"(936) 327-0011","price":"$$","reviewCount":12,"reviewScore":2.5,"meta":{"revision":0,"created":1547531153575,"version":0},"$loki":8},{"_id":"5c3d65bd3525a329e0c083f9","address":"209 S Magnolia St","location":{"type":"Point","coordinates":[-94.9474203,30.6896964]},"isApproved":true,"items":[],"keys":["American (Traditional)","Bars"],"lastUpdated":1547527612421,"name":"Magnolia Bar & Grill","phone":"(409) 283-2520","price":"","reviewCount":2,"reviewScore":4.5,"meta":{"revision":0,"created":1547531153575,"version":0},"$loki":9},{"_id":"5c3d65bd3525a329e0c014c1","address":"Hwy 190","location":{"type":"Point","coordinates":[-94.9499723965838,30.6905776213577]},"isApproved":true,"items":[],"keys":["Mexican"],"lastUpdated":1547527612249,"name":"El Taquito Mexican Restaurant","phone":"(936) 327-3935","price":"$","reviewCount":24,"reviewScore":3.5,"meta":{"revision":0,"created":1547531153575,"version":0},"$loki":10},{"_id":"5c3d65bd3525a329e0c03d9f","address":"112 Commerce St","location":{"type":"Point","coordinates":[-94.9483306,30.691936]},"isApproved":true,"items":[],"keys":["Chinese"],"lastUpdated":1547527612313,"name":"Hunan Chinese Restaurant","phone":"(936) 327-6239","price":"$$","reviewCount":24,"reviewScore":3.5,"meta":{"revision":0,"created":1547531153575,"version":0},"$loki":11},{"_id":"5c3d65bd3525a329e0c11ea4","address":"Highway 69 N","location":{"type":"Point","coordinates":[-94.9443846,30.6482825]},"isApproved":true,"items":[],"keys":["American (Traditional)"],"lastUpdated":1547527612662,"name":"Burger House","phone":"(409) 837-2321","price":"$","reviewCount":11,"reviewScore":4.5,"meta":{"revision":0,"created":1547531153575,"version":0},"$loki":12},{"_id":"5c3d65bd3525a329e0c01236","address":"212 S Houston St","location":{"type":"Point","coordinates":[-94.9310155,30.7069311]},"isApproved":true,"items":[],"keys":["Mexican"],"lastUpdated":1547527612240,"name":"Lacolonia Restaurant","phone":"(936) 327-3918","price":"","reviewCount":7,"reviewScore":4.5,"meta":{"revision":0,"created":1547531153575,"version":0},"$loki":13},{"_id":"5c3d65bd3525a329e0c0660b","address":"233 Hwy 190 E","location":{"type":"Point","coordinates":[-94.9328359933077,30.706573148831]},"isApproved":true,"items":[],"keys":["Burgers","Breakfast & Brunch","Coffee & Tea"],"lastUpdated":1547527612377,"name":"Tammy’s Country Kitchen","phone":"(409) 331-9811","price":"$","reviewCount":11,"reviewScore":4.5,"meta":{"revision":0,"created":1547531153575,"version":0},"$loki":14},{"_id":"5c3d65bd3525a329e0c15166","address":"201 N Magnolia St","location":{"type":"Point","coordinates":[-94.9326383,30.7099608]},"isApproved":true,"items":[],"keys":["Hotels","Restaurants"],"lastUpdated":1547527612737,"name":"Woodville Inn","phone":"(409) 283-3741","price":"","reviewCount":4,"reviewScore":1,"meta":{"revision":0,"created":1547531153575,"version":0},"$loki":15},{"_id":"5c3d65bd3525a329e0c1ad19","address":"11978 US 59","location":{"type":"Point","coordinates":[-94.9316175,30.7287208]},"isApproved":true,"items":[],"keys":["Barbeque","American (Traditional)","Southern"],"lastUpdated":1547527612875,"name":"Dickey’s Barbecue Pit","phone":"(936) 398-2655","price":"$$","reviewCount":8,"reviewScore":3.5,"meta":{"revision":0,"created":1547531153575,"version":0},"$loki":16},{"_id":"5c3d65bd3525a329e0c0d9ba","address":"203 W Elder St","location":{"type":"Point","coordinates":[-94.9208590314579,30.7112325237778]},"isApproved":true,"items":[],"keys":["Cafes"],"lastUpdated":1547527612555,"name":"Bulldog Country Cafe","phone":"(409) 837-2010","price":"$$","reviewCount":3,"reviewScore":4.5,"meta":{"revision":0,"created":1547531153575,"version":0},"$loki":17},{"_id":"5c3d65bd3525a329e0c13c53","address":"402 1st St","location":{"type":"Point","coordinates":[-94.9230940586388,30.7112464548101]},"isApproved":true,"items":[],"keys":["Diners","Barbeque","Burgers"],"lastUpdated":1547527612705,"name":"Pit Row Pit Stop","phone":"(936) 327-5110","price":"$","reviewCount":89,"reviewScore":4.5,"meta":{"revision":0,"created":1547531153575,"version":0},"$loki":18},{"_id":"5c3d65bd3525a329e0c0a636","address":"406 S Robb St","location":{"type":"Point","coordinates":[-94.933328,30.7178191]},"isApproved":true,"items":[],"keys":["Chicken Shop"],"lastUpdated":1547527612481,"name":"Kat’s Chicken","phone":"(936) 594-4264","price":"","reviewCount":2,"reviewScore":1.5,"meta":{"revision":0,"created":1547531153575,"version":0},"$loki":19},{"_id":"5c3d65bd3525a329e0c0b308","address":"800 S Magnolia St","location":{"type":"Point","coordinates":[-94.9315477,30.7113496]},"isApproved":true,"items":[],"keys":["Sandwiches","Fast Food"],"lastUpdated":1547527612498,"name":"Subway","phone":"(409) 283-2396","price":"","reviewCount":1,"reviewScore":5,"meta":{"revision":0,"created":1547531153575,"version":0},"$loki":20},{"_id":"5c3d65bd3525a329e0c0d9b8","address":"13287 US 190","location":{"type":"Point","coordinates":[-94.9326383,30.7108568]},"isApproved":true,"items":[],"keys":["Mexican"],"lastUpdated":1547527612555,"name":"Mante’s","phone":"(936) 646-7350","price":"$","reviewCount":12,"reviewScore":3,"meta":{"revision":0,"created":1547531153575,"version":0},"$loki":21},{"_id":"5c3d65bd3525a329e0c02032","address":"410 N Washington Ave","location":{"type":"Point","coordinates":[-94.9327492790971,30.7114023723928]},"isApproved":true,"items":[],"keys":["Bars","American (New)"],"lastUpdated":1547527612274,"name":"Blue Duck Kitchen & Bar","phone":"(936) 327-2385","price":"$$","reviewCount":78,"reviewScore":4,"meta":{"revision":0,"created":1547531153575,"version":0},"$loki":22},{"_id":"5c3d65bd3525a329e0c1595e","address":"308 W Church St","location":{"type":"Point","coordinates":[-94.9345747292061,30.7107509661597]},"isApproved":true,"items":[],"keys":["Street Vendors","American (Traditional)"],"lastUpdated":1547527612747,"name":"Friends & Neighbor’s Lunch Spot","phone":"(936) 327-7576","price":"$","reviewCount":7,"reviewScore":5,"meta":{"revision":0,"created":1547531153575,"version":0},"$loki":23},{"_id":"5c3d65bd3525a329e0bffed7","address":"205 N Wheeler St","location":{"type":"Point","coordinates":[-94.9420717,30.7114173]},"isApproved":true,"items":[],"keys":["Cafes"],"lastUpdated":1547527612223,"name":"Texas Star Cafe","phone":"(409) 837-4444","price":"$","reviewCount":7,"reviewScore":3.5,"meta":{"revision":0,"created":1547531153575,"version":0},"$loki":24},{"_id":"5c3d65bd3525a329e0c1a05d","address":"200 E Caroline St","location":{"type":"Point","coordinates":[-94.9433325,30.7112878]},"isApproved":true,"items":[],"keys":["American (Traditional)"],"lastUpdated":1547527612857,"name":"Joseph’s Restaurant","phone":"(936) 594-0439","price":"$","reviewCount":13,"reviewScore":3,"meta":{"revision":0,"created":1547531153575,"version":0},"$loki":25},{"_id":"5c3d65bd3525a329e0c02188","address":"1100 Hwy 59 Lp N","location":{"type":"Point","coordinates":[-94.946849,30.721665]},"isApproved":true,"items":[],"keys":["Seafood"],"lastUpdated":1547527612275,"name":"Catfish King","phone":"(936) 327-3503","price":"$$","reviewCount":33,"reviewScore":3.5,"meta":{"revision":0,"created":1547531153575,"version":0},"$loki":26},{"_id":"5c3d65bd3525a329e0c1560f","address":"1324 W Church St","location":{"type":"Point","coordinates":[-94.948308118114,30.711248410098]},"isApproved":true,"items":[],"keys":["Southern","Cajun/Creole"],"lastUpdated":1547527612746,"name":"Shrimp Boat Manny’s","phone":"(936) 327-0100","price":"$$","reviewCount":82,"reviewScore":3,"meta":{"revision":0,"created":1547531153575,"version":0},"$loki":27},{"_id":"5c3d65bd3525a329e0c183b2","address":"104 N Magnolia St","location":{"type":"Point","coordinates":[-94.9509182,30.7102797]},"isApproved":true,"items":[],"keys":["Chinese"],"lastUpdated":1547527612814,"name":"China Cafe","phone":"(409) 283-3888","price":"$","reviewCount":4,"reviewScore":4,"meta":{"revision":0,"created":1547531153575,"version":0},"$loki":28},{"_id":"5c3d65bd3525a329e0c1351c","address":"210 N Washington","location":{"type":"Point","coordinates":[-94.9510865529719,30.7105652572544]},"isApproved":true,"items":[],"keys":["Fast Food","Chicken Wings"],"lastUpdated":1547527612696,"name":"Church’s Chicken","phone":"(936) 327-5787","price":"","reviewCount":4,"reviewScore":2,"meta":{"revision":0,"created":1547531153575,"version":0},"$loki":29},{"_id":"5c3d65bd3525a329e0c18b63","address":"1009 S Magnolia","location":{"type":"Point","coordinates":[-94.9517704,30.7104663]},"isApproved":true,"items":[],"keys":["Burgers","Fast Food","Ice Cream & Frozen Yogurt"],"lastUpdated":1547527612824,"name":"Dairy Queen","phone":"(409) 283-2509","price":"$","reviewCount":5,"reviewScore":2.5,"meta":{"revision":0,"created":1547531153575,"version":0},"$loki":30},{"_id":"5c3d65bd3525a329e0bffd69","address":"Hwy 19 S","location":{"type":"Point","coordinates":[-94.9508053064346,30.7116107616174]},"isApproved":true,"items":[],"keys":["Barbeque"],"lastUpdated":1547527612222,"name":"Best Little BBQ House In Texas","phone":"(936) 662-1286","price":"","reviewCount":1,"reviewScore":4,"meta":{"revision":0,"created":1547531153575,"version":0},"$loki":31},{"_id":"5c3d65bd3525a329e0c1aece","address":"209 S Magnolia St","location":{"type":"Point","coordinates":[-94.95486,30.71349]},"isApproved":true,"items":[],"keys":["American (New)"],"lastUpdated":1547527612876,"name":"The Tree Restaurant","phone":"(409) 283-8040","price":"$$","reviewCount":6,"reviewScore":3,"meta":{"revision":0,"created":1547531153575,"version":0},"$loki":32},{"_id":"5c3d65bd3525a329e0c0f96f","address":"4562 S Hwy 19","location":{"type":"Point","coordinates":[-94.9553075,30.7127782]},"isApproved":true,"items":[],"keys":["Buffets","Seafood"],"lastUpdated":1547527612600,"name":"Catfish Junction","phone":"(936) 744-0060","price":"","reviewCount":1,"reviewScore":1,"meta":{"revision":0,"created":1547531153575,"version":0},"$loki":33},{"_id":"5c3d65bd3525a329e0bffa18","address":"Hwy 19","location":{"type":"Point","coordinates":[-94.9545659206342,30.712025809358]},"isApproved":true,"items":[],"keys":["Burgers","Fast Food","Ice Cream & Frozen Yogurt"],"lastUpdated":1547527612220,"name":"Dairy Queen","phone":"(936) 594-3287","price":"","reviewCount":3,"reviewScore":2.5,"meta":{"revision":0,"created":1547531153575,"version":0},"$loki":34},{"_id":"5c3d65bd3525a329e0c1aab6","address":"90 Patrick St","location":{"type":"Point","coordinates":[-94.9577798190366,30.7137299769675]},"isApproved":true,"items":[],"keys":["Mexican"],"lastUpdated":1547527612868,"name":"El Taquito Mexican Restaurant","phone":"(936) 653-5225","price":"$","reviewCount":15,"reviewScore":2.5,"meta":{"revision":0,"created":1547531153575,"version":0},"$loki":35},{"_id":"5c3d65bd3525a329e0c0b826","address":"1615 W Church St","location":{"type":"Point","coordinates":[-94.957139028802,30.71418822598]},"isApproved":true,"items":[],"keys":["Italian"],"lastUpdated":1547527612506,"name":"Joe’s Italian Grille and Restaurant","phone":"(936) 327-2622","price":"$$","reviewCount":80,"reviewScore":4,"meta":{"revision":0,"created":1547531153575,"version":0},"$loki":36},{"_id":"5c3d65bd3525a329e0c18859","address":"819 S Home St","location":{"type":"Point","coordinates":[-94.9615741336606,30.7190441181162]},"isApproved":true,"items":[],"keys":["Tex-Mex"],"lastUpdated":1547527612822,"name":"El Cabayyito","phone":"(936) 398-9303","price":"","reviewCount":1,"reviewScore":3,"meta":{"revision":0,"created":1547531153575,"version":0},"$loki":37},{"_id":"5c3d65bd3525a329e0c19c13","address":"1102 US Hwy 190 E","location":{"type":"Point","coordinates":[-94.9623818487854,30.719764729898]},"isApproved":true,"items":[],"keys":["Tex-Mex","Mexican"],"lastUpdated":1547527612850,"name":"Fiesta Taqueria","phone":"(936) 294-0568","price":"$","reviewCount":20,"reviewScore":4.5,"meta":{"revision":0,"created":1547531153575,"version":0},"$loki":38},{"_id":"5c3d65bd3525a329e0c0e812","address":"796 Fm 350 S","location":{"type":"Point","coordinates":[-94.9688183,30.7117878]},"isApproved":true,"items":[],"keys":["American (Traditional)","Southern","Barbeque"],"lastUpdated":1547527612575,"name":"Florida’s Kitchen","phone":"(936) 967-4216","price":"$$","reviewCount":71,"reviewScore":4,"meta":{"revision":0,"created":1547531153575,"version":0},"$loki":39},{"_id":"5c3d65bd3525a329e0c11186","address":"6771 US Hwy 59 S","location":{"type":"Point","coordinates":[-94.9461289,30.6170772]},"isApproved":true,"items":[],"keys":["Seafood"],"lastUpdated":1547527612641,"name":"Hughes Catfish Inn","phone":"(936) 365-2856","price":"$","reviewCount":7,"reviewScore":4.5,"meta":{"revision":0,"created":1547531153575,"version":0},"$loki":40},{"_id":"5c3d65bd3525a329e0c075d3","address":"1115 University Ave","location":{"type":"Point","coordinates":[-95.56933,30.71578]},"isApproved":true,"items":[],"keys":["Restaurants"],"lastUpdated":1547527612401,"name":"La Paloma Paloma Mexican Buffet","phone":"(936) 730-8400","price":"","reviewCount":2,"reviewScore":1,"meta":{"revision":0,"created":1547531153575,"version":0},"$loki":41},{"_id":"5c3d65bd3525a329e0c16f66","address":"916 Sam Houston Ave","location":{"type":"Point","coordinates":[-95.570471163932,30.7169925712962]},"isApproved":true,"items":[],"keys":["Burgers"],"lastUpdated":1547527612781,"name":"Jack in the Box","phone":"(936) 295-5821","price":"","reviewCount":5,"reviewScore":4,"meta":{"revision":0,"created":1547531153575,"version":0},"$loki":42},{"_id":"5c3d65bd3525a329e0c14836","address":"1110 Ave M","location":{"type":"Point","coordinates":[-95.5703419988714,30.716390033561]},"isApproved":true,"items":[],"keys":["American (Traditional)","Shaved Ice"],"lastUpdated":1547527612727,"name":"Swinter Snowcones","phone":"(936) 661-1585","price":"","reviewCount":1,"reviewScore":5,"meta":{"revision":0,"created":1547531153575,"version":0},"$loki":43},{"_id":"5c3d65bd3525a329e0c0bd5f","address":"3011 Hwy 30 W","location":{"type":"Point","coordinates":[-95.572039,30.71788]},"isApproved":true,"items":[],"keys":["Caterers","Tex-Mex"],"lastUpdated":1547527612515,"name":"Don Rafa’s TEX-MEX","phone":"(936) 435-1627","price":"","reviewCount":1,"reviewScore":1,"meta":{"revision":0,"created":1547531153575,"version":0},"$loki":44},{"_id":"5c3d65bd3525a329e0c14242","address":"3011 Hwy 30 W","location":{"type":"Point","coordinates":[-95.5721112,30.718702]},"isApproved":true,"items":[],"keys":["Chicken Wings"],"lastUpdated":1547527612713,"name":"Wingstop","phone":"(936) 294-9464","price":"$$","reviewCount":19,"reviewScore":2.5,"meta":{"revision":0,"created":1547531153575,"version":0},"$loki":45},{"_id":"5c3d65bd3525a329e0c056b8","address":"3020 Texas 30","location":{"type":"Point","coordinates":[-95.5720246,30.7190581]},"isApproved":true,"items":[],"keys":["Southern","Chicken Shop","Fast Food"],"lastUpdated":1547527612348,"name":"Hartz Chicken Buffet","phone":"(936) 436-9363","price":"$","reviewCount":6,"reviewScore":3,"meta":{"revision":0,"created":1547531153575,"version":0},"$loki":46},{"_id":"5c3d65bd3525a329e0c05e2f","address":"9376 E State Hwy 21","location":{"type":"Point","coordinates":[-95.5679772908772,30.7171705265721]},"isApproved":true,"items":[],"keys":["Bars","Burgers"],"lastUpdated":1547527612362,"name":"Joe’s Place","phone":"(979) 589-2693","price":"$","reviewCount":24,"reviewScore":4,"meta":{"revision":0,"created":1547531153575,"version":0},"$loki":47},{"_id":"5c3d65bd3525a329e0c16195","address":"2601 11th St","location":{"type":"Point","coordinates":[-95.5676822,30.7180838]},"isApproved":true,"items":[],"keys":["Grocery","Bakeries","Delis"],"lastUpdated":1547527612763,"name":"Brookshire Brothers","phone":"(936) 435-1300","price":"$$$","reviewCount":7,"reviewScore":3,"meta":{"revision":0,"created":1547531153575,"version":0},"$loki":48},{"_id":"5c3d65bd3525a329e0c12175","address":"1221 14th St","location":{"type":"Point","coordinates":[-95.5658915,30.7182688]},"isApproved":true,"items":[],"keys":["Southern","Soul Food","Burgers"],"lastUpdated":1547527612663,"name":"Floyd’s On 14th","phone":"(936) 438-3722","price":"","reviewCount":3,"reviewScore":5,"meta":{"revision":0,"created":1547531153575,"version":0},"$loki":49},{"_id":"5c3d65bd3525a329e0c0176c","address":"901 11th St","location":{"type":"Point","coordinates":[-95.5651736,30.7185009]},"isApproved":true,"items":[],"keys":["Sandwiches","Fast Food"],"lastUpdated":1547527612250,"name":"Subway","phone":"(936) 293-8924","price":"","reviewCount":1,"reviewScore":1,"meta":{"revision":0,"created":1547531153575,"version":0},"$loki":50},{"_id":"5c3d65bd3525a329e0c1ad3d","address":"105 South Madison","location":{"type":"Point","coordinates":[-95.5646824785476,30.7148362009034]},"isApproved":true,"items":[],"keys":["Barbeque"],"lastUpdated":1547527612875,"name":"Beef & Bun Bar-B-Que","phone":"(936) 348-5400","price":"","reviewCount":1,"reviewScore":1,"meta":{"revision":0,"created":1547531153575,"version":0},"$loki":51},{"_id":"5c3d65bd3525a329e0c13062","address":"2711 - 11th St","location":{"type":"Point","coordinates":[-95.5634789,30.7196797]},"isApproved":true,"items":[],"keys":["Chicken Wings","Fast Food"],"lastUpdated":1547527612688,"name":"Church’s Chicken","phone":"(936) 291-9830","price":"","reviewCount":4,"reviewScore":2.5,"meta":{"revision":0,"created":1547531153575,"version":0},"$loki":52},{"_id":"5c3d65bd3525a329e0c13b0f","address":"7250 Edge Cut Off Rd","location":{"type":"Point","coordinates":[-95.5642301,30.71975]},"isApproved":true,"items":[],"keys":["Burgers","Sandwiches"],"lastUpdated":1547527612699,"name":"Edge General Store","phone":"(979) 589-3539","price":"$","reviewCount":8,"reviewScore":4.5,"meta":{"revision":0,"created":1547531153575,"version":0},"$loki":53},{"_id":"5c3d65bd3525a329e0c173b5","address":"3303 E Main St","location":{"type":"Point","coordinates":[-95.5726933337402,30.7205000478984]},"isApproved":true,"items":[],"keys":["Fast Food","Sandwiches","Delis"],"lastUpdated":1547527612784,"name":"Subway - Madisonville","phone":"(936) 349-0115","price":"$","reviewCount":4,"reviewScore":4,"meta":{"revision":0,"created":1547531153575,"version":0},"$loki":54},{"_id":"5c3d65bd3525a329e0c042df","address":"3006 Hwy 30 W","location":{"type":"Point","coordinates":[-95.5744862,30.7189527]},"isApproved":true,"items":[],"keys":["Mongolian","Sushi Bars","Bars"],"lastUpdated":1547527612321,"name":"Yummy Yummy Mongolian Grill & Sushi","phone":"(936) 291-6888","price":"$$","reviewCount":113,"reviewScore":3.5,"meta":{"revision":0,"created":1547531153575,"version":0},"$loki":55},{"_id":"5c3d65bd3525a329e0c0cbbc","address":"3011 Highway 30 W","location":{"type":"Point","coordinates":[-95.5738919824444,30.7188608653375]},"isApproved":true,"items":[],"keys":["Italian","Pizza"],"lastUpdated":1547527612533,"name":"Doubledave’s Pizzaworks","phone":"(936) 291-3283","price":"$","reviewCount":13,"reviewScore":3.5,"meta":{"revision":0,"created":1547531153575,"version":0},"$loki":56},{"_id":"5c3d65bd3525a329e0c1665f","address":"107 Interstate 45 S","location":{"type":"Point","coordinates":[-95.5730178916673,30.7189453197665]},"isApproved":true,"items":[],"keys":["Burgers","Fast Food"],"lastUpdated":1547527612765,"name":"Burger King Restaurant","phone":"(936) 291-2094","price":"$","reviewCount":11,"reviewScore":1,"meta":{"revision":0,"created":1547531153575,"version":0},"$loki":57},{"_id":"5c3d65bd3525a329e0c112a0","address":"3016 W 11th St","location":{"type":"Point","coordinates":[-95.57254,30.71885]},"isApproved":true,"items":[],"keys":["Diners","American (Traditional)","Breakfast & Brunch"],"lastUpdated":1547527612642,"name":"Denny’s","phone":"(936) 439-5276","price":"$","reviewCount":27,"reviewScore":2.5,"meta":{"revision":0,"created":1547531153575,"version":0},"$loki":58},{"_id":"5c3d65bd3525a329e0c13e6e","address":"2890 Harvey Mitchell Pkwy","location":{"type":"Point","coordinates":[-95.573361,30.71763]},"isApproved":true,"items":[],"keys":["Diners","Breakfast & Brunch","American (Traditional)"],"lastUpdated":1547527612706,"name":"Denny’s","phone":"(979) 778-9348","price":"$","reviewCount":3,"reviewScore":4.5,"meta":{"revision":0,"created":1547531153575,"version":0},"$loki":59},{"_id":"5c3d65bd3525a329e0c0295c","address":"1120 Sam Houston Ave","location":{"type":"Point","coordinates":[-95.5734098,30.7172973]},"isApproved":true,"items":[],"keys":["American (Traditional)","Breakfast & Brunch"],"lastUpdated":1547527612285,"name":"Cafe Texan","phone":"(936) 295-2381","price":"$","reviewCount":51,"reviewScore":3,"meta":{"revision":0,"created":1547531153575,"version":0},"$loki":60},{"_id":"5c3d65bd3525a329e0c0f006","address":"2032 11th St","location":{"type":"Point","coordinates":[-95.5734098,30.7172973]},"isApproved":true,"items":[],"keys":["Chicken Wings","Fast Food"],"lastUpdated":1547527612589,"name":"Popeyes Louisiana Kitchen","phone":"(936) 295-2173","price":"$","reviewCount":6,"reviewScore":1.5,"meta":{"revision":0,"created":1547531153575,"version":0},"$loki":61},{"_id":"5c3d65bd3525a329e0c170ce","address":"1111 Interstate 45 N","location":{"type":"Point","coordinates":[-95.5734098,30.7172973]},"isApproved":true,"items":[],"keys":["Pizza"],"lastUpdated":1547527612782,"name":"Little Caesars","phone":"(936) 295-9700","price":"$","reviewCount":3,"reviewScore":3.5,"meta":{"revision":0,"created":1547531153575,"version":0},"$loki":62},{"_id":"5c3d65bd3525a329e0c14e15","address":"123 Interstate 45 N","location":{"type":"Point","coordinates":[-95.5734195,30.7172973]},"isApproved":true,"items":[],"keys":["American (Traditional)","Bars","Tex-Mex"],"lastUpdated":1547527612730,"name":"Chili’s","phone":"(936) 295-9375","price":"$$","reviewCount":51,"reviewScore":2.5,"meta":{"revision":0,"created":1547531153575,"version":0},"$loki":63},{"_id":"5c3d65bd3525a329e0c15d77","address":"1700 11th St","location":{"type":"Point","coordinates":[-95.59393,30.739277]},"isApproved":true,"items":[],"keys":["Mexican"],"lastUpdated":1547527612755,"name":"Los Panchitos","phone":"(936) 435-1045","price":"$","reviewCount":29,"reviewScore":3,"meta":{"revision":0,"created":1547531153575,"version":0},"$loki":64},{"_id":"5c3d65bd3525a329e0c0cecb","address":"10540 E Old San Antonio Rd","location":{"type":"Point","coordinates":[-95.593705,30.738285]},"isApproved":true,"items":[],"keys":["Pizza"],"lastUpdated":1547527612535,"name":"Hunt Brothers Pizza","phone":"(979) 828-1176","price":"","reviewCount":1,"reviewScore":2,"meta":{"revision":0,"created":1547531153575,"version":0},"$loki":65},{"_id":"5c3d65bd3525a329e0c0ce67","address":"2615 Montgomery Rd","location":{"type":"Point","coordinates":[-95.5605898578794,30.72277534281]},"isApproved":true,"items":[],"keys":["Food Trucks","Barbeque","Burgers"],"lastUpdated":1547527612534,"name":"Silver Spoon Cafe","phone":"(512) 924-7001","price":"$$","reviewCount":1,"reviewScore":4,"meta":{"revision":0,"created":1547531153575,"version":0},"$loki":66},{"_id":"5c3d65bd3525a329e0bffc39","address":"111 Interstate 45 S","location":{"type":"Point","coordinates":[-95.5604337,30.720959]},"isApproved":true,"items":[],"keys":["Buffets"],"lastUpdated":1547527612221,"name":"Grand Buffet","phone":"(936) 293-8838","price":"$","reviewCount":38,"reviewScore":3.5,"meta":{"revision":0,"created":1547531153575,"version":0},"$loki":67},{"_id":"5c3d65bd3525a329e0c0f184","address":"Pennington &amp; Commerc","location":{"type":"Point","coordinates":[-95.5585120618343,30.7222611309367]},"isApproved":true,"items":[],"keys":["Pizza"],"lastUpdated":1547527612591,"name":"Pizza Pro of Lovelady Acctg","phone":"(936) 636-7700","price":"$","reviewCount":3,"reviewScore":4,"meta":{"revision":0,"created":1547531153575,"version":0},"$loki":68},{"_id":"5c3d65bd3525a329e0c08194","address":"11400 Fm 230","location":{"type":"Point","coordinates":[-95.5573801,30.7241164]},"isApproved":true,"items":[],"keys":["American (Traditional)","Grocery"],"lastUpdated":1547527612419,"name":"Robinson’s Country Store","phone":"(936) 636-7783","price":"","reviewCount":1,"reviewScore":5,"meta":{"revision":0,"created":1547531153575,"version":0},"$loki":69},{"_id":"5c3d65bd3525a329e0c028bc","address":"605 W Hwy 79","location":{"type":"Point","coordinates":[-95.5561906,30.724033]},"isApproved":true,"items":[],"keys":["Pizza","Italian","Chicken Wings"],"lastUpdated":1547527612285,"name":"Pizza Hut","phone":"(979) 828-0075","price":"","reviewCount":2,"reviewScore":3,"meta":{"revision":0,"created":1547531153575,"version":0},"$loki":70},{"_id":"5c3d65bd3525a329e0c0fa09","address":"3008 Hwy 30 W","location":{"type":"Point","coordinates":[-95.5516586,30.7231298]},"isApproved":true,"items":[],"keys":["Breakfast & Brunch","American (Traditional)","Burgers"],"lastUpdated":1547527612601,"name":"IHOP","phone":"(936) 291-7550","price":"$","reviewCount":20,"reviewScore":2.5,"meta":{"revision":0,"created":1547531153575,"version":0},"$loki":71},{"_id":"5c3d65bd3525a329e0c03edc","address":"139 Interstate 45 N","location":{"type":"Point","coordinates":[-95.5532552,30.722818]},"isApproved":true,"items":[],"keys":["Japanese"],"lastUpdated":1547527612314,"name":"Shogun Japanese Grill & Sushi Bar","phone":"(936) 755-6029","price":"","reviewCount":3,"reviewScore":3,"meta":{"revision":0,"created":1547531153575,"version":0},"$loki":72},{"_id":"5c3d65bd3525a329e0c0bf56","address":"102 Interstate 45 N","location":{"type":"Point","coordinates":[-95.5532552,30.722818]},"isApproved":true,"items":[],"keys":["American (Traditional)"],"lastUpdated":1547527612516,"name":"Bandera Grill","phone":"(936) 291-3500","price":"$$","reviewCount":25,"reviewScore":3,"meta":{"revision":0,"created":1547531153575,"version":0},"$loki":73},{"_id":"5c3d65bd3525a329e0c10dab","address":"1421 Sam Houston Ave","location":{"type":"Point","coordinates":[-95.543676,30.723569]},"isApproved":true,"items":[],"keys":["Southern","Burgers","Cafes"],"lastUpdated":1547527612633,"name":"City Hall Cafe & Pie Bar","phone":"(936) 439-6113","price":"$$","reviewCount":102,"reviewScore":3.5,"meta":{"revision":0,"created":1547531153575,"version":0},"$loki":74},{"_id":"5c3d65bd3525a329e0c0cc06","address":"1329 University Ave","location":{"type":"Point","coordinates":[-95.544605,30.7258927]},"isApproved":true,"items":[],"keys":["Delis"],"lastUpdated":1547527612533,"name":"Five Loaves Deli","phone":"(936) 439-9400","price":"$$","reviewCount":34,"reviewScore":4.5,"meta":{"revision":0,"created":1547531153575,"version":0},"$loki":75},{"_id":"5c3d65bd3525a329e0c05fca","address":"108 E US Hwy 79","location":{"type":"Point","coordinates":[-95.5421439,30.723533]},"isApproved":true,"items":[],"keys":["Cafes"],"lastUpdated":1547527612368,"name":"Pioneer Cafe","phone":"(979) 828-5631","price":"$","reviewCount":4,"reviewScore":4.5,"meta":{"revision":0,"created":1547531153575,"version":0},"$loki":76},{"_id":"5c3d65bd3525a329e0c035b2","address":"515 Highway 79 S","location":{"type":"Point","coordinates":[-95.5484854,30.7240469]},"isApproved":true,"items":[],"keys":["Restaurants"],"lastUpdated":1547527612303,"name":"Anthony’s","phone":"(903) 626-6606","price":"$","reviewCount":6,"reviewScore":4,"meta":{"revision":0,"created":1547531153575,"version":0},"$loki":77},{"_id":"5c3d65bd3525a329e0c00386","address":"1110 Avenue M","location":{"type":"Point","coordinates":[-95.5476893430261,30.7239471058684]},"isApproved":true,"items":[],"keys":["Food Trucks","Mexican"],"lastUpdated":1547527612225,"name":"Taco Mania","phone":"(936) 649-2663","price":"$","reviewCount":6,"reviewScore":5,"meta":{"revision":0,"created":1547531153575,"version":0},"$loki":78},{"_id":"5c3d65bd3525a329e0c04856","address":"3010 Hwy 30","location":{"type":"Point","coordinates":[-95.547752,30.723668]},"isApproved":true,"items":[],"keys":["Pizza","Italian","Chicken Wings"],"lastUpdated":1547527612330,"name":"Pizza Hut - Huntsville","phone":"(936) 294-9191","price":"$","reviewCount":4,"reviewScore":2,"meta":{"revision":0,"created":1547531153575,"version":0},"$loki":79},{"_id":"5c3d65bd3525a329e0c02be1","address":"601 Hwy 75 N","location":{"type":"Point","coordinates":[-95.5504366,30.723124]},"isApproved":true,"items":[],"keys":["Barbeque"],"lastUpdated":1547527612287,"name":"Walls BBQ","phone":"(936) 439-6333","price":"$","reviewCount":44,"reviewScore":4,"meta":{"revision":0,"created":1547531153575,"version":0},"$loki":80},{"_id":"5c3d65bd3525a329e0c17900","address":"639 State Hwy 75 N","location":{"type":"Point","coordinates":[-95.5504366,30.723124]},"isApproved":true,"items":[],"keys":["Fast Food","Burgers"],"lastUpdated":1547527612792,"name":"Wendy’s","phone":"(936) 291-1975","price":"$","reviewCount":17,"reviewScore":2,"meta":{"revision":0,"created":1547531153575,"version":0},"$loki":81},{"_id":"5c3d65bd3525a329e0c08e00","address":"2719 11th St","location":{"type":"Point","coordinates":[-95.5508,30.7235]},"isApproved":true,"items":[],"keys":["Burgers","Fast Food","Coffee & Tea"],"lastUpdated":1547527612437,"name":"McDonald’s","phone":"(936) 291-0113","price":"$","reviewCount":14,"reviewScore":2,"meta":{"revision":0,"created":1547531153575,"version":0},"$loki":82},{"_id":"5c3d65bd3525a329e0c10625","address":"3550 Main St","location":{"type":"Point","coordinates":[-95.5492184,30.7207543]},"isApproved":true,"items":[],"keys":["American (New)"],"lastUpdated":1547527612619,"name":"New Baden General Store","phone":"(979) 828-2006","price":"$","reviewCount":11,"reviewScore":4,"meta":{"revision":0,"created":1547531153575,"version":0},"$loki":83},{"_id":"5c3d65bd3525a329e0c114d7","address":"23456 Old San Antonio Rd","location":{"type":"Point","coordinates":[-95.549822,30.720475]},"isApproved":true,"items":[],"keys":["Fast Food","Sandwiches"],"lastUpdated":1547527612643,"name":"Arby’s","phone":"(903) 344-1111","price":"$","reviewCount":3,"reviewScore":1.5,"meta":{"revision":0,"created":1547531153575,"version":0},"$loki":84},{"_id":"5c3d65bd3525a329e0c14f20","address":"500 I-45 N","location":{"type":"Point","coordinates":[-95.5511289,30.7197941]},"isApproved":true,"items":[],"keys":["American (Traditional)","Breakfast & Brunch"],"lastUpdated":1547527612736,"name":"Hitchin Post Restaurant","phone":"(936) 291-0100","price":"","reviewCount":6,"reviewScore":3,"meta":{"revision":0,"created":1547531153575,"version":0},"$loki":85},{"_id":"5c3d65bd3525a329e0c17adf","address":"602 IH 45 South","location":{"type":"Point","coordinates":[-95.5512075,30.7167966]},"isApproved":true,"items":[],"keys":["Ice Cream & Frozen Yogurt","Fast Food","Burgers"],"lastUpdated":1547527612799,"name":"Dairy Queen","phone":"(936) 436-1780","price":"","reviewCount":3,"reviewScore":2.5,"meta":{"revision":0,"created":1547531153575,"version":0},"$loki":86},{"_id":"5c3d65bd3525a329e0c0f824","address":"380 S Commerce St","location":{"type":"Point","coordinates":[-95.5516791,30.7187643]},"isApproved":true,"items":[],"keys":["Donuts","Breakfast & Brunch"],"lastUpdated":1547527612600,"name":"Lovelady Donuts","phone":"(936) 636-7149","price":"","reviewCount":2,"reviewScore":4.5,"meta":{"revision":0,"created":1547531153575,"version":0},"$loki":87},{"_id":"5c3d65bd3525a329e0c0fee4","address":"8130 Fm 1960 E","location":{"type":"Point","coordinates":[-95.5450046079674,30.7020370506078]},"isApproved":true,"items":[],"keys":["Sushi Bars","Specialty Food","Seafood"],"lastUpdated":1547527612609,"name":"Wazabi Sushi Bar","phone":"(281) 359-2555","price":"$$","reviewCount":102,"reviewScore":4,"meta":{"revision":0,"created":1547531153575,"version":0},"$loki":88},{"_id":"5c3d65bd3525a329e0c16874","address":"404 Jane St","location":{"type":"Point","coordinates":[-95.5450046079674,30.7020370506078]},"isApproved":true,"items":[],"keys":["Tex-Mex","American (New)","Latin American"],"lastUpdated":1547527612772,"name":"Mad Taco","phone":"(979) 704-6266","price":"$","reviewCount":435,"reviewScore":4.5,"meta":{"revision":0,"created":1547531153575,"version":0},"$loki":89},{"_id":"5c3d65bd3525a329e0c19bc9","address":"337 Carrington Ave W","location":{"type":"Point","coordinates":[-95.5450046079674,30.7020370506078]},"isApproved":true,"items":[],"keys":["Southern"],"lastUpdated":1547527612850,"name":"Brandin Iron","phone":"(903) 529-1200","price":"$","reviewCount":14,"reviewScore":4,"meta":{"revision":0,"created":1547531153575,"version":0},"$loki":90},{"_id":"5c3d65bd3525a329e0c09701","address":"1229 Josey St","location":{"type":"Point","coordinates":[-95.5506272754748,30.7076572643426]},"isApproved":true,"items":[],"keys":["American (Traditional)"],"lastUpdated":1547527612454,"name":"Potato Shack","phone":"(936) 291-7783","price":"$","reviewCount":62,"reviewScore":4,"meta":{"revision":0,"created":1547531153575,"version":0},"$loki":91},{"_id":"5c3d65bd3525a329e0bfffe4","address":"9309 Hwy 75","location":{"type":"Point","coordinates":[-95.536941,30.7008]},"isApproved":true,"items":[],"keys":["Donuts","Breakfast & Brunch"],"lastUpdated":1547527612223,"name":"Donut Delight","phone":"(936) 344-6110","price":"","reviewCount":5,"reviewScore":4,"meta":{"revision":0,"created":1547531153575,"version":0},"$loki":92},{"_id":"5c3d65bd3525a329e0c18a1c","address":"505 S Robb","location":{"type":"Point","coordinates":[-95.5379212,30.7123894]},"isApproved":true,"items":[],"keys":["Fast Food","Burgers","Ice Cream & Frozen Yogurt"],"lastUpdated":1547527612823,"name":"Sonic Drive-In","phone":"(936) 594-2577","price":"$","reviewCount":9,"reviewScore":2.5,"meta":{"revision":0,"created":1547531153575,"version":0},"$loki":93},{"_id":"5c3d65bd3525a329e0c0a4e7","address":"1501 W Church St","location":{"type":"Point","coordinates":[-95.5108032748103,30.7107301439312]},"isApproved":true,"items":[],"keys":["Sandwiches","Fast Food"],"lastUpdated":1547527612480,"name":"Subway","phone":"(936) 327-3838","price":"","reviewCount":3,"reviewScore":3.5,"meta":{"revision":0,"created":1547531153575,"version":0},"$loki":94},{"_id":"5c3d65bd3525a329e0c10d4d","address":"125 State Hwy 150 W","location":{"type":"Point","coordinates":[-95.50068,30.55003]},"isApproved":true,"items":[],"keys":["Sandwiches","Fast Food"],"lastUpdated":1547527612633,"name":"Subway","phone":"(936) 344-2555","price":"","reviewCount":1,"reviewScore":1,"meta":{"revision":0,"created":1547531153575,"version":0},"$loki":95},{"_id":"5c3d65bd3525a329e0bfff13","address":"1727 Texas Ave S","location":{"type":"Point","coordinates":[-95.4804232344031,30.5366442300844]},"isApproved":true,"items":[],"keys":["Pizza","Gelato","Wine Bars"],"lastUpdated":1547527612223,"name":"Napa Flats Wood Fired Kitchen - College Station","phone":"(979) 383-2500","price":"$$","reviewCount":471,"reviewScore":4,"meta":{"revision":0,"created":1547531153575,"version":0},"$loki":96},{"_id":"5c3d65bd3525a329e0c01ad4","address":"14050 US Hwy 190 W","location":{"type":"Point","coordinates":[-95.4804232344031,30.5366442300844]},"isApproved":true,"items":[],"keys":["Fast Food","Burgers","Ice Cream & Frozen Yogurt"],"lastUpdated":1547527612258,"name":"Sonic Drive-In","phone":"(936) 646-6671","price":"$$","reviewCount":3,"reviewScore":3.5,"meta":{"revision":0,"created":1547531153575,"version":0},"$loki":97},{"_id":"5c3d65bd3525a329e0c08f06","address":"828 S Robb St","location":{"type":"Point","coordinates":[-95.4808737,30.537253]},"isApproved":true,"items":[],"keys":["Mexican"],"lastUpdated":1547527612438,"name":"El Rancho Viejo","phone":"(936) 594-1494","price":"$$","reviewCount":36,"reviewScore":3,"meta":{"revision":0,"created":1547531153575,"version":0},"$loki":98},{"_id":"5c3d65bd3525a329e0bff53d","address":"1100 S Magnolia St","location":{"type":"Point","coordinates":[-95.482842,30.538866]},"isApproved":true,"items":[],"keys":["Fast Food","Burgers","Coffee & Tea"],"lastUpdated":1547527612216,"name":"McDonald’s","phone":"(409) 283-5855","price":"","reviewCount":5,"reviewScore":2,"meta":{"revision":0,"created":1547531153575,"version":0},"$loki":99},{"_id":"5c3d65bd3525a329e0c0faa6","address":"1008 W Church St","location":{"type":"Point","coordinates":[-95.4830611,30.5377125]},"isApproved":true,"items":[],"keys":["Fast Food","Burgers","Ice Cream & Frozen Yogurt"],"lastUpdated":1547527612601,"name":"Sonic Drive-In","phone":"(936) 327-3101","price":"$","reviewCount":8,"reviewScore":3.5,"meta":{"revision":0,"created":1547531153575,"version":0},"$loki":100},{"_id":"5c3d65bd3525a329e0c194d5","address":"1901 Sycamore Ave","location":{"type":"Point","coordinates":[-95.4841076,30.5399918]},"isApproved":true,"items":[],"keys":["Restaurants"],"lastUpdated":1547527612840,"name":"El Patio","phone":"(936) 295-6664","price":"$","reviewCount":8,"reviewScore":3.5,"meta":{"revision":0,"created":1547531153575,"version":0},"$loki":101},{"_id":"5c3d65bd3525a329e0c08772","address":"980 University Dr E","location":{"type":"Point","coordinates":[-95.481623374205,30.5452595108021]},"isApproved":true,"items":[],"keys":["Burgers"],"lastUpdated":1547527612428,"name":"Grub Burger Bar","phone":"(979) 268-1041","price":"$$","reviewCount":371,"reviewScore":4,"meta":{"revision":0,"created":1547531153575,"version":0},"$loki":102},{"_id":"5c3d65bd3525a329e0c1a554","address":"1504 W Church St","location":{"type":"Point","coordinates":[-95.481623374205,30.5452595108021]},"isApproved":true,"items":[],"keys":["Burgers","Fast Food"],"lastUpdated":1547527612860,"name":"Whataburger","phone":"(936) 327-5796","price":"$","reviewCount":21,"reviewScore":3,"meta":{"revision":0,"created":1547531153575,"version":0},"$loki":103},{"_id":"5c3d65bd3525a329e0c0c4fa","address":"35 Hwy 1514","location":{"type":"Point","coordinates":[-95.128886,30.5929]},"isApproved":true,"items":[],"keys":["American (Traditional)","Cajun/Creole","Sandwiches"],"lastUpdated":1547527612524,"name":"The Mason Jar Coldspring","phone":"(936) 653-2577","price":"$$","reviewCount":16,"reviewScore":5,"meta":{"revision":0,"created":1547531153575,"version":0},"$loki":104},{"_id":"5c3d65bd3525a329e0c15059","address":"15220 Hwy 150 W","location":{"type":"Point","coordinates":[-95.1298915,30.5921697]},"isApproved":true,"items":[],"keys":["American (Traditional)"],"lastUpdated":1547527612736,"name":"Paradise Grille","phone":"(936) 653-4929","price":"$$","reviewCount":22,"reviewScore":3.5,"meta":{"revision":0,"created":1547531153575,"version":0},"$loki":105},{"_id":"5c3d65bd3525a329e0c0feb3","address":"6230 Hwy 59 N","location":{"type":"Point","coordinates":[-95.1291976450098,30.5920464066685]},"isApproved":true,"items":[],"keys":["Diners","Breakfast & Brunch"],"lastUpdated":1547527612609,"name":"Happy Days Diner","phone":"(936) 628-6515","price":"$","reviewCount":8,"reviewScore":4,"meta":{"revision":0,"created":1547531153575,"version":0},"$loki":106},{"_id":"5c3d65bd3525a329e0c18502","address":"70 State Hwy 150","location":{"type":"Point","coordinates":[-95.129237,30.592013]},"isApproved":true,"items":[],"keys":["Mexican"],"lastUpdated":1547527612814,"name":"Taco Express","phone":"(936) 727-1333","price":"$","reviewCount":9,"reviewScore":4,"meta":{"revision":0,"created":1547531153575,"version":0},"$loki":107},{"_id":"5c3d65bd3525a329e0c172f2","address":"1840 Hwy 190 W","location":{"type":"Point","coordinates":[-95.1293818,30.592421]},"isApproved":true,"items":[],"keys":["Fast Food","Chicken Wings"],"lastUpdated":1547527612783,"name":"Chicken Express","phone":"(936) 327-2880","price":"$","reviewCount":8,"reviewScore":3.5,"meta":{"revision":0,"created":1547531153575,"version":0},"$loki":108},{"_id":"5c3d65bd3525a329e0c19d96","address":"81 Front St","location":{"type":"Point","coordinates":[-95.1293818,30.592421]},"isApproved":true,"items":[],"keys":["American (Traditional)","Mexican","Diners"],"lastUpdated":1547527612850,"name":"Frank’s Taco Station","phone":"(936) 594-8139","price":"$$","reviewCount":6,"reviewScore":4.5,"meta":{"revision":0,"created":1547531153575,"version":0},"$loki":109},{"_id":"5c3d65bd3525a329e0c09679","address":"136 Mockingbird Ln","location":{"type":"Point","coordinates":[-95.1358366,30.5911242]},"isApproved":true,"items":[],"keys":["Pubs","Seafood"],"lastUpdated":1547527612454,"name":"Rolling Hills Pub & Restaurant","phone":"(936) 327-8880","price":"$$","reviewCount":3,"reviewScore":2.5,"meta":{"revision":0,"created":1547531153575,"version":0},"$loki":110},{"_id":"5c3d65bd3525a329e0c0c087","address":"900 W Church St","location":{"type":"Point","coordinates":[-95.1339433,30.5919385]},"isApproved":true,"items":[],"keys":["Sandwiches","Delis","Pizza"],"lastUpdated":1547527612516,"name":"Schlotzsky’s","phone":"(936) 329-7961","price":"","reviewCount":5,"reviewScore":2,"meta":{"revision":0,"created":1547531153575,"version":0},"$loki":111},{"_id":"5c3d65bd3525a329e0c082b5","address":"14801 State Hwy 150 W","location":{"type":"Point","coordinates":[-95.1354177,30.5892805]},"isApproved":true,"items":[],"keys":["American (Traditional)"],"lastUpdated":1547527612420,"name":"The Hop","phone":"(936) 653-4889","price":"$","reviewCount":26,"reviewScore":3.5,"meta":{"revision":0,"created":1547531153575,"version":0},"$loki":112},{"_id":"5c3d65bd3525a329e0bff558","address":"661 Hwy 150 E","location":{"type":"Point","coordinates":[-95.1237490430642,30.5799947688334]},"isApproved":true,"items":[],"keys":["Barbeque","Burgers"],"lastUpdated":1547527612216,"name":"G.W.’s Hickory Pit BBQ","phone":"(936) 653-5892","price":"$","reviewCount":7,"reviewScore":4.5,"meta":{"revision":0,"created":1547531153575,"version":0},"$loki":113},{"_id":"5c3d65bd3525a329e0c19900","address":"373 Navaho Trl","location":{"type":"Point","coordinates":[-95.1512511447072,30.5677639672465]},"isApproved":true,"items":[],"keys":["American (Traditional)","Southern"],"lastUpdated":1547527612842,"name":"Pontoons Restaurant & Bar","phone":"(936) 646-4667","price":"","reviewCount":9,"reviewScore":2.5,"meta":{"revision":0,"created":1547531153575,"version":0},"$loki":114},{"_id":"5c3d65bd3525a329e0c153d1","address":"1285 W Church St","location":{"type":"Point","coordinates":[-95.229234,30.748274]},"isApproved":true,"items":[],"keys":["Sushi Bars","Asian Fusion"],"lastUpdated":1547527612738,"name":"Sakura","phone":"(936) 327-6263","price":"","reviewCount":3,"reviewScore":4.5,"meta":{"revision":0,"created":1547531153575,"version":0},"$loki":115},{"_id":"5c3d65bd3525a329e0c037ed","address":"14901 TX-150","location":{"type":"Point","coordinates":[-95.2197004018059,30.7481532450585]},"isApproved":true,"items":[],"keys":["Fast Food","Sandwiches"],"lastUpdated":1547527612304,"name":"Subway","phone":"(936) 653-8610","price":"$$","reviewCount":3,"reviewScore":3.5,"meta":{"revision":0,"created":1547531153575,"version":0},"$loki":116},{"_id":"5c3d65bd3525a329e0c04cfa","address":"201 Cape Royale Dr","location":{"type":"Point","coordinates":[-95.1431147376315,30.6503682976555]},"isApproved":true,"items":[],"keys":["Hot Dogs","American (Traditional)","Burgers"],"lastUpdated":1547527612338,"name":"The Cape Grill","phone":"(936) 653-2388","price":"","reviewCount":1,"reviewScore":5,"meta":{"revision":0,"created":1547531153575,"version":0},"$loki":117},{"_id":"5c3d65bd3525a329e0c0ad87","address":"4148 Fm 2457","location":{"type":"Point","coordinates":[-95.0778432,30.7345688]},"isApproved":true,"items":[],"keys":["Cajun/Creole","Seafood"],"lastUpdated":1547527612490,"name":"LeBlanc’s Cajun Kitchen","phone":"(936) 967-2010","price":"$$","reviewCount":38,"reviewScore":4,"meta":{"revision":0,"created":1547531153575,"version":0},"$loki":118},{"_id":"5c3d65bd3525a329e0c0454a","address":"229 Indian Hill Blvd","location":{"type":"Point","coordinates":[-95.087286,30.738256]},"isApproved":true,"items":[],"keys":["Sports Bars","Breakfast & Brunch","American (Traditional)"],"lastUpdated":1547527612323,"name":"Indian Hill Restaurant And Sports Bar","phone":"(936) 967-0333","price":"$$","reviewCount":83,"reviewScore":3.5,"meta":{"revision":0,"created":1547531153575,"version":0},"$loki":119},{"_id":"5c3d65bd3525a329e0c0c075","address":"318 N Washington Ave","location":{"type":"Point","coordinates":[-95.0961725,30.811749]},"isApproved":true,"items":[],"keys":["Burgers","American (Traditional)","Breakfast & Brunch"],"lastUpdated":1547527612516,"name":"Courthouse Whistle Stop Cafe","phone":"(936) 327-3222","price":"$","reviewCount":39,"reviewScore":3.5,"meta":{"revision":0,"created":1547531153575,"version":0},"$loki":120},{"_id":"5c3d65bd3525a329e0c134a5","address":"810 S Magnolia St","location":{"type":"Point","coordinates":[-95.0963657,30.815078]},"isApproved":true,"items":[],"keys":["American (New)"],"lastUpdated":1547527612690,"name":"Elijah’s Cafe","phone":"(409) 331-9090","price":"$","reviewCount":43,"reviewScore":3.5,"meta":{"revision":0,"created":1547531153575,"version":0},"$loki":121},{"_id":"5c3d65bd3525a329e0c162f4","address":"Rayfield Jefferson","location":{"type":"Point","coordinates":[-95.1006476,30.815465]},"isApproved":true,"items":[],"keys":["Caterers","Barbeque"],"lastUpdated":1547527612763,"name":"Catering By RJ","phone":"(936) 446-0170","price":"","reviewCount":1,"reviewScore":5,"meta":{"revision":0,"created":1547531153575,"version":0},"$loki":122},{"_id":"5c3d65bd3525a329e0c12fe4","address":"14597 US Hwy 190","location":{"type":"Point","coordinates":[-95.1181012,30.811082]},"isApproved":true,"items":[],"keys":["American (Traditional)"],"lastUpdated":1547527612688,"name":"Jerry’s Restaurant","phone":"(936) 646-3425","price":"$$","reviewCount":51,"reviewScore":3.5,"meta":{"revision":0,"created":1547531153575,"version":0},"$loki":123},{"_id":"5c3d65bd3525a329e0c0dd22","address":"14313 Hwy 190 W","location":{"type":"Point","coordinates":[-95.1162076244718,30.811227984857]},"isApproved":true,"items":[],"keys":["Mexican"],"lastUpdated":1547527612563,"name":"La Casita","phone":"(936) 646-5833","price":"$","reviewCount":16,"reviewScore":4,"meta":{"revision":0,"created":1547531153575,"version":0},"$loki":124},{"_id":"5c3d65bd3525a329e0c16942","address":"6899 US-190","location":{"type":"Point","coordinates":[-95.112307,30.8118064]},"isApproved":true,"items":[],"keys":["Breakfast & Brunch","Sandwiches"],"lastUpdated":1547527612772,"name":"subway","phone":"(936) 649-8168","price":"","reviewCount":1,"reviewScore":5,"meta":{"revision":0,"created":1547531153575,"version":0},"$loki":125},{"_id":"5c3d65bd3525a329e0c1096b","address":"9236 State Hwy 75 S","location":{"type":"Point","coordinates":[-95.1092076,30.8135758]},"isApproved":true,"items":[],"keys":["Mexican"],"lastUpdated":1547527612625,"name":"Anita Mexican Restaurant","phone":"(936) 344-6095","price":"$$","reviewCount":15,"reviewScore":3.5,"meta":{"revision":0,"created":1547531153575,"version":0},"$loki":126},{"_id":"5c3d65bd3525a329e0c0cad6","address":"14083 Hwy 190 W","location":{"type":"Point","coordinates":[-95.1097518,30.8124661]},"isApproved":true,"items":[],"keys":["American (Traditional)","Barbeque"],"lastUpdated":1547527612533,"name":"Miss Jeans Bar-BQ","phone":"(936) 646-6972","price":"$","reviewCount":21,"reviewScore":4.5,"meta":{"revision":0,"created":1547531153575,"version":0},"$loki":127},{"_id":"5c3d65bd3525a329e0c1242f","address":"15152 US 190 W","location":{"type":"Point","coordinates":[-95.12941,30.812127]},"isApproved":true,"items":[],"keys":["Seafood","Sandwiches","Burgers"],"lastUpdated":1547527612670,"name":"Farmhouse Restaurant On the Lake","phone":"(936) 646-2200","price":"$$","reviewCount":53,"reviewScore":4,"meta":{"revision":0,"created":1547531153575,"version":0},"$loki":128},{"_id":"5c3d65bd3525a329e0c16ea3","address":"130 Gibbs St","location":{"type":"Point","coordinates":[-95.388168,30.964081]},"isApproved":true,"items":[],"keys":["Coffee & Tea","Breakfast & Brunch"],"lastUpdated":1547527612781,"name":"Honey’s Coffee & Biscuits","phone":"(936) 446-7519","price":"$","reviewCount":12,"reviewScore":5,"meta":{"revision":0,"created":1547531153575,"version":0},"$loki":129},{"_id":"5c3d65bd3525a329e0c12209","address":"RR 2","location":{"type":"Point","coordinates":[-95.3876831999236,30.9629757363713]},"isApproved":true,"items":[],"keys":["Restaurants"],"lastUpdated":1547527612669,"name":"Holly Store & Cafe","phone":"(936) 636-7312","price":"$","reviewCount":1,"reviewScore":5,"meta":{"revision":0,"created":1547531153575,"version":0},"$loki":130},{"_id":"5c3d65bd3525a329e0c170b6","address":"4014 US Hwy 69 S","location":{"type":"Point","coordinates":[-95.3876831999236,30.9629757363713]},"isApproved":true,"items":[],"keys":["Mexican"],"lastUpdated":1547527612782,"name":"Senor Toros","phone":"(409) 331-9958","price":"$$","reviewCount":7,"reviewScore":3.5,"meta":{"revision":0,"created":1547531153575,"version":0},"$loki":131},{"_id":"5c3d65bd3525a329e0c0ec01","address":"1110 Ave M","location":{"type":"Point","coordinates":[-95.3749164699943,30.9457154673758]},"isApproved":true,"items":[],"keys":["Burgers","Food Trucks","Sandwiches"],"lastUpdated":1547527612582,"name":"Fatboys","phone":"(936) 577-5077","price":"$","reviewCount":18,"reviewScore":5,"meta":{"revision":0,"created":1547531153575,"version":0},"$loki":132},{"_id":"5c3d65bd3525a329e0c1481f","address":"315 FM 1375 E","location":{"type":"Point","coordinates":[-95.3749164699943,30.9457154673758]},"isApproved":true,"items":[],"keys":["American (Traditional)"],"lastUpdated":1547527612727,"name":"Red’s Dining","phone":"(936) 344-0100","price":"","reviewCount":4,"reviewScore":5,"meta":{"revision":0,"created":1547531153575,"version":0},"$loki":133},{"_id":"5c3d65bd3525a329e0c06def","address":"1848 W Hwy 79","location":{"type":"Point","coordinates":[-95.3732158333303,30.9461739991084]},"isApproved":true,"items":[],"keys":["Cafes"],"lastUpdated":1547527612387,"name":"Dixie Cafe","phone":"(979) 828-1322","price":"","reviewCount":3,"reviewScore":3,"meta":{"revision":0,"created":1547531153575,"version":0},"$loki":134},{"_id":"5c3d65bd3525a329e0c1552a","address":"3736 Hwy 19","location":{"type":"Point","coordinates":[-95.3732158333303,30.9461739991084]},"isApproved":true,"items":[],"keys":["Grocery","Meat Shops","Barbeque"],"lastUpdated":1547527612745,"name":"Tallent Sausage & Grocery","phone":"(936) 594-2591","price":"$$","reviewCount":28,"reviewScore":3,"meta":{"revision":0,"created":1547531153575,"version":0},"$loki":135},{"_id":"5c3d65bd3525a329e0c0748d","address":"1155 East Church Street","location":{"type":"Point","coordinates":[-95.3732549026608,30.9467397521782]},"isApproved":true,"items":[],"keys":["Diners","Breakfast & Brunch","American (Traditional)"],"lastUpdated":1547527612400,"name":"Huddle House","phone":"(936) 327-5344","price":"","reviewCount":4,"reviewScore":3,"meta":{"revision":0,"created":1547531153575,"version":0},"$loki":136},{"_id":"5c3d65bd3525a329e0c19a0f","address":"304 HWY 79 EAST","location":{"type":"Point","coordinates":[-95.3759319987148,30.9378375984418]},"isApproved":true,"items":[],"keys":["Fast Food","Burgers","Ice Cream & Frozen Yogurt"],"lastUpdated":1547527612848,"name":"Dairy Queen","phone":"(979) 828-3976","price":"$","reviewCount":6,"reviewScore":1.5,"meta":{"revision":0,"created":1547531153575,"version":0},"$loki":137},{"_id":"5c3d65bd3525a329e0bff825","address":"902 11th St","location":{"type":"Point","coordinates":[-95.3758388,30.9389947]},"isApproved":true,"items":[],"keys":["Mexican"],"lastUpdated":1547527612218,"name":"Lindo Mexico Taqueria","phone":"(936) 293-8040","price":"$","reviewCount":54,"reviewScore":4,"meta":{"revision":0,"created":1547531153575,"version":0},"$loki":138},{"_id":"5c3d65bd3525a329e0c0cd3b","address":"515 Prospect Dr","location":{"type":"Point","coordinates":[-95.3758388,30.9389947]},"isApproved":true,"items":[],"keys":["Tex-Mex"],"lastUpdated":1547527612534,"name":"Romo’s Tex Mex","phone":"(936) 594-0046","price":"$$","reviewCount":7,"reviewScore":3.5,"meta":{"revision":0,"created":1547531153575,"version":0},"$loki":139},{"_id":"5c3d65bd3525a329e0c0cfcf","address":"3011 Hwy 30 W","location":{"type":"Point","coordinates":[-95.374342,30.93793]},"isApproved":true,"items":[],"keys":["Tex-Mex","Mexican"],"lastUpdated":1547527612539,"name":"Rodeo","phone":"(936) 438-8284","price":"$","reviewCount":15,"reviewScore":3.5,"meta":{"revision":0,"created":1547531153575,"version":0},"$loki":140},{"_id":"5c3d65bd3525a329e0c12d4e","address":"6400 Highway 59","location":{"type":"Point","coordinates":[-95.374342,30.93793]},"isApproved":true,"items":[],"keys":["Fast Food","Burgers","Ice Cream & Frozen Yogurt"],"lastUpdated":1547527612681,"name":"Sonic Drive-In","phone":"(936) 628-2355","price":"$","reviewCount":7,"reviewScore":2.5,"meta":{"revision":0,"created":1547531153575,"version":0},"$loki":141},{"_id":"5c3d65bd3525a329e0c10851","address":"1501 Church St","location":{"type":"Point","coordinates":[-95.37434,30.937932]},"isApproved":true,"items":[],"keys":["Pizza","Fast Food"],"lastUpdated":1547527612620,"name":"Little Caesars Pizza","phone":"(936) 328-8440","price":"","reviewCount":1,"reviewScore":3,"meta":{"revision":0,"created":1547531153575,"version":0},"$loki":142},{"_id":"5c3d65bd3525a329e0c1345b","address":"118 IH-45 S","location":{"type":"Point","coordinates":[-95.37434,30.937932]},"isApproved":true,"items":[],"keys":["Sandwiches","Delis"],"lastUpdated":1547527612690,"name":"Schlotzsky’s","phone":"(936) 293-1900","price":"$","reviewCount":14,"reviewScore":3.5,"meta":{"revision":0,"created":1547531153575,"version":0},"$loki":143},{"_id":"5c3d65bd3525a329e0c0735d","address":"758 W US Hwy 79","location":{"type":"Point","coordinates":[-95.3745633,30.9393647]},"isApproved":true,"items":[],"keys":["Sandwiches","Fast Food"],"lastUpdated":1547527612399,"name":"Subway","phone":"(979) 828-5922","price":"","reviewCount":3,"reviewScore":2,"meta":{"revision":0,"created":1547531153575,"version":0},"$loki":144},{"_id":"5c3d65bd3525a329e0c18fbf","address":"4030 Sam Houston Ave","location":{"type":"Point","coordinates":[-95.3745633,30.9393647]},"isApproved":true,"items":[],"keys":["Pizza","Italian","Chicken Wings"],"lastUpdated":1547527612832,"name":"Pizza Hut - Sam Houston","phone":"(936) 295-3580","price":"$","reviewCount":3,"reviewScore":4.5,"meta":{"revision":0,"created":1547531153575,"version":0},"$loki":145},{"_id":"5c3d65bd3525a329e0c025d6","address":"1215 Ave Q","location":{"type":"Point","coordinates":[-95.3755219,30.9404046]},"isApproved":true,"items":[],"keys":["Barbeque"],"lastUpdated":1547527612278,"name":"Lonestar Bbq","phone":"(936) 439-4073","price":"$$","reviewCount":3,"reviewScore":4.5,"meta":{"revision":0,"created":1547531153575,"version":0},"$loki":146},{"_id":"5c3d65bd3525a329e0c1af54","address":"1601 W Church St","location":{"type":"Point","coordinates":[-95.3755219,30.9404046]},"isApproved":true,"items":[],"keys":["Fast Food","Burgers","Coffee & Tea"],"lastUpdated":1547527612876,"name":"McDonald’s","phone":"(936) 327-7676","price":"$","reviewCount":10,"reviewScore":2.5,"meta":{"revision":0,"created":1547531153575,"version":0},"$loki":147},{"_id":"5c3d65bd3525a329e0c13fae","address":"2641 11th St","location":{"type":"Point","coordinates":[-95.37431061876,30.9409683689279]},"isApproved":true,"items":[],"keys":["Steakhouses"],"lastUpdated":1547527612707,"name":"1836 Steakhouse","phone":"(936) 755-8150","price":"$$","reviewCount":113,"reviewScore":4,"meta":{"revision":0,"created":1547531153575,"version":0},"$loki":148},{"_id":"5c3d65bd3525a329e0bff8a3","address":"102 N Magnolia St","location":{"type":"Point","coordinates":[-95.3749667449472,30.944525559038]},"isApproved":true,"items":[],"keys":["Burgers"],"lastUpdated":1547527612219,"name":"Jack in the Box","phone":"(409) 331-1136","price":"","reviewCount":5,"reviewScore":3,"meta":{"revision":0,"created":1547531153575,"version":0},"$loki":149},{"_id":"5c3d65bd3525a329e0c15ca4","address":"1580 N State Hwy 19","location":{"type":"Point","coordinates":[-95.3751846,30.9198908]},"isApproved":true,"items":[],"keys":["Grocery","Thai"],"lastUpdated":1547527612755,"name":"Thai Barn","phone":"(936) 594-0501","price":"$","reviewCount":5,"reviewScore":5,"meta":{"revision":0,"created":1547531153575,"version":0},"$loki":150},{"_id":"5c3d65bd3525a329e0bff555","address":"1876 Hwy W 79","location":{"type":"Point","coordinates":[-95.381577,30.878215]},"isApproved":true,"items":[],"keys":["Fast Food"],"lastUpdated":1547527612216,"name":"Chicken Express","phone":"","price":"","reviewCount":2,"reviewScore":2,"meta":{"revision":0,"created":1547531153575,"version":0},"$loki":151},{"_id":"5c3d65bd3525a329e0c17a67","address":"515 S Robb St","location":{"type":"Point","coordinates":[-95.381577,30.878215]},"isApproved":true,"items":[],"keys":["Seafood","Breakfast & Brunch"],"lastUpdated":1547527612798,"name":"Joseph’s Restaurant","phone":"(936) 594-3663","price":"","reviewCount":7,"reviewScore":2.5,"meta":{"revision":0,"created":1547531153575,"version":0},"$loki":152},{"_id":"5c3d65bd3525a329e0c0efd4","address":"718 S Robb St","location":{"type":"Point","coordinates":[-95.4048607125878,30.8502630140814]},"isApproved":true,"items":[],"keys":["Mexican"],"lastUpdated":1547527612589,"name":"Los Panchitos","phone":"(936) 594-9869","price":"$$","reviewCount":6,"reviewScore":3.5,"meta":{"revision":0,"created":1547531153575,"version":0},"$loki":153},{"_id":"5c3d65bd3525a329e0c14f5e","address":"1548 11th St","location":{"type":"Point","coordinates":[-95.4048607125878,30.8502630140814]},"isApproved":true,"items":[],"keys":["Tex-Mex","Mexican"],"lastUpdated":1547527612736,"name":"Los Pericos Mexican Restaurant","phone":"(936) 295-8131","price":"$","reviewCount":54,"reviewScore":4,"meta":{"revision":0,"created":1547531153575,"version":0},"$loki":154},{"_id":"5c3d65bd3525a329e0c064fc","address":"3687 Hwy 19","location":{"type":"Point","coordinates":[-95.408833,30.847073]},"isApproved":true,"items":[],"keys":["Diners","American (Traditional)","Southern"],"lastUpdated":1547527612377,"name":"Daisy’s Diner","phone":"(936) 594-3081","price":"$$","reviewCount":36,"reviewScore":4.5,"meta":{"revision":0,"created":1547531153575,"version":0},"$loki":155},{"_id":"5c3d65bd3525a329e0c129b5","address":"1610 E Main St","location":{"type":"Point","coordinates":[-95.408833,30.847073]},"isApproved":true,"items":[],"keys":["Buffets"],"lastUpdated":1547527612679,"name":"East Buffet","phone":"(936) 349-0888","price":"$","reviewCount":10,"reviewScore":2.5,"meta":{"revision":0,"created":1547531153575,"version":0},"$loki":156},{"_id":"5c3d65bd3525a329e0c116ed","address":"954 V W Goodwin Blvd","location":{"type":"Point","coordinates":[-95.3994889184833,30.8521722247546]},"isApproved":true,"items":[],"keys":["Tex-Mex"],"lastUpdated":1547527612650,"name":"Anita’s Tex Mex Restaurant","phone":"(254) 315-0485","price":"$","reviewCount":5,"reviewScore":4.5,"meta":{"revision":0,"created":1547531153575,"version":0},"$loki":157},{"_id":"5c3d65bd3525a329e0c14d3c","address":"3002 E Main St","location":{"type":"Point","coordinates":[-95.401718,30.975095]},"isApproved":true,"items":[],"keys":["Chicken Wings","Fast Food"],"lastUpdated":1547527612729,"name":"Church’s Chicken","phone":"(936) 348-3528","price":"$","reviewCount":2,"reviewScore":2,"meta":{"revision":0,"created":1547531153575,"version":0},"$loki":158},{"_id":"5c3d65bd3525a329e0c19d31","address":"703 S Magnolia","location":{"type":"Point","coordinates":[-95.401718,30.975095]},"isApproved":true,"items":[],"keys":["Burgers","Fast Food"],"lastUpdated":1547527612850,"name":"Whataburger","phone":"(409) 331-9848","price":"$","reviewCount":8,"reviewScore":4,"meta":{"revision":0,"created":1547531153575,"version":0},"$loki":159},{"_id":"5c3d65bd3525a329e0c00c2a","address":"1610 West Church","location":{"type":"Point","coordinates":[-95.4017178,30.9750945]},"isApproved":true,"items":[],"keys":["Fast Food","Mexican","Tex-Mex"],"lastUpdated":1547527612230,"name":"Taco Bell","phone":"(936) 327-4166","price":"$","reviewCount":5,"reviewScore":2,"meta":{"revision":0,"created":1547531153575,"version":0},"$loki":160},{"_id":"5c3d65bd3525a329e0c011c7","address":"301 W Main St","location":{"type":"Point","coordinates":[-95.4017178,30.9750945]},"isApproved":true,"items":[],"keys":["Ice Cream & Frozen Yogurt","Burgers","Fast Food"],"lastUpdated":1547527612239,"name":"Dairy Queen","phone":"(936) 348-6171","price":"","reviewCount":7,"reviewScore":3.5,"meta":{"revision":0,"created":1547531153575,"version":0},"$loki":161}],"idIndex":[1,2,3,4,5,6,7,8,9,10,11,12,13,14,15,16,17,18,19,20,21,22,23,24,25,26,27,28,29,30,31,32,33,34,35,36,37,38,39,40,41,42,43,44,45,46,47,48,49,50,51,52,53,54,55,56,57,58,59,60,61,62,63,64,65,66,67,68,69,70,71,72,73,74,75,76,77,78,79,80,81,82,83,84,85,86,87,88,89,90,91,92,93,94,95,96,97,98,99,100,101,102,103,104,105,106,107,108,109,110,111,112,113,114,115,116,117,118,119,120,121,122,123,124,125,126,127,128,129,130,131,132,133,134,135,136,137,138,139,140,141,142,143,144,145,146,147,148,149,150,151,152,153,154,155,156,157,158,159,160,161],"binaryIndices":{},"constraints":null,"uniqueNames":[],"transforms":{},"objType":"restaurants","dirty":true,"cachedIndex":null,"cachedBinaryIndex":null,"cachedData":null,"adaptiveBinaryIndices":true,"transactional":false,"cloneObjects":false,"cloneMethod":"parse-stringify","asyncListeners":false,"disableMeta":false,"disableChangesApi":true,"disableDeltaChangesApi":true,"autoupdate":false,"serializableIndices":true,"ttl":null,"maxId":161,"DynamicViews":[],"events":{"insert":[],"update":[],"pre-insert":[],"pre-update":[],"close":[],"flushbuffer":[],"error":[],"delete":[null],"warning":[null]},"changes":[]}],"databaseVersion":1.5,"engineVersion":1.5,"autosave":false,"autosaveInterval":5000,"autosaveHandle":null,"throttledSaves":true,"options":{"serializationMethod":"normal","destructureDelimiter":"$<\n"},"persistenceMethod":"fs","persistenceAdapter":null,"verbose":false,"events":{"init":[null],"loaded":[],"flushChanges":[],"close":[],"changes":[],"warning":[]},"ENV":"NODEJS"}