{"filename":"-95.25-35.5","collections":[{"name":"restaurants","data":[{"_id":"5c3d65bd3525a329e0c0fea3","address":"1706 N Broadway","location":{"type":"Point","coordinates":[-95.1204273,35.2532452]},"isApproved":true,"items":[],"keys":["Burgers","Fast Food","Ice Cream & Frozen Yogurt"],"lastUpdated":1547527612609,"name":"Sonic Drive-In","phone":"(918) 649-0416","price":"","reviewCount":1,"reviewScore":1,"meta":{"revision":0,"created":1547531156166,"version":0},"$loki":1},{"_id":"5c3d65bd3525a329e0c073ed","address":"412 E Main St","location":{"type":"Point","coordinates":[-95.122095,35.252964]},"isApproved":true,"items":[],"keys":["Barbeque"],"lastUpdated":1547527612399,"name":"Pop’s BBQ","phone":"(918) 967-8488","price":"","reviewCount":1,"reviewScore":5,"meta":{"revision":0,"created":1547531156166,"version":0},"$loki":2},{"_id":"5c3d65bd3525a329e0c19787","address":"9009 Highway 71 S","location":{"type":"Point","coordinates":[-95.1190459,35.2522163]},"isApproved":true,"items":[],"keys":["Breakfast & Brunch","American (Traditional)","Waffles"],"lastUpdated":1547527612841,"name":"Waffle House","phone":"(479) 646-2050","price":"$","reviewCount":4,"reviewScore":4,"meta":{"revision":0,"created":1547531156166,"version":0},"$loki":3},{"_id":"5c3d65bd3525a329e0c128fa","address":"805 E Main St","location":{"type":"Point","coordinates":[-95.1167288,35.2519414]},"isApproved":true,"items":[],"keys":["Mexican"],"lastUpdated":1547527612679,"name":"Ruben’s Mexican Restaurant","phone":"(918) 967-2427","price":"","reviewCount":2,"reviewScore":3,"meta":{"revision":0,"created":1547531156166,"version":0},"$loki":4},{"_id":"5c3d65bd3525a329e0c13490","address":"318 W Main St","location":{"type":"Point","coordinates":[-95.1107598409719,35.2536703145443]},"isApproved":true,"items":[],"keys":["Food Trucks","Barbeque"],"lastUpdated":1547527612690,"name":"Okie Brothers BBQ","phone":"","price":"","reviewCount":1,"reviewScore":5,"meta":{"revision":0,"created":1547531156166,"version":0},"$loki":5},{"_id":"5c3d65bd3525a329e0c03f6b","address":"113 W Main St","location":{"type":"Point","coordinates":[-95.1264042,35.2544956]},"isApproved":true,"items":[],"keys":["Restaurants"],"lastUpdated":1547527612319,"name":"Stigler Cafe","phone":"(918) 967-9939","price":"","reviewCount":1,"reviewScore":4,"meta":{"revision":0,"created":1547531156166,"version":0},"$loki":6},{"_id":"5c3d65bd3525a329e0c17104","address":"1812 E Main St","location":{"type":"Point","coordinates":[-95.100721,35.260085]},"isApproved":true,"items":[],"keys":["American (Traditional)"],"lastUpdated":1547527612782,"name":"E’s Hideaway Restaurant","phone":"(918) 967-9000","price":"$$","reviewCount":8,"reviewScore":4.5,"meta":{"revision":0,"created":1547531156166,"version":0},"$loki":7},{"_id":"5c3d65bd3525a329e0c0d1f4","address":"Texanna Rd","location":{"type":"Point","coordinates":[-95.571373,35.362671]},"isApproved":true,"items":[],"keys":["Cheesesteaks","Burgers","Sandwiches"],"lastUpdated":1547527612545,"name":"Coneheadz","phone":"(918) 689-9955","price":"","reviewCount":1,"reviewScore":5,"meta":{"revision":0,"created":1547531156166,"version":0},"$loki":8},{"_id":"5c3d65bd3525a329e0c10604","address":"","location":{"type":"Point","coordinates":[-95.5711177,35.3680315]},"isApproved":true,"items":[],"keys":["Food Trucks","Barbeque"],"lastUpdated":1547527612618,"name":"Newman’s Firehouse BBQ","phone":"(770) 380-8151","price":"","reviewCount":1,"reviewScore":3,"meta":{"revision":0,"created":1547531156166,"version":0},"$loki":9},{"_id":"5c3d65bd3525a329e0c0d562","address":"419103 Texanna Rd","location":{"type":"Point","coordinates":[-95.5556823227229,35.3628287340342]},"isApproved":true,"items":[],"keys":["Barbeque","Soul Food","Sandwiches"],"lastUpdated":1547527612548,"name":"Bronko’s Pit Q & Grill","phone":"(918) 707-5510","price":"","reviewCount":5,"reviewScore":5,"meta":{"revision":0,"created":1547531156166,"version":0},"$loki":10},{"_id":"5c3d65bd3525a329e0c13388","address":"1000 E 6th St","location":{"type":"Point","coordinates":[-95.5525711,35.3627518]},"isApproved":true,"items":[],"keys":["Ice Cream & Frozen Yogurt","Fast Food"],"lastUpdated":1547527612689,"name":"Dairy Queen","phone":"(918) 756-4554","price":"$","reviewCount":10,"reviewScore":4,"meta":{"revision":0,"created":1547531156166,"version":0},"$loki":11},{"_id":"5c3d65bd3525a329e0c136e0","address":"Hwy 2 College Rd","location":{"type":"Point","coordinates":[-95.546026,35.361965]},"isApproved":true,"items":[],"keys":["Cafes"],"lastUpdated":1547527612697,"name":"McGills Cowhand Cafe","phone":"(918) 463-3809","price":"","reviewCount":1,"reviewScore":5,"meta":{"revision":0,"created":1547531156166,"version":0},"$loki":12},{"_id":"5c3d65bd3525a329e0c18e88","address":"102 N Highway 10","location":{"type":"Point","coordinates":[-95.5248019,35.4650724]},"isApproved":true,"items":[],"keys":["Restaurants"],"lastUpdated":1547527612831,"name":"Our Place Cafe","phone":"(918) 487-5264","price":"$","reviewCount":1,"reviewScore":4,"meta":{"revision":0,"created":1547531156166,"version":0},"$loki":13},{"_id":"5c3d65bd3525a329e0c1a244","address":"216 W Gentry Ave","location":{"type":"Point","coordinates":[-95.5258277,35.4637028]},"isApproved":true,"items":[],"keys":["Pizza"],"lastUpdated":1547527612858,"name":"Gambino’s Pizza","phone":"(918) 926-3626","price":"","reviewCount":3,"reviewScore":3.5,"meta":{"revision":0,"created":1547531156166,"version":0},"$loki":14},{"_id":"5c3d65bd3525a329e0c1278e","address":"716 W Gentry Ave","location":{"type":"Point","coordinates":[-95.528787025385,35.4712179604468]},"isApproved":true,"items":[],"keys":["Breakfast & Brunch"],"lastUpdated":1547527612672,"name":"Kountry Kookin","phone":"(918) 473-0050","price":"$","reviewCount":18,"reviewScore":4.5,"meta":{"revision":0,"created":1547531156166,"version":0},"$loki":15},{"_id":"5c3d65bd3525a329e0c05311","address":"214 Highway 100","location":{"type":"Point","coordinates":[-95.5227523,35.4698169]},"isApproved":true,"items":[],"keys":["American (Traditional)"],"lastUpdated":1547527612346,"name":"Cox Country Buffet","phone":"(918) 464-2944","price":"$","reviewCount":13,"reviewScore":3.5,"meta":{"revision":0,"created":1547531156166,"version":0},"$loki":16},{"_id":"5c3d65bd3525a329e0c018a9","address":"305 W Gentry Ave","location":{"type":"Point","coordinates":[-95.5232237,35.470414]},"isApproved":true,"items":[],"keys":["Diners"],"lastUpdated":1547527612251,"name":"Boomarang Diner","phone":"(918) 473-7774","price":"","reviewCount":8,"reviewScore":4.5,"meta":{"revision":0,"created":1547531156166,"version":0},"$loki":17},{"_id":"5c3d65bd3525a329e0c1489f","address":"212 S Broadway St","location":{"type":"Point","coordinates":[-95.5232442,35.4684717]},"isApproved":true,"items":[],"keys":["Mexican"],"lastUpdated":1547527612727,"name":"Silivia’s Mexican Restraunt","phone":"(918) 473-0055","price":"$","reviewCount":15,"reviewScore":4.5,"meta":{"revision":0,"created":1547531156166,"version":0},"$loki":18},{"_id":"5c3d65bd3525a329e0c17422","address":"123 S Broadway St","location":{"type":"Point","coordinates":[-95.5233291674591,35.4696375180737]},"isApproved":true,"items":[],"keys":["American (New)"],"lastUpdated":1547527612789,"name":"June’s Restaurant","phone":"(918) 473-2356","price":"$","reviewCount":68,"reviewScore":4.5,"meta":{"revision":0,"created":1547531156166,"version":0},"$loki":19},{"_id":"5c3d65bd3525a329e0c198ab","address":"215 W Spaulding Ave","location":{"type":"Point","coordinates":[-95.5222426,35.4710652]},"isApproved":true,"items":[],"keys":["Delis","Ice Cream & Frozen Yogurt"],"lastUpdated":1547527612842,"name":"Street Side Deli & Creamery","phone":"(918) 926-3335","price":"","reviewCount":5,"reviewScore":4,"meta":{"revision":0,"created":1547531156166,"version":0},"$loki":20},{"_id":"5c3d65bd3525a329e0c0ca38","address":"722 N Broadway St","location":{"type":"Point","coordinates":[-95.5214277,35.477681]},"isApproved":true,"items":[],"keys":["Diners","Desserts","Breakfast & Brunch"],"lastUpdated":1547527612532,"name":"69 Diner","phone":"(918) 473-5144","price":"$","reviewCount":7,"reviewScore":4,"meta":{"revision":0,"created":1547531156166,"version":0},"$loki":21},{"_id":"5c3d65bd3525a329e0bfff5e","address":"1003 S Hwy 2","location":{"type":"Point","coordinates":[-95.5350778031946,35.4730657123834]},"isApproved":true,"items":[],"keys":["Fast Food","Burgers","Coffee & Tea"],"lastUpdated":1547527612223,"name":"McDonald’s","phone":"(918) 463-5313","price":"$","reviewCount":11,"reviewScore":2.5,"meta":{"revision":0,"created":1547531156166,"version":0},"$loki":22},{"_id":"5c3d65bd3525a329e0c1585b","address":"214 South Hwy 100","location":{"type":"Point","coordinates":[-95.5349495,35.4736313]},"isApproved":true,"items":[],"keys":["Fast Food"],"lastUpdated":1547527612747,"name":"Burger King","phone":"(918) 464-2665","price":"$","reviewCount":6,"reviewScore":2.5,"meta":{"revision":0,"created":1547531156166,"version":0},"$loki":23},{"_id":"5c3d65bd3525a329e0c0c7c7","address":"1110 S Wood Dr","location":{"type":"Point","coordinates":[-95.5388186126947,35.4754021962907]},"isApproved":true,"items":[],"keys":["Chicken Wings","Pizza","Sandwiches"],"lastUpdated":1547527612526,"name":"Domino’s Pizza","phone":"(918) 756-1700","price":"","reviewCount":4,"reviewScore":3,"meta":{"revision":0,"created":1547531156166,"version":0},"$loki":24},{"_id":"5c3d65bd3525a329e0c06ac3","address":"1525 N Wood Dr","location":{"type":"Point","coordinates":[-95.5381295,35.476438]},"isApproved":true,"items":[],"keys":["Mexican"],"lastUpdated":1547527612380,"name":"El Charro Mexican Restaurant","phone":"(918) 752-0211","price":"$","reviewCount":6,"reviewScore":3.5,"meta":{"revision":0,"created":1547531156166,"version":0},"$loki":25},{"_id":"5c3d65bd3525a329e0c18fc5","address":"1222 West Gentry Ave","location":{"type":"Point","coordinates":[-95.5381467,35.4771546]},"isApproved":true,"items":[],"keys":["Mexican"],"lastUpdated":1547527612832,"name":"El Jarocho","phone":"(918) 473-0301","price":"$","reviewCount":29,"reviewScore":4.5,"meta":{"revision":0,"created":1547531156166,"version":0},"$loki":26},{"_id":"5c3d65bd3525a329e0c02165","address":"110 Paul Carr Dr","location":{"type":"Point","coordinates":[-95.535768,35.4730084]},"isApproved":true,"items":[],"keys":["Barbeque"],"lastUpdated":1547527612275,"name":"Smoke Ring BBQ","phone":"(918) 843-1809","price":"$$","reviewCount":5,"reviewScore":5,"meta":{"revision":0,"created":1547531156166,"version":0},"$loki":27},{"_id":"5c3d65bd3525a329e0c03094","address":"101 N Wood Dr","location":{"type":"Point","coordinates":[-95.5365380644799,35.4717193881081]},"isApproved":true,"items":[],"keys":["Sandwiches","Fast Food"],"lastUpdated":1547527612295,"name":"Subway","phone":"(918) 756-5300","price":"","reviewCount":2,"reviewScore":3,"meta":{"revision":0,"created":1547531156166,"version":0},"$loki":28},{"_id":"5c3d65bd3525a329e0c0e07b","address":"608 Woody Guthrie St","location":{"type":"Point","coordinates":[-95.42069,35.6679761]},"isApproved":true,"items":[],"keys":["Mexican"],"lastUpdated":1547527612564,"name":"Pepino’s Mexican Restaurant","phone":"(918) 623-2800","price":"$$","reviewCount":16,"reviewScore":4,"meta":{"revision":0,"created":1547531156166,"version":0},"$loki":29},{"_id":"5c3d65bd3525a329e0c092fe","address":"1603 S Lee St","location":{"type":"Point","coordinates":[-95.4022568588717,35.7262499116121]},"isApproved":true,"items":[],"keys":["Chicken Shop"],"lastUpdated":1547527612452,"name":"Charlie’s Chicken","phone":"(918) 478-3647","price":"$","reviewCount":7,"reviewScore":3,"meta":{"revision":0,"created":1547531156166,"version":0},"$loki":30},{"_id":"5c3d65bd3525a329e0c006c7","address":"1306 S Chouteau Ave","location":{"type":"Point","coordinates":[-95.402995,35.749747]},"isApproved":true,"items":[],"keys":["Fast Food","Burgers","Ice Cream & Frozen Yogurt"],"lastUpdated":1547527612227,"name":"Sonic Drive-In","phone":"(918) 476-4555","price":"$","reviewCount":1,"reviewScore":2,"meta":{"revision":0,"created":1547531156166,"version":0},"$loki":31},{"_id":"5c3d65bd3525a329e0c03596","address":"13637 S State Hwy 51","location":{"type":"Point","coordinates":[-95.4030624,35.7493776]},"isApproved":true,"items":[],"keys":["Mexican"],"lastUpdated":1547527612303,"name":"Los Tequilas Mexican Restaurant","phone":"(918) 279-9423","price":"$","reviewCount":2,"reviewScore":3.5,"meta":{"revision":0,"created":1547531156166,"version":0},"$loki":32},{"_id":"5c3d65bd3525a329e0c088f2","address":"101 N Lee St","location":{"type":"Point","coordinates":[-95.4020132,35.7469034]},"isApproved":true,"items":[],"keys":["Pizza","Breakfast & Brunch","Coffee & Tea"],"lastUpdated":1547527612429,"name":"Urban Station","phone":"(918) 203-5077","price":"$$","reviewCount":7,"reviewScore":4.5,"meta":{"revision":0,"created":1547531156166,"version":0},"$loki":33},{"_id":"5c3d65bd3525a329e0c06083","address":"2210 N Aspen Ave","location":{"type":"Point","coordinates":[-95.403824,35.746156]},"isApproved":true,"items":[],"keys":["Diners","Breakfast & Brunch","American (Traditional)"],"lastUpdated":1547527612368,"name":"Waffle House","phone":"(918) 258-4754","price":"$","reviewCount":12,"reviewScore":4,"meta":{"revision":0,"created":1547531156166,"version":0},"$loki":34},{"_id":"5c3d65bd3525a329e0c136cf","address":"452 W Martin Luther King St","location":{"type":"Point","coordinates":[-95.41586,35.755215]},"isApproved":true,"items":[],"keys":["Food Stands"],"lastUpdated":1547527612696,"name":"Fish Hut","phone":"(918) 537-2029","price":"","reviewCount":2,"reviewScore":4,"meta":{"revision":0,"created":1547531156166,"version":0},"$loki":35},{"_id":"5c3d65bd3525a329e0c05799","address":"29301 OK-82","location":{"type":"Point","coordinates":[-95.412369,35.7552592]},"isApproved":true,"items":[],"keys":["American (New)"],"lastUpdated":1547527612349,"name":"Princess Restaurant","phone":"(918) 457-4270","price":"$","reviewCount":5,"reviewScore":4,"meta":{"revision":0,"created":1547531156166,"version":0},"$loki":36},{"_id":"5c3d65bd3525a329e0c183ca","address":"217 Eastside Blvd","location":{"type":"Point","coordinates":[-95.4085417,35.7548359]},"isApproved":true,"items":[],"keys":["Mexican"],"lastUpdated":1547527612814,"name":"Bukanas Mexican Grill","phone":"(918) 577-6898","price":"$$","reviewCount":6,"reviewScore":3.5,"meta":{"revision":0,"created":1547531156166,"version":0},"$loki":37},{"_id":"5c3d65bd3525a329e0c017f3","address":"109 N Blake Dr","location":{"type":"Point","coordinates":[-95.4070752114058,35.7552384552237]},"isApproved":true,"items":[],"keys":["Fast Food","Mexican","Tex-Mex"],"lastUpdated":1547527612251,"name":"Taco Bueno","phone":"(918) 485-7044","price":"","reviewCount":1,"reviewScore":1,"meta":{"revision":0,"created":1547531156166,"version":0},"$loki":38},{"_id":"5c3d65bd3525a329e0c01932","address":"1320 E Hillside Dr","location":{"type":"Point","coordinates":[-95.4045495,35.754695]},"isApproved":true,"items":[],"keys":["Southern"],"lastUpdated":1547527612251,"name":"Chicken Salad Chick of Broken Arrow","phone":"(918) 517-8152","price":"","reviewCount":7,"reviewScore":3.5,"meta":{"revision":0,"created":1547531156166,"version":0},"$loki":39},{"_id":"5c3d65bd3525a329e0c0c092","address":"2550 E Kenosha St","location":{"type":"Point","coordinates":[-95.4030001862066,35.7546109753739]},"isApproved":true,"items":[],"keys":["Pizza","Chicken Wings","Sandwiches"],"lastUpdated":1547527612516,"name":"Domino’s Pizza","phone":"(918) 615-3315","price":"","reviewCount":4,"reviewScore":4,"meta":{"revision":0,"created":1547531156166,"version":0},"$loki":40},{"_id":"5c3d65bd3525a329e0c03a44","address":"2125 E Main St","location":{"type":"Point","coordinates":[-95.4029336,35.7511743]},"isApproved":true,"items":[],"keys":["Pizza"],"lastUpdated":1547527612311,"name":"Jim’s Razorback Pizza","phone":"(479) 549-4800","price":"","reviewCount":2,"reviewScore":4.5,"meta":{"revision":0,"created":1547531156166,"version":0},"$loki":41},{"_id":"5c3d65bd3525a329e0c08f6e","address":"2036 S Miller Dr","location":{"type":"Point","coordinates":[-95.4029698,35.7524836]},"isApproved":true,"items":[],"keys":["American (New)","Pubs"],"lastUpdated":1547527612438,"name":"The LODGE Eatery and Pub","phone":"(918) 739-3825","price":"$$","reviewCount":30,"reviewScore":4,"meta":{"revision":0,"created":1547531156166,"version":0},"$loki":42},{"_id":"5c3d65bd3525a329e0c01197","address":"1151 E Hillside Dr","location":{"type":"Point","coordinates":[-95.402095,35.7529373]},"isApproved":true,"items":[],"keys":["Burgers","Fast Food"],"lastUpdated":1547527612239,"name":"Freddy’s Frozen Custard & Steakburgers","phone":"(918) 449-0225","price":"$","reviewCount":17,"reviewScore":3.5,"meta":{"revision":0,"created":1547531156166,"version":0},"$loki":43},{"_id":"5c3d65bd3525a329e0c02ea6","address":"2907 W Okmulgee St","location":{"type":"Point","coordinates":[-95.4000497,35.7547267]},"isApproved":true,"items":[],"keys":["Mexican"],"lastUpdated":1547527612294,"name":"Taco Mayo","phone":"(918) 683-1515","price":"$","reviewCount":3,"reviewScore":2,"meta":{"revision":0,"created":1547531156166,"version":0},"$loki":44},{"_id":"5c3d65bd3525a329e0c0f902","address":"315 US-412","location":{"type":"Point","coordinates":[-95.401525,35.75436]},"isApproved":true,"items":[],"keys":["Asian Fusion"],"lastUpdated":1547527612600,"name":"Asian Chef","phone":"","price":"$","reviewCount":12,"reviewScore":3,"meta":{"revision":0,"created":1547531156166,"version":0},"$loki":45},{"_id":"5c3d65bd3525a329e0c03357","address":"3030 W Okmulgee St","location":{"type":"Point","coordinates":[-95.4012119,35.7553641]},"isApproved":true,"items":[],"keys":["Pizza"],"lastUpdated":1547527612302,"name":"Mazzio’s Pizza","phone":"(918) 687-4401","price":"$$","reviewCount":5,"reviewScore":3,"meta":{"revision":0,"created":1547531156166,"version":0},"$loki":46},{"_id":"5c3d65bd3525a329e0c009ee","address":"3003 W Okmulgee St","location":{"type":"Point","coordinates":[-95.4004404,35.7548623]},"isApproved":true,"items":[],"keys":["Barbeque","American (Traditional)"],"lastUpdated":1547527612229,"name":"Runts Bar-B-Q & Grill","phone":"(918) 681-3900","price":"$$","reviewCount":65,"reviewScore":4.5,"meta":{"revision":0,"created":1547531156166,"version":0},"$loki":47},{"_id":"5c3d65bd3525a329e0c0f6ce","address":"1009 N Elm Pl","location":{"type":"Point","coordinates":[-95.40189,35.76565]},"isApproved":true,"items":[],"keys":["Bars","Burgers","Hot Dogs"],"lastUpdated":1547527612599,"name":"Fat Guy’s Burger Bar","phone":"(918) 872-9313","price":"$","reviewCount":42,"reviewScore":4,"meta":{"revision":0,"created":1547531156166,"version":0},"$loki":48},{"_id":"5c3d65bd3525a329e0c1ad33","address":"19361 NE Robson Rd A","location":{"type":"Point","coordinates":[-95.4023950919509,35.7846098842882]},"isApproved":true,"items":[],"keys":["Barbeque","Desserts","Sandwiches"],"lastUpdated":1547527612875,"name":"Oklahoma Joe’s Barbecue","phone":"(918) 739-4757","price":"","reviewCount":13,"reviewScore":3,"meta":{"revision":0,"created":1547531156166,"version":0},"$loki":49},{"_id":"5c3d65bd3525a329e0c1a807","address":"604 Eastside Blvd","location":{"type":"Point","coordinates":[-95.384574,35.7757203]},"isApproved":true,"items":[],"keys":["Mexican"],"lastUpdated":1547527612867,"name":"Tacos La Tia","phone":"(918) 682-6981","price":"$","reviewCount":27,"reviewScore":4.5,"meta":{"revision":0,"created":1547531156166,"version":0},"$loki":50},{"_id":"5c3d65bd3525a329e0c1b298","address":"Daisy Dr","location":{"type":"Point","coordinates":[-95.369847,35.771572]},"isApproved":true,"items":[],"keys":["Chinese"],"lastUpdated":1547527612878,"name":"New China Buffet","phone":"","price":"$","reviewCount":6,"reviewScore":3.5,"meta":{"revision":0,"created":1547531156166,"version":0},"$loki":51},{"_id":"5c3d65bd3525a329e0c0f748","address":"1059 S Maxwell St","location":{"type":"Point","coordinates":[-95.3712257829435,35.7692286912606]},"isApproved":true,"items":[],"keys":["American (Traditional)"],"lastUpdated":1547527612599,"name":"Back Forty Restaurant","phone":"(479) 373-1321","price":"$$","reviewCount":8,"reviewScore":3.5,"meta":{"revision":0,"created":1547531156166,"version":0},"$loki":52},{"_id":"5c3d65bd3525a329e0c0b8bf","address":"950 W Shawnee St","location":{"type":"Point","coordinates":[-95.371371459108,35.7703518656529]},"isApproved":true,"items":[],"keys":["Bars","Tex-Mex","American (Traditional)"],"lastUpdated":1547527612507,"name":"Chili’s","phone":"(918) 682-1652","price":"$$","reviewCount":8,"reviewScore":2.5,"meta":{"revision":0,"created":1547531156166,"version":0},"$loki":53},{"_id":"5c3d65bd3525a329e0c0dcc3","address":"1551 S Lee St","location":{"type":"Point","coordinates":[-95.3631239,35.77045]},"isApproved":true,"items":[],"keys":["Pizza"],"lastUpdated":1547527612563,"name":"Simple Simon’s Pizza","phone":"(918) 478-2400","price":"$","reviewCount":4,"reviewScore":3.5,"meta":{"revision":0,"created":1547531156166,"version":0},"$loki":54},{"_id":"5c3d65bd3525a329e0c0d252","address":"801 S Dewey Ave","location":{"type":"Point","coordinates":[-95.364473,35.7692383]},"isApproved":true,"items":[],"keys":["American (New)"],"lastUpdated":1547527612545,"name":"Charlie’s Fried Chicken","phone":"(918) 485-9070","price":"$$","reviewCount":6,"reviewScore":3.5,"meta":{"revision":0,"created":1547531156166,"version":0},"$loki":55},{"_id":"5c3d65bd3525a329e0c0100f","address":"935 W Tulsa St","location":{"type":"Point","coordinates":[-95.3652004,35.7691242]},"isApproved":true,"items":[],"keys":["Salvadoran","Bakeries","Mexican"],"lastUpdated":1547527612238,"name":"Las Delicias","phone":"(479) 238-1205","price":"$","reviewCount":4,"reviewScore":4.5,"meta":{"revision":0,"created":1547531156166,"version":0},"$loki":56},{"_id":"5c3d65bd3525a329e0c0acda","address":"2020 S Cherokee St","location":{"type":"Point","coordinates":[-95.3662717,35.7690768]},"isApproved":true,"items":[],"keys":["Breakfast & Brunch","American (Traditional)","Burgers"],"lastUpdated":1547527612490,"name":"IHOP","phone":"(918) 739-3055","price":"$","reviewCount":18,"reviewScore":3.5,"meta":{"revision":0,"created":1547531156166,"version":0},"$loki":57},{"_id":"5c3d65bd3525a329e0c09c24","address":"13101 S 193rd East Ave","location":{"type":"Point","coordinates":[-95.367572,35.770308]},"isApproved":true,"items":[],"keys":["Gastropubs","Southern","American (Traditional)"],"lastUpdated":1547527612465,"name":"Blockhouse Grill & Pub","phone":"(918) 449-0009","price":"$","reviewCount":23,"reviewScore":3.5,"meta":{"revision":0,"created":1547531156166,"version":0},"$loki":58},{"_id":"5c3d65bd3525a329e0c0ae19","address":"415 S Dewey Ave","location":{"type":"Point","coordinates":[-95.3676457692688,35.7701822612784]},"isApproved":true,"items":[],"keys":["Chinese"],"lastUpdated":1547527612491,"name":"East China","phone":"(918) 485-3888","price":"$$","reviewCount":4,"reviewScore":2,"meta":{"revision":0,"created":1547531156166,"version":0},"$loki":59},{"_id":"5c3d65bd3525a329e0c03939","address":"1313 S Muskogee Ave","location":{"type":"Point","coordinates":[-95.3616924121348,35.7703756839829]},"isApproved":true,"items":[],"keys":["Asian Fusion"],"lastUpdated":1547527612310,"name":"Asian Star","phone":"(918) 431-0800","price":"$","reviewCount":14,"reviewScore":3,"meta":{"revision":0,"created":1547531156166,"version":0},"$loki":60},{"_id":"5c3d65bd3525a329e0c0f0cf","address":"307 N Broadway","location":{"type":"Point","coordinates":[-95.3622121,35.7697028]},"isApproved":true,"items":[],"keys":["Pizza"],"lastUpdated":1547527612590,"name":"Simple Simon’s Pizza","phone":"(918) 543-8111","price":"","reviewCount":2,"reviewScore":2.5,"meta":{"revision":0,"created":1547531156166,"version":0},"$loki":61},{"_id":"5c3d65bd3525a329e0c0401b","address":"13757 S Hwy 51","location":{"type":"Point","coordinates":[-95.3623472,35.7692516]},"isApproved":true,"items":[],"keys":["Chinese"],"lastUpdated":1547527612320,"name":"Beijing Cuisine","phone":"(918) 279-6588","price":"","reviewCount":9,"reviewScore":4,"meta":{"revision":0,"created":1547531156166,"version":0},"$loki":62},{"_id":"5c3d65bd3525a329e0c101da","address":"203 S Main St","location":{"type":"Point","coordinates":[-95.3620202,35.7692662]},"isApproved":true,"items":[],"keys":["American (Traditional)"],"lastUpdated":1547527612610,"name":"Franklins Pork & Barrel","phone":"(918) 286-6770","price":"$$","reviewCount":65,"reviewScore":4,"meta":{"revision":0,"created":1547531156166,"version":0},"$loki":63},{"_id":"5c3d65bd3525a329e0c0e8f8","address":"108 N Broadway","location":{"type":"Point","coordinates":[-95.359968096867,35.7688922209187]},"isApproved":true,"items":[],"keys":["Cafes"],"lastUpdated":1547527612575,"name":"Green Parrot Cafe","phone":"(918) 486-5418","price":"$","reviewCount":3,"reviewScore":4.5,"meta":{"revision":0,"created":1547531156166,"version":0},"$loki":64},{"_id":"5c3d65bd3525a329e0c03193","address":"143 W Shawnee St","location":{"type":"Point","coordinates":[-95.3601398,35.7692648]},"isApproved":true,"items":[],"keys":["Hot Dogs","Burgers"],"lastUpdated":1547527612296,"name":"Burger King Restaurants","phone":"(918) 683-0722","price":"$","reviewCount":3,"reviewScore":1.5,"meta":{"revision":0,"created":1547531156166,"version":0},"$loki":65},{"_id":"5c3d65bd3525a329e0c013c3","address":"142 W Shawnee St","location":{"type":"Point","coordinates":[-95.35976,35.771015]},"isApproved":true,"items":[],"keys":["American (New)"],"lastUpdated":1547527612249,"name":"A&W Restaurant","phone":"(918) 682-0311","price":"","reviewCount":1,"reviewScore":2,"meta":{"revision":0,"created":1547531156166,"version":0},"$loki":66},{"_id":"5c3d65bd3525a329e0bffe76","address":"1904 S Elm Pl","location":{"type":"Point","coordinates":[-95.3593097703287,35.7709770879059]},"isApproved":true,"items":[],"keys":["Barbeque","Salad","Sandwiches"],"lastUpdated":1547527612222,"name":"Billy Ray’s Catfish & BBQ - Broken Arrow","phone":"(918) 286-8585","price":"","reviewCount":14,"reviewScore":4,"meta":{"revision":0,"created":1547531156166,"version":0},"$loki":67},{"_id":"5c3d65bd3525a329e0c06941","address":"216 S Main St","location":{"type":"Point","coordinates":[-95.35975,35.770503]},"isApproved":true,"items":[],"keys":["Sushi Bars"],"lastUpdated":1547527612379,"name":"In the Raw Sushi","phone":"(918) 893-6111","price":"$$","reviewCount":39,"reviewScore":3.5,"meta":{"revision":0,"created":1547531156166,"version":0},"$loki":68},{"_id":"5c3d65bd3525a329e0c06161","address":"1907 N Main St","location":{"type":"Point","coordinates":[-95.3588727,35.7689385]},"isApproved":true,"items":[],"keys":["Fast Food","Sandwiches"],"lastUpdated":1547527612368,"name":"Arby’s","phone":"(918) 687-4341","price":"","reviewCount":2,"reviewScore":3,"meta":{"revision":0,"created":1547531156166,"version":0},"$loki":69},{"_id":"5c3d65bd3525a329e0c093d7","address":"225 W Shawnee","location":{"type":"Point","coordinates":[-95.3583985,35.7697589]},"isApproved":true,"items":[],"keys":["Seafood","American (Traditional)"],"lastUpdated":1547527612452,"name":"Red Lobster","phone":"(918) 682-1731","price":"$$","reviewCount":15,"reviewScore":2.5,"meta":{"revision":0,"created":1547531156166,"version":0},"$loki":70},{"_id":"5c3d65bd3525a329e0c02b3a","address":"3724 S Elm Pl","location":{"type":"Point","coordinates":[-95.3586,35.7709]},"isApproved":true,"items":[],"keys":["Sandwiches"],"lastUpdated":1547527612286,"name":"Potbelly’s","phone":"(918) 455-7682","price":"$","reviewCount":12,"reviewScore":2.5,"meta":{"revision":0,"created":1547531156166,"version":0},"$loki":71},{"_id":"5c3d65bd3525a329e0c0e7ad","address":"322 W Kenosha St","location":{"type":"Point","coordinates":[-95.3566837,35.7717931]},"isApproved":true,"items":[],"keys":["Pizza"],"lastUpdated":1547527612574,"name":"Uncle Vinny’s NY Pizza","phone":"(918) 251-6666","price":"$","reviewCount":32,"reviewScore":3.5,"meta":{"revision":0,"created":1547531156166,"version":0},"$loki":72},{"_id":"5c3d65bd3525a329e0c126b5","address":"731 Callahan St","location":{"type":"Point","coordinates":[-95.3715080226393,35.7564645857018]},"isApproved":true,"items":[],"keys":["Mexican"],"lastUpdated":1547527612671,"name":"Tacos La Morena","phone":"(918) 686-7981","price":"$","reviewCount":3,"reviewScore":4,"meta":{"revision":0,"created":1547531156166,"version":0},"$loki":73},{"_id":"5c3d65bd3525a329e0c09360","address":"2010 W Shawnee St","location":{"type":"Point","coordinates":[-95.3703978672069,35.7534449257767]},"isApproved":true,"items":[],"keys":["Breakfast & Brunch","American (New)","Burgers"],"lastUpdated":1547527612452,"name":"Hornback’s Shawnee Restaurant","phone":"(918) 683-3140","price":"$$","reviewCount":4,"reviewScore":3.5,"meta":{"revision":0,"created":1547531156166,"version":0},"$loki":74},{"_id":"5c3d65bd3525a329e0c129e3","address":"1151 North 20th Street","location":{"type":"Point","coordinates":[-95.3690129,35.7530586]},"isApproved":true,"items":[],"keys":["Chicken Wings","American (Traditional)","Sports Bars"],"lastUpdated":1547527612679,"name":"Buffalo Wild Wings","phone":"(918) 286-3555","price":"$$","reviewCount":42,"reviewScore":2.5,"meta":{"revision":0,"created":1547531156166,"version":0},"$loki":75},{"_id":"5c3d65bd3525a329e0c13811","address":"8315 E 111th St S","location":{"type":"Point","coordinates":[-95.3693579882383,35.752997816297]},"isApproved":true,"items":[],"keys":["Mediterranean","Food Trucks","Greek"],"lastUpdated":1547527612697,"name":"Pita Place Mediterranean Grill","phone":"(918) 394-9383","price":"$$","reviewCount":54,"reviewScore":4.5,"meta":{"revision":0,"created":1547531156166,"version":0},"$loki":76},{"_id":"5c3d65bd3525a329e0c0958f","address":"111 E Chestnut St","location":{"type":"Point","coordinates":[-95.3789464,35.7521839]},"isApproved":true,"items":[],"keys":["Hot Dogs"],"lastUpdated":1547527612453,"name":"Good Dog Coney Shop","phone":"(918) 636-4664","price":"","reviewCount":2,"reviewScore":4.5,"meta":{"revision":0,"created":1547531156166,"version":0},"$loki":77},{"_id":"5c3d65bd3525a329e0c1a4c0","address":"3171 S 129th East Ave","location":{"type":"Point","coordinates":[-95.3811434,35.7518101]},"isApproved":true,"items":[],"keys":["Delis","Sandwiches","Grocery"],"lastUpdated":1547527612859,"name":"New Seoul Market","phone":"(918) 665-3664","price":"","reviewCount":1,"reviewScore":5,"meta":{"revision":0,"created":1547531156166,"version":0},"$loki":78},{"_id":"5c3d65bd3525a329e0c16286","address":"3120 W Kenosha St","location":{"type":"Point","coordinates":[-95.373709,35.769165]},"isApproved":true,"items":[],"keys":["Restaurants"],"lastUpdated":1547527612763,"name":"Broken Egg Cafe","phone":"(918) 254-0455","price":"","reviewCount":2,"reviewScore":4,"meta":{"revision":0,"created":1547531156166,"version":0},"$loki":79},{"_id":"5c3d65bd3525a329e0c032c5","address":"1500 Park Hill Rd","location":{"type":"Point","coordinates":[-95.375501,35.770258]},"isApproved":true,"items":[],"keys":["Barbeque"],"lastUpdated":1547527612302,"name":"My Place Bar-B-Q","phone":"(918) 456-5888","price":"$$","reviewCount":4,"reviewScore":2.5,"meta":{"revision":0,"created":1547531156166,"version":0},"$loki":80},{"_id":"5c3d65bd3525a329e0c03641","address":"200 S Main St","location":{"type":"Point","coordinates":[-95.3771930159178,35.770393865232]},"isApproved":true,"items":[],"keys":["Gastropubs"],"lastUpdated":1547527612303,"name":"Main Street Tavern - Broken Arrow","phone":"(918) 872-1414","price":"$$","reviewCount":154,"reviewScore":4,"meta":{"revision":0,"created":1547531156166,"version":0},"$loki":81},{"_id":"5c3d65bd3525a329e0c01e38","address":"1216 S Muskogee Ave","location":{"type":"Point","coordinates":[-95.376719,35.770309]},"isApproved":true,"items":[],"keys":["Burgers","Fast Food"],"lastUpdated":1547527612260,"name":"Nottingham’s Southside Drive-In","phone":"(918) 456-2126","price":"","reviewCount":1,"reviewScore":1,"meta":{"revision":0,"created":1547531156166,"version":0},"$loki":82},{"_id":"5c3d65bd3525a329e0c00bda","address":"111 W Tulsa St","location":{"type":"Point","coordinates":[-95.3882088,35.7703296]},"isApproved":true,"items":[],"keys":["Burgers","Ice Cream & Frozen Yogurt"],"lastUpdated":1547527612230,"name":"Barnette’s Dairyette","phone":"(479) 524-3211","price":"$","reviewCount":44,"reviewScore":4,"meta":{"revision":0,"created":1547531156166,"version":0},"$loki":83},{"_id":"5c3d65bd3525a329e0c145aa","address":"11605 E 31st St","location":{"type":"Point","coordinates":[-95.388157,35.754439]},"isApproved":true,"items":[],"keys":["Mediterranean","Desserts","Salad"],"lastUpdated":1547527612715,"name":"Shish Kabobs","phone":"(918) 663-9383","price":"$","reviewCount":44,"reviewScore":4.5,"meta":{"revision":0,"created":1547531156166,"version":0},"$loki":84},{"_id":"5c3d65bd3525a329e0c12d4d","address":"208 S 7th St","location":{"type":"Point","coordinates":[-95.3775268,35.7492495]},"isApproved":true,"items":[],"keys":["Salad","Soup","Sandwiches"],"lastUpdated":1547527612681,"name":"Harmony House Lunch and Bakery","phone":"(918) 687-8653","price":"$","reviewCount":34,"reviewScore":4.5,"meta":{"revision":0,"created":1547531156166,"version":0},"$loki":85},{"_id":"5c3d65bd3525a329e0c0fac3","address":"1614 S Muskogee Ave","location":{"type":"Point","coordinates":[-95.362794,35.745089]},"isApproved":true,"items":[],"keys":["Chicken Wings","Fast Food","Chicken Shop"],"lastUpdated":1547527612601,"name":"KFC","phone":"(918) 456-8831","price":"","reviewCount":4,"reviewScore":2.5,"meta":{"revision":0,"created":1547531156166,"version":0},"$loki":86},{"_id":"5c3d65bd3525a329e0c0d43b","address":"761 Holiday Dr","location":{"type":"Point","coordinates":[-95.3693111,35.7480207]},"isApproved":true,"items":[],"keys":["Sushi Bars","Asian Fusion","Cocktail Bars"],"lastUpdated":1547527612546,"name":"Red Moon","phone":"(918) 456-2818","price":"$","reviewCount":25,"reviewScore":3.5,"meta":{"revision":0,"created":1547531156166,"version":0},"$loki":87},{"_id":"5c3d65bd3525a329e0c14e24","address":"1556 N 9th St","location":{"type":"Point","coordinates":[-95.3696854,35.7482806]},"isApproved":true,"items":[],"keys":["Salad","Sandwiches"],"lastUpdated":1547527612730,"name":"Zoes Kitchen","phone":"(918) 615-2890","price":"","reviewCount":7,"reviewScore":4,"meta":{"revision":0,"created":1547531156166,"version":0},"$loki":88},{"_id":"5c3d65bd3525a329e0c0cf46","address":"19322 E Admiral Pl","location":{"type":"Point","coordinates":[-95.3693818,35.7486679]},"isApproved":true,"items":[],"keys":["Burgers","Diners","American (Traditional)"],"lastUpdated":1547527612535,"name":"Flo’s Burger Diner","phone":"(918) 739-4858","price":"$","reviewCount":78,"reviewScore":4.5,"meta":{"revision":0,"created":1547531156166,"version":0},"$loki":89},{"_id":"5c3d65bd3525a329e0c0f9a6","address":"1200 S Scott St","location":{"type":"Point","coordinates":[-95.3699,35.746674]},"isApproved":true,"items":[],"keys":["Mexican","Buffets"],"lastUpdated":1547527612600,"name":"Fajita Rita’s Mexican Restaurant","phone":"(918) 478-9103","price":"","reviewCount":7,"reviewScore":2,"meta":{"revision":0,"created":1547531156166,"version":0},"$loki":90},{"_id":"5c3d65bd3525a329e0c16bbd","address":"31393 S Qualls Rd","location":{"type":"Point","coordinates":[-95.3706473,35.7474796]},"isApproved":true,"items":[],"keys":["Southern","Burgers","American (Traditional)"],"lastUpdated":1547527612773,"name":"Jincy’s Kitchen","phone":"(918) 457-5515","price":"$$","reviewCount":6,"reviewScore":3.5,"meta":{"revision":0,"created":1547531156166,"version":0},"$loki":91},{"_id":"5c3d65bd3525a329e0c13d16","address":"109 S Dewey Ave","location":{"type":"Point","coordinates":[-95.3708746359576,35.750056166787]},"isApproved":true,"items":[],"keys":["Pizza","Italian","Chicken Wings"],"lastUpdated":1547527612705,"name":"Pizza Hut","phone":"(918) 485-9554","price":"","reviewCount":2,"reviewScore":3,"meta":{"revision":0,"created":1547531156166,"version":0},"$loki":92},{"_id":"5c3d65bd3525a329e0c11922","address":"401 W Broadway St","location":{"type":"Point","coordinates":[-95.3724043,35.7496657]},"isApproved":true,"items":[],"keys":["Pizza"],"lastUpdated":1547527612651,"name":"Lindenloft Pizza","phone":"(918) 681-4700","price":"$$","reviewCount":5,"reviewScore":2.5,"meta":{"revision":0,"created":1547531156166,"version":0},"$loki":93},{"_id":"5c3d65bd3525a329e0c1aa31","address":"10818 E 41st St","location":{"type":"Point","coordinates":[-95.3724043,35.7496658]},"isApproved":true,"items":[],"keys":["Mexican"],"lastUpdated":1547527612868,"name":"Puerto Bello Mexican Restaurant","phone":"(918) 574-2288","price":"$","reviewCount":25,"reviewScore":4,"meta":{"revision":0,"created":1547531156166,"version":0},"$loki":94},{"_id":"5c3d65bd3525a329e0c0c687","address":"591 W Shawnee St","location":{"type":"Point","coordinates":[-95.3669989,35.7518277]},"isApproved":true,"items":[],"keys":["Breakfast & Brunch"],"lastUpdated":1547527612525,"name":"Jimmy’s Egg","phone":"(918) 683-8344","price":"$$","reviewCount":17,"reviewScore":3.5,"meta":{"revision":0,"created":1547531156166,"version":0},"$loki":95},{"_id":"5c3d65bd3525a329e0bffdc9","address":"2415 Chandler Rd","location":{"type":"Point","coordinates":[-95.3621633,35.7447456]},"isApproved":true,"items":[],"keys":["Fast Food","Burgers","Coffee & Tea"],"lastUpdated":1547527612222,"name":"McDonald’s","phone":"(918) 781-1358","price":"","reviewCount":7,"reviewScore":2,"meta":{"revision":0,"created":1547531156166,"version":0},"$loki":96},{"_id":"5c3d65bd3525a329e0c02509","address":"2400 S Country Club Rd","location":{"type":"Point","coordinates":[-95.3576193004847,35.7453589886427]},"isApproved":true,"items":[],"keys":["Restaurants"],"lastUpdated":1547527612277,"name":"Shawnee Restaurant","phone":"(918) 683-3140","price":"","reviewCount":1,"reviewScore":5,"meta":{"revision":0,"created":1547531156166,"version":0},"$loki":97},{"_id":"5c3d65bd3525a329e0c04b4b","address":"210 W Main St","location":{"type":"Point","coordinates":[-95.3580054,35.7463624]},"isApproved":true,"items":[],"keys":["Fast Food","Sandwiches"],"lastUpdated":1547527612331,"name":"Subway","phone":"(918) 772-3422","price":"","reviewCount":1,"reviewScore":5,"meta":{"revision":0,"created":1547531156166,"version":0},"$loki":98},{"_id":"5c3d65bd3525a329e0c136a0","address":"1957 S Muskogee Ave","location":{"type":"Point","coordinates":[-95.3556522,35.7465069]},"isApproved":true,"items":[],"keys":["Tex-Mex","American (Traditional)","Bars"],"lastUpdated":1547527612696,"name":"Chili’s","phone":"(918) 453-9701","price":"$$","reviewCount":17,"reviewScore":2.5,"meta":{"revision":0,"created":1547531156166,"version":0},"$loki":99},{"_id":"5c3d65bd3525a329e0c0ffce","address":"808 S Mount Olive St","location":{"type":"Point","coordinates":[-95.3558497,35.746244]},"isApproved":true,"items":[],"keys":["Thai"],"lastUpdated":1547527612609,"name":"Thai Cafe","phone":"(479) 427-9223","price":"$","reviewCount":34,"reviewScore":4.5,"meta":{"revision":0,"created":1547531156166,"version":0},"$loki":100},{"_id":"5c3d65bd3525a329e0c157a1","address":"2250 S 32nd St","location":{"type":"Point","coordinates":[-95.3552793307685,35.7427831413658]},"isApproved":true,"items":[],"keys":["Southern","Fish & Chips"],"lastUpdated":1547527612746,"name":"Catfish Ranch","phone":"(918) 683-3474","price":"","reviewCount":14,"reviewScore":4,"meta":{"revision":0,"created":1547531156166,"version":0},"$loki":101},{"_id":"5c3d65bd3525a329e0c1046d","address":"1511 S Lee St","location":{"type":"Point","coordinates":[-95.3558597,35.7496525]},"isApproved":true,"items":[],"keys":["Diners"],"lastUpdated":1547527612618,"name":"Boomarang Diner","phone":"(918) 478-2305","price":"$","reviewCount":2,"reviewScore":4.5,"meta":{"revision":0,"created":1547531156166,"version":0},"$loki":102},{"_id":"5c3d65bd3525a329e0c09efd","address":"Highway 51 E","location":{"type":"Point","coordinates":[-95.355323,35.752233]},"isApproved":true,"items":[],"keys":["Restaurants"],"lastUpdated":1547527612471,"name":"Tasty Treat","phone":"(918) 486-5308","price":"$","reviewCount":1,"reviewScore":4,"meta":{"revision":0,"created":1547531156166,"version":0},"$loki":103},{"_id":"5c3d65bd3525a329e0bffc6d","address":"1500 W Kenosha St","location":{"type":"Point","coordinates":[-95.3400522,35.7495915]},"isApproved":true,"items":[],"keys":["American (New)"],"lastUpdated":1547527612221,"name":"50s Diner","phone":"(918) 806-6999","price":"$$","reviewCount":28,"reviewScore":4,"meta":{"revision":0,"created":1547531156166,"version":0},"$loki":104},{"_id":"5c3d65bd3525a329e0c0f847","address":"4010 W Okmulgee St","location":{"type":"Point","coordinates":[-95.340546,35.7473444]},"isApproved":true,"items":[],"keys":["Diners"],"lastUpdated":1547527612600,"name":"Boom-A-Rang Diner Westside","phone":"(918) 683-5777","price":"$$","reviewCount":10,"reviewScore":4.5,"meta":{"revision":0,"created":1547531156166,"version":0},"$loki":105},{"_id":"5c3d65bd3525a329e0c04a42","address":"105 N Blake Dr","location":{"type":"Point","coordinates":[-95.340769,35.742661]},"isApproved":true,"items":[],"keys":["Burgers","Fast Food","Ice Cream & Frozen Yogurt"],"lastUpdated":1547527612331,"name":"Sonic Drive-In","phone":"(918) 485-9546","price":"","reviewCount":1,"reviewScore":5,"meta":{"revision":0,"created":1547531156166,"version":0},"$loki":106},{"_id":"5c3d65bd3525a329e0c1b503","address":"2427 W Kenosha","location":{"type":"Point","coordinates":[-95.3400890529155,35.7420570962228]},"isApproved":true,"items":[],"keys":["Barbeque"],"lastUpdated":1547527612885,"name":"Billy Sims BBQ","phone":"(918) 258-1978","price":"$$","reviewCount":9,"reviewScore":4,"meta":{"revision":0,"created":1547531156166,"version":0},"$loki":107},{"_id":"5c3d65bd3525a329e0c17dff","address":"1050 E Albany St","location":{"type":"Point","coordinates":[-95.3392411,35.7401791]},"isApproved":true,"items":[],"keys":["Sandwiches","Fast Food"],"lastUpdated":1547527612801,"name":"Subway","phone":"(918) 355-0091","price":"","reviewCount":3,"reviewScore":4.5,"meta":{"revision":0,"created":1547531156166,"version":0},"$loki":108},{"_id":"5c3d65bd3525a329e0c12304","address":"1401 E Downing St","location":{"type":"Point","coordinates":[-95.3363542,35.7402135]},"isApproved":true,"items":[],"keys":["Chinese"],"lastUpdated":1547527612669,"name":"Grand China Restaurant","phone":"(918) 456-2505","price":"$","reviewCount":10,"reviewScore":3.5,"meta":{"revision":0,"created":1547531156166,"version":0},"$loki":109},{"_id":"5c3d65bd3525a329e0c168a8","address":"714121 S Hwy 51","location":{"type":"Point","coordinates":[-95.3490244,35.7400735]},"isApproved":true,"items":[],"keys":["Chicken Wings"],"lastUpdated":1547527612772,"name":"Roy’s Fried Chicken","phone":"(918) 486-3122","price":"$","reviewCount":18,"reviewScore":4.5,"meta":{"revision":0,"created":1547531156166,"version":0},"$loki":110},{"_id":"5c3d65bd3525a329e0c126d7","address":"2421 S York St","location":{"type":"Point","coordinates":[-95.3409308,35.7240169]},"isApproved":true,"items":[],"keys":["Fast Food","Sandwiches"],"lastUpdated":1547527612671,"name":"Subway","phone":"(918) 683-1122","price":"","reviewCount":5,"reviewScore":2,"meta":{"revision":0,"created":1547531156166,"version":0},"$loki":111},{"_id":"5c3d65bd3525a329e0c03423","address":"103 Harold Andrews Blvd","location":{"type":"Point","coordinates":[-95.340706,35.7305992]},"isApproved":true,"items":[],"keys":["Burgers","Diners","Breakfast & Brunch"],"lastUpdated":1547527612302,"name":"DJ’S Diner","phone":"(918) 479-5877","price":"","reviewCount":2,"reviewScore":1.5,"meta":{"revision":0,"created":1547531156166,"version":0},"$loki":112},{"_id":"5c3d65bd3525a329e0c0b3e3","address":"3233 South Muskogee Ave","location":{"type":"Point","coordinates":[-95.321377,35.724192]},"isApproved":true,"items":[],"keys":["Restaurants"],"lastUpdated":1547527612498,"name":"Buffalo Wild Wings","phone":"","price":"$$","reviewCount":4,"reviewScore":3,"meta":{"revision":0,"created":1547531156166,"version":0},"$loki":113},{"_id":"5c3d65bd3525a329e0c19fcd","address":"3301 Chandler Rd","location":{"type":"Point","coordinates":[-95.3308792,35.7402006]},"isApproved":true,"items":[],"keys":["Barbeque","Steakhouses","Burgers"],"lastUpdated":1547527612852,"name":"Mahylon’s","phone":"(918) 686-7427","price":"$$","reviewCount":41,"reviewScore":4,"meta":{"revision":0,"created":1547531156166,"version":0},"$loki":114},{"_id":"5c3d65bd3525a329e0c08239","address":"1310 S Muskogee Ave","location":{"type":"Point","coordinates":[-95.3397253,35.7543282]},"isApproved":true,"items":[],"keys":["Mexican"],"lastUpdated":1547527612420,"name":"Chilango’s Mexican Restaurant","phone":"(918) 431-1511","price":"$","reviewCount":7,"reviewScore":3,"meta":{"revision":0,"created":1547531156166,"version":0},"$loki":115},{"_id":"5c3d65bd3525a329e0c1585e","address":"104 E 4th St","location":{"type":"Point","coordinates":[-95.3398703,35.7540997]},"isApproved":true,"items":[],"keys":["Mexican"],"lastUpdated":1547527612747,"name":"El Molcajete","phone":"(918) 458-0505","price":"$$","reviewCount":20,"reviewScore":3,"meta":{"revision":0,"created":1547531156166,"version":0},"$loki":116},{"_id":"5c3d65bd3525a329e0c1527d","address":"9720 E 31st St","location":{"type":"Point","coordinates":[-95.3408491,35.7545591]},"isApproved":true,"items":[],"keys":["Chinese"],"lastUpdated":1547527612737,"name":"China Garden Restaurant","phone":"(918) 938-6518","price":"$$","reviewCount":74,"reviewScore":4.5,"meta":{"revision":0,"created":1547531156166,"version":0},"$loki":117},{"_id":"5c3d65bd3525a329e0c053b9","address":"1594 S Muskogee Ave","location":{"type":"Point","coordinates":[-95.3440365,35.754843]},"isApproved":true,"items":[],"keys":["Chicken Wings"],"lastUpdated":1547527612346,"name":"Charlie’s Chicken","phone":"(918) 456-1600","price":"$","reviewCount":7,"reviewScore":3.5,"meta":{"revision":0,"created":1547531156166,"version":0},"$loki":118},{"_id":"5c3d65bd3525a329e0c015e1","address":"3130 S Sheridan Rd","location":{"type":"Point","coordinates":[-95.347685,35.771644]},"isApproved":true,"items":[],"keys":["Food Trucks","Barbeque"],"lastUpdated":1547527612250,"name":"Alpha Grill BBQ Foodtruck","phone":"(918) 853-5789","price":"$","reviewCount":4,"reviewScore":5,"meta":{"revision":0,"created":1547531156166,"version":0},"$loki":119},{"_id":"5c3d65bd3525a329e0bffe59","address":"1744 S Garnett Rd","location":{"type":"Point","coordinates":[-95.34013,35.77182]},"isApproved":true,"items":[],"keys":["Mexican"],"lastUpdated":1547527612222,"name":"Mariscos El Centenario","phone":"(918) 437-8255","price":"$$","reviewCount":13,"reviewScore":4,"meta":{"revision":0,"created":1547531156166,"version":0},"$loki":120},{"_id":"5c3d65bd3525a329e0c1b0a7","address":"1105 E Kenosha St","location":{"type":"Point","coordinates":[-95.3407878,35.766234]},"isApproved":true,"items":[],"keys":["Seafood","Seafood Markets"],"lastUpdated":1547527612877,"name":"White River Fish Market","phone":"(918) 449-0347","price":"$$","reviewCount":55,"reviewScore":4,"meta":{"revision":0,"created":1547531156166,"version":0},"$loki":121},{"_id":"5c3d65bd3525a329e0c18620","address":"20206 W Pettit Bay Rd","location":{"type":"Point","coordinates":[-95.251131,35.780114]},"isApproved":true,"items":[],"keys":["Pizza","Venues & Event Spaces","Beer Gardens"],"lastUpdated":1547527612815,"name":"Piddle’s Place","phone":"(918) 457-4611","price":"","reviewCount":2,"reviewScore":4,"meta":{"revision":0,"created":1547531156166,"version":0},"$loki":122},{"_id":"5c3d65bd3525a329e0c14cfe","address":"1909 S Muskogee Ave","location":{"type":"Point","coordinates":[-95.2475501,35.7988284]},"isApproved":true,"items":[],"keys":["Barbeque","American (Traditional)"],"lastUpdated":1547527612729,"name":"RibCrib","phone":"(918) 456-5800","price":"$$","reviewCount":16,"reviewScore":4,"meta":{"revision":0,"created":1547531156166,"version":0},"$loki":123},{"_id":"5c3d65bd3525a329e0c0b01c","address":"723 N Aspen Ave","location":{"type":"Point","coordinates":[-95.2417793,35.7848685]},"isApproved":true,"items":[],"keys":["Vietnamese"],"lastUpdated":1547527612492,"name":"Trang Le","phone":"(918) 994-7676","price":"$$","reviewCount":97,"reviewScore":4.5,"meta":{"revision":0,"created":1547531156166,"version":0},"$loki":124},{"_id":"5c3d65bd3525a329e0c108e9","address":"200a S Main St","location":{"type":"Point","coordinates":[-95.2414548,35.7843727]},"isApproved":true,"items":[],"keys":["Salad","Cupcakes","Soup"],"lastUpdated":1547527612625,"name":"Mattie Jane’s On Main","phone":"(918) 537-2400","price":"","reviewCount":2,"reviewScore":5,"meta":{"revision":0,"created":1547531156166,"version":0},"$loki":125},{"_id":"5c3d65bd3525a329e0c0b875","address":"7001 South Garnett Road","location":{"type":"Point","coordinates":[-95.2407132,35.7851692]},"isApproved":true,"items":[],"keys":["American (Traditional)","Sports Bars","Burgers"],"lastUpdated":1547527612506,"name":"Fox & Hound","phone":"(918) 307-2847","price":"$$","reviewCount":60,"reviewScore":3,"meta":{"revision":0,"created":1547531156166,"version":0},"$loki":126},{"_id":"5c3d65bd3525a329e0c0f332","address":"116 N Main St","location":{"type":"Point","coordinates":[-95.242318,35.7854327]},"isApproved":true,"items":[],"keys":["Pubs","American (Traditional)","Sports Bars"],"lastUpdated":1547527612591,"name":"Max’s Garage","phone":"(918) 682-0500","price":"$","reviewCount":27,"reviewScore":4,"meta":{"revision":0,"created":1547531156166,"version":0},"$loki":127},{"_id":"5c3d65bd3525a329e0bff525","address":"301 W Shawnee St","location":{"type":"Point","coordinates":[-95.243054,35.787556]},"isApproved":true,"items":[],"keys":["Mexican","Fast Food","Tex-Mex"],"lastUpdated":1547527612216,"name":"Taco Bueno","phone":"(918) 683-0460","price":"","reviewCount":6,"reviewScore":2.5,"meta":{"revision":0,"created":1547531156166,"version":0},"$loki":128},{"_id":"5c3d65bd3525a329e0c02f97","address":"902 E Trudgeon Rd","location":{"type":"Point","coordinates":[-95.3102356,35.4932812]},"isApproved":true,"items":[],"keys":["Mexican"],"lastUpdated":1547527612295,"name":"Taco Bueno","phone":"(918) 319-5025","price":"","reviewCount":6,"reviewScore":3,"meta":{"revision":0,"created":1547531156166,"version":0},"$loki":129},{"_id":"5c3d65bd3525a329e0c0aae4","address":"823 E Main St","location":{"type":"Point","coordinates":[-95.3072439244041,35.4790949982335]},"isApproved":true,"items":[],"keys":["Pizza"],"lastUpdated":1547527612489,"name":"Mazzio’s Pizza","phone":"(918) 664-4444","price":"$$$","reviewCount":9,"reviewScore":3,"meta":{"revision":0,"created":1547531156166,"version":0},"$loki":130},{"_id":"5c3d65bd3525a329e0c009b8","address":"502 S Woody Guthrie St","location":{"type":"Point","coordinates":[-95.3068909290164,35.4796746473042]},"isApproved":true,"items":[],"keys":["Burgers","Fast Food","Ice Cream & Frozen Yogurt"],"lastUpdated":1547527612229,"name":"Sonic Drive-In","phone":"(918) 623-4130","price":"","reviewCount":3,"reviewScore":2,"meta":{"revision":0,"created":1547531156166,"version":0},"$loki":131},{"_id":"5c3d65bd3525a329e0c0c3f2","address":"2006 South Wood Drive","location":{"type":"Point","coordinates":[-95.3092047572135,35.47980343319]},"isApproved":true,"items":[],"keys":["Fast Food","Mexican","Tex-Mex"],"lastUpdated":1547527612523,"name":"Taco Bell","phone":"(918) 756-2237","price":"$","reviewCount":3,"reviewScore":2.5,"meta":{"revision":0,"created":1547531156166,"version":0},"$loki":132},{"_id":"5c3d65bd3525a329e0bffff1","address":"317 W Broadway St","location":{"type":"Point","coordinates":[-95.1507025313529,35.4857947965421]},"isApproved":true,"items":[],"keys":["Coffee & Tea","Breakfast & Brunch","Internet Cafes"],"lastUpdated":1547527612223,"name":"Sacred Grounds Brew","phone":"(479) 619-8919","price":"","reviewCount":1,"reviewScore":5,"meta":{"revision":0,"created":1547531156166,"version":0},"$loki":133},{"_id":"5c3d65bd3525a329e0c10409","address":"1000 S Hwy 2","location":{"type":"Point","coordinates":[-95.1980169,35.6634306]},"isApproved":true,"items":[],"keys":["Fast Food","Burgers","Ice Cream & Frozen Yogurt"],"lastUpdated":1547527612618,"name":"Sonic Drive-In","phone":"(918) 463-3712","price":"","reviewCount":1,"reviewScore":4,"meta":{"revision":0,"created":1547531156166,"version":0},"$loki":134},{"_id":"5c3d65bd3525a329e0c0718c","address":"99 Paul Carr Dr","location":{"type":"Point","coordinates":[-95.198091,35.663501]},"isApproved":true,"items":[],"keys":["Burgers","Fast Food","Coffee & Tea"],"lastUpdated":1547527612397,"name":"McDonald’s","phone":"(918) 473-2253","price":"$","reviewCount":12,"reviewScore":2.5,"meta":{"revision":0,"created":1547531156166,"version":0},"$loki":135},{"_id":"5c3d65bd3525a329e0c08840","address":"700 N Lee St","location":{"type":"Point","coordinates":[-95.2566686174633,35.8026863724784]},"isApproved":true,"items":[],"keys":["Barbeque","American (New)","Sandwiches"],"lastUpdated":1547527612428,"name":"Sizzlin’ Bones Bbq Commissary","phone":"(918) 478-3227","price":"$$","reviewCount":12,"reviewScore":4.5,"meta":{"revision":0,"created":1547531156166,"version":0},"$loki":136},{"_id":"5c3d65bd3525a329e0c087c5","address":"710 S 32nd St","location":{"type":"Point","coordinates":[-95.0330442,35.7203657]},"isApproved":true,"items":[],"keys":["Mexican"],"lastUpdated":1547527612428,"name":"Chavas Mexican Restaurant","phone":"(918) 686-8282","price":"$","reviewCount":42,"reviewScore":4,"meta":{"revision":0,"created":1547531156166,"version":0},"$loki":137}],"idIndex":[1,2,3,4,5,6,7,8,9,10,11,12,13,14,15,16,17,18,19,20,21,22,23,24,25,26,27,28,29,30,31,32,33,34,35,36,37,38,39,40,41,42,43,44,45,46,47,48,49,50,51,52,53,54,55,56,57,58,59,60,61,62,63,64,65,66,67,68,69,70,71,72,73,74,75,76,77,78,79,80,81,82,83,84,85,86,87,88,89,90,91,92,93,94,95,96,97,98,99,100,101,102,103,104,105,106,107,108,109,110,111,112,113,114,115,116,117,118,119,120,121,122,123,124,125,126,127,128,129,130,131,132,133,134,135,136,137],"binaryIndices":{},"constraints":null,"uniqueNames":[],"transforms":{},"objType":"restaurants","dirty":true,"cachedIndex":null,"cachedBinaryIndex":null,"cachedData":null,"adaptiveBinaryIndices":true,"transactional":false,"cloneObjects":false,"cloneMethod":"parse-stringify","asyncListeners":false,"disableMeta":false,"disableChangesApi":true,"disableDeltaChangesApi":true,"autoupdate":false,"serializableIndices":true,"ttl":null,"maxId":137,"DynamicViews":[],"events":{"insert":[],"update":[],"pre-insert":[],"pre-update":[],"close":[],"flushbuffer":[],"error":[],"delete":[null],"warning":[null]},"changes":[]}],"databaseVersion":1.5,"engineVersion":1.5,"autosave":false,"autosaveInterval":5000,"autosaveHandle":null,"throttledSaves":true,"options":{"serializationMethod":"normal","destructureDelimiter":"$<\n"},"persistenceMethod":"fs","persistenceAdapter":null,"verbose":false,"events":{"init":[null],"loaded":[],"flushChanges":[],"close":[],"changes":[],"warning":[]},"ENV":"NODEJS"}