{"filename":"-96-32.5","collections":[{"name":"restaurants","data":[{"_id":"5c3d65bd3525a329e0c10218","address":"100 S. Gun Barrel Lane","location":{"type":"Point","coordinates":[-95.8736606293931,32.2083367313205]},"isApproved":true,"items":[],"keys":["Breakfast & Brunch","American (Traditional)","Diners"],"lastUpdated":1547527612610,"name":"Huddle House","phone":"(903) 887-5255","price":"$","reviewCount":13,"reviewScore":3.5,"meta":{"revision":0,"created":1547531155695,"version":0},"$loki":1},{"_id":"5c3d65bd3525a329e0c12f55","address":"1108 W Lake Bardwell Dr","location":{"type":"Point","coordinates":[-95.8679662,32.204784]},"isApproved":true,"items":[],"keys":["Mexican"],"lastUpdated":1547527612687,"name":"Miguel’s Tex-Mex","phone":"(972) 875-2491","price":"","reviewCount":2,"reviewScore":4.5,"meta":{"revision":0,"created":1547531155695,"version":0},"$loki":2},{"_id":"5c3d65bd3525a329e0c13179","address":"222 E Tyler St","location":{"type":"Point","coordinates":[-95.8708935444888,32.2056119014449]},"isApproved":true,"items":[],"keys":["Seafood","Food Trucks"],"lastUpdated":1547527612688,"name":"WaWa’s Seafood Shack","phone":"(903) 286-8218","price":"","reviewCount":13,"reviewScore":4.5,"meta":{"revision":0,"created":1547531155695,"version":0},"$loki":3},{"_id":"5c3d65bd3525a329e0c118c8","address":"123 N Commerce St","location":{"type":"Point","coordinates":[-95.862795,32.204729]},"isApproved":true,"items":[],"keys":["Tex-Mex","Mexican"],"lastUpdated":1547527612650,"name":"Fiesta Grill","phone":"(903) 874-2321","price":"$$","reviewCount":23,"reviewScore":3,"meta":{"revision":0,"created":1547531155695,"version":0},"$loki":4},{"_id":"5c3d65bd3525a329e0c12726","address":"520 W Corsicana St","location":{"type":"Point","coordinates":[-95.862753,32.2046546]},"isApproved":true,"items":[],"keys":["Restaurants"],"lastUpdated":1547527612672,"name":"Pitt Grill","phone":"(903) 677-9100","price":"$$","reviewCount":1,"reviewScore":1,"meta":{"revision":0,"created":1547531155695,"version":0},"$loki":5},{"_id":"5c3d65bd3525a329e0c0ee91","address":"101 S Kaufman St","location":{"type":"Point","coordinates":[-95.8617999,32.2046799]},"isApproved":true,"items":[],"keys":["Mexican"],"lastUpdated":1547527612583,"name":"Taco Gomez","phone":"(972) 875-2622","price":"$","reviewCount":12,"reviewScore":4.5,"meta":{"revision":0,"created":1547531155695,"version":0},"$loki":6},{"_id":"5c3d65bd3525a329e0c066cd","address":"309 W Corsicana St","location":{"type":"Point","coordinates":[-95.8579326,32.2041317]},"isApproved":true,"items":[],"keys":["Burgers","Seafood","American (Traditional)"],"lastUpdated":1547527612378,"name":"Ole’ West Bean & Burger","phone":"(903) 675-1900","price":"$$","reviewCount":36,"reviewScore":4.5,"meta":{"revision":0,"created":1547531155695,"version":0},"$loki":7},{"_id":"5c3d65bd3525a329e0c0c5f4","address":"Palestine St","location":{"type":"Point","coordinates":[-95.853837,32.215551]},"isApproved":true,"items":[],"keys":["Burgers"],"lastUpdated":1547527612524,"name":"Moolicious","phone":"","price":"","reviewCount":1,"reviewScore":1,"meta":{"revision":0,"created":1547531155695,"version":0},"$loki":8},{"_id":"5c3d65bd3525a329e0c02baf","address":"2301 W Ennis Ave","location":{"type":"Point","coordinates":[-95.847977,32.206166]},"isApproved":true,"items":[],"keys":["Mexican"],"lastUpdated":1547527612287,"name":"Don Jose’s Restaurant","phone":"(972) 878-2500","price":"$$","reviewCount":47,"reviewScore":3,"meta":{"revision":0,"created":1547531155695,"version":0},"$loki":9},{"_id":"5c3d65bd3525a329e0c081dc","address":"105 N Interstate Hwy 45","location":{"type":"Point","coordinates":[-95.8481432,32.2063671]},"isApproved":true,"items":[],"keys":["Fast Food","Burgers"],"lastUpdated":1547527612419,"name":"Whataburger","phone":"(972) 875-9560","price":"$$","reviewCount":31,"reviewScore":2,"meta":{"revision":0,"created":1547531155695,"version":0},"$loki":10},{"_id":"5c3d65bd3525a329e0c01cdf","address":"107 E Brown St","location":{"type":"Point","coordinates":[-95.847818,32.206428]},"isApproved":true,"items":[],"keys":["Mexican","Breakfast & Brunch"],"lastUpdated":1547527612259,"name":"El Viejon","phone":"(214) 861-9404","price":"","reviewCount":1,"reviewScore":5,"meta":{"revision":0,"created":1547531155695,"version":0},"$loki":11},{"_id":"5c3d65bd3525a329e0c0880c","address":"211 S Beaton St","location":{"type":"Point","coordinates":[-95.8523139,32.2052392]},"isApproved":true,"items":[],"keys":["Barbeque"],"lastUpdated":1547527612428,"name":"Taylors Smokehouse","phone":"(254) 709-7353","price":"","reviewCount":2,"reviewScore":4.5,"meta":{"revision":0,"created":1547531155695,"version":0},"$loki":12},{"_id":"5c3d65bd3525a329e0c01e65","address":"208 E Corsicana","location":{"type":"Point","coordinates":[-95.85345,32.20413]},"isApproved":true,"items":[],"keys":["Mexican","Tex-Mex","Fast Food"],"lastUpdated":1547527612260,"name":"Taco Bell","phone":"(903) 675-7162","price":"$","reviewCount":2,"reviewScore":2.5,"meta":{"revision":0,"created":1547531155695,"version":0},"$loki":13},{"_id":"5c3d65bd3525a329e0c1b35b","address":"336 E Cedar Creek Pkwy","location":{"type":"Point","coordinates":[-95.8534978,32.2058801]},"isApproved":true,"items":[],"keys":["Cafes"],"lastUpdated":1547527612884,"name":"Plowboys Cafe","phone":"(903) 432-2337","price":"","reviewCount":8,"reviewScore":4.5,"meta":{"revision":0,"created":1547531155695,"version":0},"$loki":14},{"_id":"5c3d65bd3525a329e0c04e6b","address":"509 E Ennis Ave","location":{"type":"Point","coordinates":[-95.8560847156255,32.2087115705316]},"isApproved":true,"items":[],"keys":["Cafes","Mexican"],"lastUpdated":1547527612339,"name":"Hilda’s Kitchen","phone":"(972) 875-2370","price":"$","reviewCount":40,"reviewScore":4,"meta":{"revision":0,"created":1547531155695,"version":0},"$loki":15},{"_id":"5c3d65bd3525a329e0bffa12","address":"300 N Pinkerton St","location":{"type":"Point","coordinates":[-95.8560542,32.2065898]},"isApproved":true,"items":[],"keys":["Mexican"],"lastUpdated":1547527612220,"name":"La Mexicana","phone":"(903) 677-4204","price":"","reviewCount":1,"reviewScore":1,"meta":{"revision":0,"created":1547531155695,"version":0},"$loki":16},{"_id":"5c3d65bd3525a329e0c04208","address":"2001 E State Hwy 31","location":{"type":"Point","coordinates":[-95.8538978,32.2062633]},"isApproved":true,"items":[],"keys":["Sandwiches"],"lastUpdated":1547527612321,"name":"Jack In the Box","phone":"(903) 872-5944","price":"$","reviewCount":6,"reviewScore":1.5,"meta":{"revision":0,"created":1547531155695,"version":0},"$loki":17},{"_id":"5c3d65bd3525a329e0c093d2","address":"1500 E Tyler St","location":{"type":"Point","coordinates":[-95.827186,32.213465]},"isApproved":true,"items":[],"keys":["Mexican"],"lastUpdated":1547527612452,"name":"El San Luis","phone":"(903) 209-2118","price":"$","reviewCount":10,"reviewScore":5,"meta":{"revision":0,"created":1547531155695,"version":0},"$loki":18},{"_id":"5c3d65bd3525a329e0c0df61","address":"6708 State Hwy 31 E","location":{"type":"Point","coordinates":[-95.7404485,32.2802428]},"isApproved":true,"items":[],"keys":["American (New)"],"lastUpdated":1547527612564,"name":"Southern Mama’s Cafe","phone":"(903) 469-3920","price":"","reviewCount":2,"reviewScore":5,"meta":{"revision":0,"created":1547531155695,"version":0},"$loki":19},{"_id":"5c3d65bd3525a329e0c04689","address":"210 S Interstate Hwy 45","location":{"type":"Point","coordinates":[-95.74958,32.2787859]},"isApproved":true,"items":[],"keys":["Barbeque","Steakhouses"],"lastUpdated":1547527612328,"name":"Bubba’s Bar-B-Q & Steakhouse","phone":"(972) 875-0036","price":"$$","reviewCount":100,"reviewScore":3.5,"meta":{"revision":0,"created":1547531155695,"version":0},"$loki":20},{"_id":"5c3d65bd3525a329e0c16554","address":"116 W US Hwy 175","location":{"type":"Point","coordinates":[-95.88617,32.224779]},"isApproved":true,"items":[],"keys":["Seafood","Fast Food"],"lastUpdated":1547527612764,"name":"Long John Silver’s","phone":"(903) 675-0025","price":"","reviewCount":1,"reviewScore":1,"meta":{"revision":0,"created":1547531155695,"version":0},"$loki":21},{"_id":"5c3d65bd3525a329e0c07b3b","address":"521 N 3rd St","location":{"type":"Point","coordinates":[-95.852081,32.39929]},"isApproved":true,"items":[],"keys":["Italian","Pizza"],"lastUpdated":1547527612410,"name":"Pizza Inn","phone":"(903) 887-8987","price":"","reviewCount":1,"reviewScore":2,"meta":{"revision":0,"created":1547531155695,"version":0},"$loki":22},{"_id":"5c3d65bd3525a329e0c01d4c","address":"501 E Dallas St","location":{"type":"Point","coordinates":[-95.790945,32.4201219]},"isApproved":true,"items":[],"keys":["Tex-Mex","Mexican","Salad"],"lastUpdated":1547527612259,"name":"Canton’s Cafe","phone":"(903) 567-2304","price":"$$","reviewCount":16,"reviewScore":3.5,"meta":{"revision":0,"created":1547531155695,"version":0},"$loki":23},{"_id":"5c3d65bd3525a329e0c1a907","address":"814 W Ennis Ave","location":{"type":"Point","coordinates":[-95.790945,32.4201219]},"isApproved":true,"items":[],"keys":["Mexican"],"lastUpdated":1547527612867,"name":"Nortenos Mexican Food","phone":"(972) 875-9335","price":"$","reviewCount":12,"reviewScore":3.5,"meta":{"revision":0,"created":1547531155695,"version":0},"$loki":24},{"_id":"5c3d65bd3525a329e0c0cd79","address":"3407 N Fourth St","location":{"type":"Point","coordinates":[-95.854292167454,32.5796376738705]},"isApproved":true,"items":[],"keys":["Pizza","Italian","Sports Bars"],"lastUpdated":1547527612534,"name":"Rotolo’s Pizzeria","phone":"(903) 212-7448","price":"$$","reviewCount":38,"reviewScore":3.5,"meta":{"revision":0,"created":1547531155695,"version":0},"$loki":25},{"_id":"5c3d65bd3525a329e0c192c9","address":"501 S Glenwood Blvd","location":{"type":"Point","coordinates":[-95.8563789093561,32.5799770767885]},"isApproved":true,"items":[],"keys":["Mexican","Barbeque"],"lastUpdated":1547527612833,"name":"Bbq Hernandez","phone":"(903) 593-3973","price":"","reviewCount":5,"reviewScore":5,"meta":{"revision":0,"created":1547531155695,"version":0},"$loki":26},{"_id":"5c3d65bd3525a329e0c1081c","address":"1413 N Wood","location":{"type":"Point","coordinates":[-95.855075,32.577674]},"isApproved":true,"items":[],"keys":["Pizza","Italian"],"lastUpdated":1547527612619,"name":"Pizza Hut","phone":"(903) 843-5589","price":"","reviewCount":7,"reviewScore":1.5,"meta":{"revision":0,"created":1547531155695,"version":0},"$loki":27},{"_id":"5c3d65bd3525a329e0c11f4c","address":"403 E Garland St","location":{"type":"Point","coordinates":[-95.855968,32.576322]},"isApproved":true,"items":[],"keys":["Pizza","Salad","Pasta Shops"],"lastUpdated":1547527612662,"name":"Milano’s Pizza","phone":"(903) 962-6060","price":"","reviewCount":3,"reviewScore":3.5,"meta":{"revision":0,"created":1547531155695,"version":0},"$loki":28},{"_id":"5c3d65bd3525a329e0c01c86","address":"631 S Beckham Ave","location":{"type":"Point","coordinates":[-95.855661,32.575383]},"isApproved":true,"items":[],"keys":["Pizza"],"lastUpdated":1547527612259,"name":"Papa John’s Pizza","phone":"(903) 596-7272","price":"","reviewCount":6,"reviewScore":2,"meta":{"revision":0,"created":1547531155695,"version":0},"$loki":29},{"_id":"5c3d65bd3525a329e0c00888","address":"2401 Gilmer Rd","location":{"type":"Point","coordinates":[-95.856077959788,32.5753933890344]},"isApproved":true,"items":[],"keys":["Fast Food","Burgers"],"lastUpdated":1547527612228,"name":"Whataburger","phone":"(903) 759-8858","price":"","reviewCount":5,"reviewScore":3,"meta":{"revision":0,"created":1547531155695,"version":0},"$loki":30},{"_id":"5c3d65bd3525a329e0c162e3","address":"802 N Main St","location":{"type":"Point","coordinates":[-95.856303157714,32.574073712923]},"isApproved":true,"items":[],"keys":["Chicken Wings"],"lastUpdated":1547527612763,"name":"Pop’s Honey Fried Chicken","phone":"(903) 882-9961","price":"$","reviewCount":6,"reviewScore":3,"meta":{"revision":0,"created":1547531155695,"version":0},"$loki":31},{"_id":"5c3d65bd3525a329e0c1900f","address":"1700 S Se Loop 323","location":{"type":"Point","coordinates":[-95.8555374145508,32.5746879577637]},"isApproved":true,"items":[],"keys":["Chinese"],"lastUpdated":1547527612832,"name":"Poch’s Rice Cafe","phone":"(903) 630-7695","price":"$","reviewCount":53,"reviewScore":4.5,"meta":{"revision":0,"created":1547531155695,"version":0},"$loki":32},{"_id":"5c3d65bd3525a329e0c0cc0f","address":"17290 I-20","location":{"type":"Point","coordinates":[-95.854845,32.575836]},"isApproved":true,"items":[],"keys":["Burgers","Fast Food"],"lastUpdated":1547527612533,"name":"Whataburger","phone":"(903) 567-2952","price":"$","reviewCount":12,"reviewScore":4,"meta":{"revision":0,"created":1547531155695,"version":0},"$loki":33},{"_id":"5c3d65bd3525a329e0c0a2f1","address":"2034 E SE Loop 323","location":{"type":"Point","coordinates":[-95.8546661585569,32.5762466031792]},"isApproved":true,"items":[],"keys":["Fast Food","Burgers","Coffee & Tea"],"lastUpdated":1547527612474,"name":"McDonald’s","phone":"(903) 593-7951","price":"$","reviewCount":8,"reviewScore":1.5,"meta":{"revision":0,"created":1547531155695,"version":0},"$loki":34},{"_id":"5c3d65bd3525a329e0c0fa95","address":"220 S Sw Loop 323","location":{"type":"Point","coordinates":[-95.852528506357,32.5554080811056]},"isApproved":true,"items":[],"keys":["Hot Dogs","Food Stands"],"lastUpdated":1547527612601,"name":"Quick Dawgs of Texas","phone":"(903) 944-7960","price":"","reviewCount":1,"reviewScore":3,"meta":{"revision":0,"created":1547531155695,"version":0},"$loki":35},{"_id":"5c3d65bd3525a329e0c1af42","address":"3511 S Main St","location":{"type":"Point","coordinates":[-95.853642,32.55404]},"isApproved":true,"items":[],"keys":["Coffee & Tea","Burgers","Fast Food"],"lastUpdated":1547527612876,"name":"McDonald’s","phone":"(903) 882-5821","price":"","reviewCount":6,"reviewScore":3,"meta":{"revision":0,"created":1547531155695,"version":0},"$loki":36},{"_id":"5c3d65bd3525a329e0c17fe9","address":"1327 E Front St","location":{"type":"Point","coordinates":[-95.8490731,32.5495546]},"isApproved":true,"items":[],"keys":["Mexican"],"lastUpdated":1547527612802,"name":"Margarita’s Mexican Restaurant","phone":"(903) 593-5954","price":"$$","reviewCount":29,"reviewScore":3.5,"meta":{"revision":0,"created":1547531155695,"version":0},"$loki":37},{"_id":"5c3d65bd3525a329e0c14d61","address":"630 W Highway 243","location":{"type":"Point","coordinates":[-95.8508705,32.5456405]},"isApproved":true,"items":[],"keys":["Barbeque"],"lastUpdated":1547527612729,"name":"Backwoods Bar-B-Que","phone":"(903) 567-6253","price":"$","reviewCount":14,"reviewScore":3.5,"meta":{"revision":0,"created":1547531155695,"version":0},"$loki":38},{"_id":"5c3d65bd3525a329e0c0fd39","address":"400 E Hwy 243","location":{"type":"Point","coordinates":[-95.8594917521079,32.5458166678665]},"isApproved":true,"items":[],"keys":["Buffets"],"lastUpdated":1547527612608,"name":"CHEN’S BUFFET","phone":"(903) 567-6888","price":"$","reviewCount":10,"reviewScore":2.5,"meta":{"revision":0,"created":1547531155695,"version":0},"$loki":39},{"_id":"5c3d65bd3525a329e0c05886","address":"11980 State Hwy 64 W","location":{"type":"Point","coordinates":[-95.8659707331921,32.5442933740086]},"isApproved":true,"items":[],"keys":["Mexican"],"lastUpdated":1547527612354,"name":"La Plazita","phone":"(903) 526-4193","price":"$","reviewCount":45,"reviewScore":4,"meta":{"revision":0,"created":1547531155695,"version":0},"$loki":40},{"_id":"5c3d65bd3525a329e0c13822","address":"311 W Broad St","location":{"type":"Point","coordinates":[-95.8632073178887,32.5417956496025]},"isApproved":true,"items":[],"keys":["Fast Food","Burgers","Ice Cream & Frozen Yogurt"],"lastUpdated":1547527612697,"name":"Sonic Drive-In","phone":"(903) 569-5506","price":"$","reviewCount":1,"reviewScore":3,"meta":{"revision":0,"created":1547531155695,"version":0},"$loki":41},{"_id":"5c3d65bd3525a329e0c13470","address":"1860 N Trade Days Blvd","location":{"type":"Point","coordinates":[-95.8620169717053,32.5402077114897]},"isApproved":true,"items":[],"keys":["Mexican"],"lastUpdated":1547527612690,"name":"Street Taco Shack","phone":"(903) 287-5029","price":"$","reviewCount":17,"reviewScore":4,"meta":{"revision":0,"created":1547531155695,"version":0},"$loki":42},{"_id":"5c3d65bd3525a329e0c042aa","address":"488 W Main St","location":{"type":"Point","coordinates":[-95.8766279,32.5435668]},"isApproved":true,"items":[],"keys":["Italian","Pizza"],"lastUpdated":1547527612321,"name":"Milano’s Pizza","phone":"(903) 963-3430","price":"","reviewCount":5,"reviewScore":3.5,"meta":{"revision":0,"created":1547531155695,"version":0},"$loki":43},{"_id":"5c3d65bd3525a329e0c16548","address":"14112 State Hwy 31 E","location":{"type":"Point","coordinates":[-95.8763181,32.5437208]},"isApproved":true,"items":[],"keys":["Mexican"],"lastUpdated":1547527612764,"name":"El Presidente","phone":"(903) 852-6247","price":"","reviewCount":5,"reviewScore":3.5,"meta":{"revision":0,"created":1547531155695,"version":0},"$loki":44},{"_id":"5c3d65bd3525a329e0c0c4fb","address":"636 Sh 31 St","location":{"type":"Point","coordinates":[-95.8705368041992,32.5425109863281]},"isApproved":true,"items":[],"keys":["Chinese"],"lastUpdated":1547527612524,"name":"China Chef","phone":"(903) 849-2308","price":"$","reviewCount":16,"reviewScore":4,"meta":{"revision":0,"created":1547531155695,"version":0},"$loki":45},{"_id":"5c3d65bd3525a329e0c16984","address":"206 State Hwy 31","location":{"type":"Point","coordinates":[-95.8696693371094,32.5441740458276]},"isApproved":true,"items":[],"keys":["Southern"],"lastUpdated":1547527612772,"name":"Nettie’s Southern Kitchen","phone":"(903) 849-6388","price":"","reviewCount":8,"reviewScore":4,"meta":{"revision":0,"created":1547531155695,"version":0},"$loki":46},{"_id":"5c3d65bd3525a329e0c0da6f","address":"104 W Erwin St","location":{"type":"Point","coordinates":[-95.8621136,32.5566075]},"isApproved":true,"items":[],"keys":["American (New)"],"lastUpdated":1547527612556,"name":"Rick’s On the Square","phone":"(903) 531-2415","price":"$$","reviewCount":80,"reviewScore":4,"meta":{"revision":0,"created":1547531155695,"version":0},"$loki":47},{"_id":"5c3d65bd3525a329e0c0811e","address":"1ST Monday Ln","location":{"type":"Point","coordinates":[-95.8624723631876,32.5569120309234]},"isApproved":true,"items":[],"keys":["American (New)","Burgers","Sandwiches"],"lastUpdated":1547527612419,"name":"The Baked Potatoe","phone":"(903) 245-1384","price":"","reviewCount":2,"reviewScore":5,"meta":{"revision":0,"created":1547531155695,"version":0},"$loki":48},{"_id":"5c3d65bd3525a329e0c0815f","address":"4405 Gilmer Rd","location":{"type":"Point","coordinates":[-95.8632996,32.5565244]},"isApproved":true,"items":[],"keys":["Salad","Sandwiches","Indian"],"lastUpdated":1547527612419,"name":"Chill’um Grill & More","phone":"(430) 625-7007","price":"","reviewCount":4,"reviewScore":3,"meta":{"revision":0,"created":1547531155695,"version":0},"$loki":49},{"_id":"5c3d65bd3525a329e0c1876c","address":"Hwy 19 First Monday Trades Day","location":{"type":"Point","coordinates":[-95.8632996,32.5565244]},"isApproved":true,"items":[],"keys":["Food Stands"],"lastUpdated":1547527612821,"name":"Taylor’s Homemade Ice Cream","phone":"","price":"","reviewCount":1,"reviewScore":5,"meta":{"revision":0,"created":1547531155695,"version":0},"$loki":50},{"_id":"5c3d65bd3525a329e0c16100","address":"100 W Dallas St","location":{"type":"Point","coordinates":[-95.8635963062136,32.5567776298573]},"isApproved":true,"items":[],"keys":["Burgers","American (Traditional)","Sandwiches"],"lastUpdated":1547527612762,"name":"Buttermilk’s","phone":"(903) 567-3287","price":"$$","reviewCount":143,"reviewScore":4.5,"meta":{"revision":0,"created":1547531155695,"version":0},"$loki":51},{"_id":"5c3d65bd3525a329e0c0a131","address":"3408 S Main St","location":{"type":"Point","coordinates":[-95.862407,32.5560606]},"isApproved":true,"items":[],"keys":["Breakfast & Brunch","American (Traditional)","Burgers"],"lastUpdated":1547527612473,"name":"IHOP","phone":"(903) 882-3436","price":"$","reviewCount":14,"reviewScore":3,"meta":{"revision":0,"created":1547531155695,"version":0},"$loki":52},{"_id":"5c3d65bd3525a329e0c024e3","address":"305 E Dallas St","location":{"type":"Point","coordinates":[-95.8618917,32.5561285]},"isApproved":true,"items":[],"keys":["Mexican"],"lastUpdated":1547527612277,"name":"Robles Mexican Restaurant","phone":"(903) 567-3533","price":"$$","reviewCount":19,"reviewScore":3,"meta":{"revision":0,"created":1547531155695,"version":0},"$loki":53},{"_id":"5c3d65bd3525a329e0c10532","address":"426 E Southeast Loop 323","location":{"type":"Point","coordinates":[-95.8607245,32.5559197]},"isApproved":true,"items":[],"keys":["Breakfast & Brunch","Tacos"],"lastUpdated":1547527612618,"name":"Torchy’s Tacos","phone":"(903) 581-3716","price":"$$","reviewCount":127,"reviewScore":3.5,"meta":{"revision":0,"created":1547531155695,"version":0},"$loki":54},{"_id":"5c3d65bd3525a329e0c0a503","address":"N Trade Days Blvd","location":{"type":"Point","coordinates":[-95.8618568944275,32.5602448752269]},"isApproved":true,"items":[],"keys":["Creperies","American (New)","Cafes"],"lastUpdated":1547527612480,"name":"Monkey Crepe Cafe","phone":"(214) 636-7859","price":"","reviewCount":4,"reviewScore":3,"meta":{"revision":0,"created":1547531155695,"version":0},"$loki":55},{"_id":"5c3d65bd3525a329e0c08ca3","address":"530 S Southwest Loop 323","location":{"type":"Point","coordinates":[-95.8567857342424,32.5780400869379]},"isApproved":true,"items":[],"keys":["Hot Dogs","Burgers"],"lastUpdated":1547527612436,"name":"Burger King","phone":"(903) 595-4687","price":"","reviewCount":2,"reviewScore":2.5,"meta":{"revision":0,"created":1547531155695,"version":0},"$loki":56},{"_id":"5c3d65bd3525a329e0c14d18","address":"1815 W Erwin St","location":{"type":"Point","coordinates":[-95.87174,32.569723]},"isApproved":true,"items":[],"keys":["Southern","American (Traditional)","Soul Food"],"lastUpdated":1547527612729,"name":"Hattie Mae’s Sum 2 Eat","phone":"","price":"","reviewCount":5,"reviewScore":4.5,"meta":{"revision":0,"created":1547531155695,"version":0},"$loki":57},{"_id":"5c3d65bd3525a329e0c145ae","address":"500 South Palestine","location":{"type":"Point","coordinates":[-96.0178896412253,32.314555485084]},"isApproved":true,"items":[],"keys":["Italian","Pizza"],"lastUpdated":1547527612715,"name":"Roma Italian Restaurant","phone":"(903) 670-3351","price":"$$","reviewCount":30,"reviewScore":3.5,"meta":{"revision":0,"created":1547531155695,"version":0},"$loki":58},{"_id":"5c3d65bd3525a329e0c019c5","address":"8500 State Hwy 31 E","location":{"type":"Point","coordinates":[-96.0080381150949,32.3085375029279]},"isApproved":true,"items":[],"keys":["Gas Stations","Convenience Stores","Delis"],"lastUpdated":1547527612257,"name":"Scotts Crossing Farm & Ranch Feed Store","phone":"(903) 469-3122","price":"$","reviewCount":3,"reviewScore":4,"meta":{"revision":0,"created":1547531155695,"version":0},"$loki":59},{"_id":"5c3d65bd3525a329e0c0e192","address":"4504 S Broadway Ave","location":{"type":"Point","coordinates":[-96.0080381150949,32.3085375029279]},"isApproved":true,"items":[],"keys":["Pizza"],"lastUpdated":1547527612565,"name":"Ken’s Pizza","phone":"(903) 561-5920","price":"$","reviewCount":15,"reviewScore":2.5,"meta":{"revision":0,"created":1547531155695,"version":0},"$loki":60},{"_id":"5c3d65bd3525a329e0c03f75","address":"","location":{"type":"Point","coordinates":[-96.0066353,32.3070902]},"isApproved":true,"items":[],"keys":["Barbeque"],"lastUpdated":1547527612319,"name":"Big Dawgs BBQ","phone":"(903) 288-1047","price":"","reviewCount":2,"reviewScore":4,"meta":{"revision":0,"created":1547531155695,"version":0},"$loki":61},{"_id":"5c3d65bd3525a329e0c0a379","address":"8603 County Rd 3914","location":{"type":"Point","coordinates":[-95.911531,32.265488]},"isApproved":true,"items":[],"keys":["American (New)","Wine Tasting Room","Venues & Event Spaces"],"lastUpdated":1547527612474,"name":"Tara Vineyard & Winery","phone":"(903) 675-7023","price":"$$","reviewCount":42,"reviewScore":4,"meta":{"revision":0,"created":1547531155695,"version":0},"$loki":62},{"_id":"5c3d65bd3525a329e0c0d17c","address":"3080 N Eastman Rd","location":{"type":"Point","coordinates":[-96.006764,32.3015979]},"isApproved":true,"items":[],"keys":["Pizza"],"lastUpdated":1547527612545,"name":"Firenza Pizza","phone":"(430) 625-7433","price":"","reviewCount":16,"reviewScore":3.5,"meta":{"revision":0,"created":1547531155695,"version":0},"$loki":63},{"_id":"5c3d65bd3525a329e0c03e99","address":"333 East Cedar Creek Pkwy","location":{"type":"Point","coordinates":[-96.0705099,32.2336805]},"isApproved":true,"items":[],"keys":["Tex-Mex","Mexican"],"lastUpdated":1547527612313,"name":"El Manantial","phone":"(903) 432-1234","price":"$$","reviewCount":21,"reviewScore":4.5,"meta":{"revision":0,"created":1547531155695,"version":0},"$loki":64},{"_id":"5c3d65bd3525a329e0bffd4d","address":"13228 Hwy 198 S","location":{"type":"Point","coordinates":[-96.1122703,32.2987045]},"isApproved":true,"items":[],"keys":["Barbeque","Vegetarian","Sandwiches"],"lastUpdated":1547527612222,"name":"Vicky’s Bar-B-Q","phone":"(903) 451-5000","price":"$$","reviewCount":12,"reviewScore":4.5,"meta":{"revision":0,"created":1547531155695,"version":0},"$loki":65},{"_id":"5c3d65bd3525a329e0c09f92","address":"123 N Beaton St","location":{"type":"Point","coordinates":[-96.1090850830078,32.3167321581751]},"isApproved":true,"items":[],"keys":["American (New)","Cocktail Bars","Steakhouses"],"lastUpdated":1547527612472,"name":"Across The Street Bistro by Andreas","phone":"(903) 218-2118","price":"$$$","reviewCount":28,"reviewScore":5,"meta":{"revision":0,"created":1547531155695,"version":0},"$loki":66},{"_id":"5c3d65bd3525a329e0c185d9","address":"2119 E Hwy 31","location":{"type":"Point","coordinates":[-96.109729,32.339361]},"isApproved":true,"items":[],"keys":["Mexican"],"lastUpdated":1547527612815,"name":"Taco Casa","phone":"(903) 874-2400","price":"$","reviewCount":18,"reviewScore":4,"meta":{"revision":0,"created":1547531155695,"version":0},"$loki":67},{"_id":"5c3d65bd3525a329e0c07dac","address":"412 South Palestine","location":{"type":"Point","coordinates":[-96.0985803,32.3723231]},"isApproved":true,"items":[],"keys":["Mexican"],"lastUpdated":1547527612411,"name":"Texas Cafe","phone":"","price":"$","reviewCount":3,"reviewScore":2.5,"meta":{"revision":0,"created":1547531155695,"version":0},"$loki":68},{"_id":"5c3d65bd3525a329e0c1b15b","address":"109 North Hwy","location":{"type":"Point","coordinates":[-96.097243130207,32.3721689556829]},"isApproved":true,"items":[],"keys":["Fast Food","Burgers","Ice Cream & Frozen Yogurt"],"lastUpdated":1547527612877,"name":"Sonic Drive-In","phone":"(903) 498-8291","price":"$","reviewCount":5,"reviewScore":2,"meta":{"revision":0,"created":1547531155695,"version":0},"$loki":69},{"_id":"5c3d65bd3525a329e0c06c83","address":"301 N 3rd St","location":{"type":"Point","coordinates":[-96.1004541,32.3681348]},"isApproved":true,"items":[],"keys":["Cafes"],"lastUpdated":1547527612386,"name":"Mabank Cafe","phone":"(903) 887-0177","price":"$","reviewCount":22,"reviewScore":3.5,"meta":{"revision":0,"created":1547531155695,"version":0},"$loki":70},{"_id":"5c3d65bd3525a329e0c105b7","address":"200 Pinnacle Club Dr","location":{"type":"Point","coordinates":[-96.1092801,32.3676827]},"isApproved":true,"items":[],"keys":["American (Traditional)"],"lastUpdated":1547527612618,"name":"Pinnacle Club","phone":"(903) 451-4653","price":"$$","reviewCount":3,"reviewScore":4.5,"meta":{"revision":0,"created":1547531155695,"version":0},"$loki":71},{"_id":"5c3d65bd3525a329e0c0b117","address":"416 S Palestine St","location":{"type":"Point","coordinates":[-96.1012292,32.3641693]},"isApproved":true,"items":[],"keys":["Tex-Mex","Mexican"],"lastUpdated":1547527612497,"name":"El Arroyo Modern Mexican Kitchen","phone":"(903) 292-5279","price":"$$","reviewCount":38,"reviewScore":4.5,"meta":{"revision":0,"created":1547531155695,"version":0},"$loki":72},{"_id":"5c3d65bd3525a329e0c0d170","address":"110 W Cedar Creek Pkwy","location":{"type":"Point","coordinates":[-96.1026919,32.3654483]},"isApproved":true,"items":[],"keys":["Burgers","Fast Food","Ice Cream & Frozen Yogurt"],"lastUpdated":1547527612545,"name":"Dairy Queen","phone":"(903) 432-3076","price":"$$","reviewCount":3,"reviewScore":1.5,"meta":{"revision":0,"created":1547531155695,"version":0},"$loki":73},{"_id":"5c3d65bd3525a329e0c11dd7","address":"1018 W Main St","location":{"type":"Point","coordinates":[-96.103898,32.366417]},"isApproved":true,"items":[],"keys":["Pizza"],"lastUpdated":1547527612661,"name":"Cicis","phone":"(903) 887-2828","price":"$","reviewCount":3,"reviewScore":3,"meta":{"revision":0,"created":1547531155695,"version":0},"$loki":74},{"_id":"5c3d65bd3525a329e0c06302","address":"606 N Hwy 77","location":{"type":"Point","coordinates":[-96.1017055,32.3652752]},"isApproved":true,"items":[],"keys":["Sushi Bars"],"lastUpdated":1547527612369,"name":"Osuba Hibachi Sushi and Bar","phone":"(972) 937-6666","price":"$$","reviewCount":79,"reviewScore":3.5,"meta":{"revision":0,"created":1547531155695,"version":0},"$loki":75},{"_id":"5c3d65bd3525a329e0c1a6d5","address":"1015 W Main St","location":{"type":"Point","coordinates":[-96.100965,32.365752]},"isApproved":true,"items":[],"keys":["Diners","Breakfast & Brunch","American (Traditional)"],"lastUpdated":1547527612866,"name":"Denny’s","phone":"(903) 887-7222","price":"$$","reviewCount":19,"reviewScore":3.5,"meta":{"revision":0,"created":1547531155695,"version":0},"$loki":76},{"_id":"5c3d65bd3525a329e0c08bb4","address":"2131 E State Highway 31","location":{"type":"Point","coordinates":[-96.1000339,32.366456]},"isApproved":true,"items":[],"keys":["American (New)"],"lastUpdated":1547527612436,"name":"Navarro Pecan","phone":"(903) 872-5641","price":"","reviewCount":1,"reviewScore":3,"meta":{"revision":0,"created":1547531155695,"version":0},"$loki":77},{"_id":"5c3d65bd3525a329e0c0c475","address":"334 W Main Street","location":{"type":"Point","coordinates":[-96.1000339,32.366456]},"isApproved":true,"items":[],"keys":["Fast Food","Ice Cream & Frozen Yogurt","Burgers"],"lastUpdated":1547527612524,"name":"Dairy Queen","phone":"(903) 887-2929","price":"","reviewCount":7,"reviewScore":1.5,"meta":{"revision":0,"created":1547531155695,"version":0},"$loki":78},{"_id":"5c3d65bd3525a329e0c1793e","address":"3714 S Hwy 287","location":{"type":"Point","coordinates":[-96.1000339,32.366456]},"isApproved":true,"items":[],"keys":["Burgers"],"lastUpdated":1547527612792,"name":"Hamburger Heaven","phone":"(972) 923-9797","price":"$","reviewCount":3,"reviewScore":3.5,"meta":{"revision":0,"created":1547531155695,"version":0},"$loki":79},{"_id":"5c3d65bd3525a329e0c1923b","address":"2524 W Main St","location":{"type":"Point","coordinates":[-96.1000339,32.366456]},"isApproved":true,"items":[],"keys":["Salad","Juice Bars & Smoothies","Ice Cream & Frozen Yogurt"],"lastUpdated":1547527612833,"name":"Los Chavos Locos","phone":"(903) 373-4316","price":"$$","reviewCount":4,"reviewScore":4.5,"meta":{"revision":0,"created":1547531155695,"version":0},"$loki":80},{"_id":"5c3d65bd3525a329e0c1a296","address":"107 N Rogers St","location":{"type":"Point","coordinates":[-96.1000339,32.366456]},"isApproved":true,"items":[],"keys":["Specialty Food","Italian"],"lastUpdated":1547527612858,"name":"Panzas Tapping Italy","phone":"(214) 869-1269","price":"$","reviewCount":7,"reviewScore":4.5,"meta":{"revision":0,"created":1547531155695,"version":0},"$loki":81},{"_id":"5c3d65bd3525a329e0c09121","address":"139 E Market St Mabank Texas","location":{"type":"Point","coordinates":[-96.0992751,32.3661586]},"isApproved":true,"items":[],"keys":["Mexican"],"lastUpdated":1547527612446,"name":"Jalisco’s Mexican Grill Restaurant","phone":"(903) 887-1581","price":"","reviewCount":1,"reviewScore":5,"meta":{"revision":0,"created":1547531155695,"version":0},"$loki":82},{"_id":"5c3d65bd3525a329e0c06138","address":"1504 S 3rd St","location":{"type":"Point","coordinates":[-96.1073553,32.348702]},"isApproved":true,"items":[],"keys":["Tex-Mex","Salad","Soup"],"lastUpdated":1547527612368,"name":"Mas Queso","phone":"(903) 887-8010","price":"$$","reviewCount":13,"reviewScore":4,"meta":{"revision":0,"created":1547531155695,"version":0},"$loki":83},{"_id":"5c3d65bd3525a329e0c1153e","address":"505 S Palestine St","location":{"type":"Point","coordinates":[-96.107698,32.345786]},"isApproved":true,"items":[],"keys":["Chinese"],"lastUpdated":1547527612649,"name":"Hunan Buffet Sushi and Grill","phone":"(903) 677-1989","price":"$$","reviewCount":3,"reviewScore":2,"meta":{"revision":0,"created":1547531155695,"version":0},"$loki":84},{"_id":"5c3d65bd3525a329e0c114b8","address":"1208 W 7th Ave","location":{"type":"Point","coordinates":[-96.1518639698625,32.3313141218832]},"isApproved":true,"items":[],"keys":["Burgers","Chicken Wings","Salad"],"lastUpdated":1547527612643,"name":"Bottlecap Alley","phone":"(903) 872-5000","price":"$$","reviewCount":10,"reviewScore":3.5,"meta":{"revision":0,"created":1547531155695,"version":0},"$loki":85},{"_id":"5c3d65bd3525a329e0c0a238","address":"2400 W Main St","location":{"type":"Point","coordinates":[-96.151862,32.331294]},"isApproved":true,"items":[],"keys":["Mexican"],"lastUpdated":1547527612473,"name":"El Portal De Jaripo","phone":"(903) 887-2010","price":"$$","reviewCount":9,"reviewScore":2.5,"meta":{"revision":0,"created":1547531155695,"version":0},"$loki":86},{"_id":"5c3d65bd3525a329e0c15e91","address":"125 N Beaton St","location":{"type":"Point","coordinates":[-96.1465028349526,32.3310243991238]},"isApproved":true,"items":[],"keys":["American (Traditional)","Southern","Breakfast & Brunch"],"lastUpdated":1547527612755,"name":"Across The Street Diner","phone":"(903) 874-9111","price":"$","reviewCount":103,"reviewScore":4.5,"meta":{"revision":0,"created":1547531155695,"version":0},"$loki":87},{"_id":"5c3d65bd3525a329e0c184c9","address":"1610 W Main St","location":{"type":"Point","coordinates":[-96.1415563,32.3314291]},"isApproved":true,"items":[],"keys":["Seafood"],"lastUpdated":1547527612814,"name":"Lake Jackson Seafood Restaurant","phone":"(903) 887-1199","price":"$$","reviewCount":33,"reviewScore":3,"meta":{"revision":0,"created":1547531155695,"version":0},"$loki":88},{"_id":"5c3d65bd3525a329e0c1597b","address":"813 E Royall Blvd","location":{"type":"Point","coordinates":[-96.1349068,32.3304296]},"isApproved":true,"items":[],"keys":["American (Traditional)"],"lastUpdated":1547527612747,"name":"Ole’ West Bean & Burger","phone":"(903) 489-0177","price":"","reviewCount":8,"reviewScore":2.5,"meta":{"revision":0,"created":1547531155695,"version":0},"$loki":89},{"_id":"5c3d65bd3525a329e0c08a1f","address":"220 Crestway Dr","location":{"type":"Point","coordinates":[-96.134267895325,32.3304311455968]},"isApproved":true,"items":[],"keys":["Delis","Salad","Sandwiches"],"lastUpdated":1547527612430,"name":"McAlister’s Deli","phone":"(903) 677-0170","price":"$","reviewCount":13,"reviewScore":3.5,"meta":{"revision":0,"created":1547531155695,"version":0},"$loki":90},{"_id":"5c3d65bd3525a329e0bff890","address":"305 S Prairieville St","location":{"type":"Point","coordinates":[-96.1325683157739,32.3304263006436]},"isApproved":true,"items":[],"keys":["Bakeries","Sandwiches"],"lastUpdated":1547527612219,"name":"Cherry Laurel Bakery, Cafe & Catering","phone":"(903) 677-5599","price":"$$","reviewCount":24,"reviewScore":4,"meta":{"revision":0,"created":1547531155695,"version":0},"$loki":91},{"_id":"5c3d65bd3525a329e0c17e68","address":"300 N Pinkerton St","location":{"type":"Point","coordinates":[-96.131901,32.33214]},"isApproved":true,"items":[],"keys":["Seafood","Mexican"],"lastUpdated":1547527612802,"name":"Mariscos El Rincon Bar & Grill","phone":"(903) 264-1010","price":"$$","reviewCount":15,"reviewScore":4,"meta":{"revision":0,"created":1547531155695,"version":0},"$loki":92},{"_id":"5c3d65bd3525a329e0c173b6","address":"426 S Gun Barrel Ln","location":{"type":"Point","coordinates":[-96.133310002976,32.3320984865129]},"isApproved":true,"items":[],"keys":["Restaurants"],"lastUpdated":1547527612784,"name":"Lakeside Cafe","phone":"(903) 880-1163","price":"$","reviewCount":7,"reviewScore":3.5,"meta":{"revision":0,"created":1547531155695,"version":0},"$loki":93},{"_id":"5c3d65bd3525a329e0c0bb1b","address":"1200 W Main St","location":{"type":"Point","coordinates":[-96.1351993,32.333056]},"isApproved":true,"items":[],"keys":["Sandwiches","Fast Food"],"lastUpdated":1547527612508,"name":"Subway","phone":"(903) 887-5700","price":"","reviewCount":2,"reviewScore":1.5,"meta":{"revision":0,"created":1547531155695,"version":0},"$loki":94},{"_id":"5c3d65bd3525a329e0c0a698","address":"428 N Gun Barrel Ln","location":{"type":"Point","coordinates":[-96.1104218535079,32.3357713985948]},"isApproved":true,"items":[],"keys":["Italian"],"lastUpdated":1547527612481,"name":"Vetoni’s Italian Restaurant","phone":"(903) 887-5846","price":"$$","reviewCount":48,"reviewScore":3.5,"meta":{"revision":0,"created":1547531155695,"version":0},"$loki":95},{"_id":"5c3d65bd3525a329e0c102b0","address":"2951 Ridgeway Dr NE","location":{"type":"Point","coordinates":[-96.1109210627728,32.3343455288119]},"isApproved":true,"items":[],"keys":["Sandwiches","Fast Food"],"lastUpdated":1547527612617,"name":"Subway","phone":"(903) 875-0500","price":"","reviewCount":1,"reviewScore":5,"meta":{"revision":0,"created":1547531155695,"version":0},"$loki":96},{"_id":"5c3d65bd3525a329e0c06c4e","address":"114 E Franklin St","location":{"type":"Point","coordinates":[-96.116015,32.330851]},"isApproved":true,"items":[],"keys":["Mexican"],"lastUpdated":1547527612386,"name":"El Mexicano Grill","phone":"(972) 937-1191","price":"$$","reviewCount":56,"reviewScore":4,"meta":{"revision":0,"created":1547531155695,"version":0},"$loki":97},{"_id":"5c3d65bd3525a329e0c06f5d","address":"113 W Main St","location":{"type":"Point","coordinates":[-96.113325,32.331129]},"isApproved":true,"items":[],"keys":["Sandwiches","Fast Food"],"lastUpdated":1547527612388,"name":"Subway","phone":"(903) 880-0025","price":"$","reviewCount":2,"reviewScore":2.5,"meta":{"revision":0,"created":1547531155695,"version":0},"$loki":98},{"_id":"5c3d65bd3525a329e0c0d92c","address":"104 W Main St","location":{"type":"Point","coordinates":[-96.1134811444299,32.3312778046396]},"isApproved":true,"items":[],"keys":["Burgers","Fast Food","Coffee & Tea"],"lastUpdated":1547527612555,"name":"McDonald’s","phone":"(903) 887-0054","price":"$","reviewCount":9,"reviewScore":2.5,"meta":{"revision":0,"created":1547531155695,"version":0},"$loki":99},{"_id":"5c3d65bd3525a329e0c0ac23","address":"809 N 24th St","location":{"type":"Point","coordinates":[-96.1120951,32.3304982]},"isApproved":true,"items":[],"keys":["Tex-Mex","Mexican"],"lastUpdated":1547527612490,"name":"La Cabaña Restaurant","phone":"(903) 602-5196","price":"$","reviewCount":5,"reviewScore":3,"meta":{"revision":0,"created":1547531155695,"version":0},"$loki":100},{"_id":"5c3d65bd3525a329e0c13251","address":"200 SW McKinney","location":{"type":"Point","coordinates":[-96.1123278938039,32.3300094915685]},"isApproved":true,"items":[],"keys":["Thai"],"lastUpdated":1547527612689,"name":"Thai Garden Restaurant","phone":"(903) 326-4590","price":"$","reviewCount":7,"reviewScore":3,"meta":{"revision":0,"created":1547531155695,"version":0},"$loki":101},{"_id":"5c3d65bd3525a329e0c15080","address":"127 S Gun Barrel Ln","location":{"type":"Point","coordinates":[-96.1115312,32.3223354]},"isApproved":true,"items":[],"keys":["Mexican"],"lastUpdated":1547527612736,"name":"Little mexico","phone":"(903) 887-0110","price":"","reviewCount":1,"reviewScore":5,"meta":{"revision":0,"created":1547531155695,"version":0},"$loki":102},{"_id":"5c3d65bd3525a329e0c12c1c","address":"1243 W Main St","location":{"type":"Point","coordinates":[-96.1213710529937,32.3306403007968]},"isApproved":true,"items":[],"keys":["American (New)","Chicken Wings"],"lastUpdated":1547527612680,"name":"Chicken Express","phone":"(903) 880-4028","price":"$","reviewCount":8,"reviewScore":2.5,"meta":{"revision":0,"created":1547531155695,"version":0},"$loki":103},{"_id":"5c3d65bd3525a329e0c125f1","address":"302 State Hwy 31 W","location":{"type":"Point","coordinates":[-96.124223,32.331284]},"isApproved":true,"items":[],"keys":["Breakfast & Brunch","Southern","American (New)"],"lastUpdated":1547527612671,"name":"Mojos Country Kitchen","phone":"(903) 489-0128","price":"","reviewCount":2,"reviewScore":3,"meta":{"revision":0,"created":1547531155695,"version":0},"$loki":104},{"_id":"5c3d65bd3525a329e0c0006e","address":"109 State Hwy 274","location":{"type":"Point","coordinates":[-96.1268136,32.3312629]},"isApproved":true,"items":[],"keys":["Delis","Bakeries","Grocery"],"lastUpdated":1547527612223,"name":"Heritage Market & Bakery","phone":"(903) 498-3366","price":"$","reviewCount":20,"reviewScore":4.5,"meta":{"revision":0,"created":1547531155695,"version":0},"$loki":105},{"_id":"5c3d65bd3525a329e0c1338a","address":"916 W Main St","location":{"type":"Point","coordinates":[-96.1287804701883,32.3312869893136]},"isApproved":true,"items":[],"keys":["Mexican"],"lastUpdated":1547527612689,"name":"The Jalapeno Tree","phone":"(903) 887-4504","price":"$$","reviewCount":52,"reviewScore":3,"meta":{"revision":0,"created":1547531155695,"version":0},"$loki":106},{"_id":"5c3d65bd3525a329e0c12088","address":"604 W 7th Ave","location":{"type":"Point","coordinates":[-96.1283963830407,32.3312345087378]},"isApproved":true,"items":[],"keys":["Pizza"],"lastUpdated":1547527612663,"name":"Cicis","phone":"(903) 874-0022","price":"","reviewCount":3,"reviewScore":3,"meta":{"revision":0,"created":1547531155695,"version":0},"$loki":107},{"_id":"5c3d65bd3525a329e0c09b2d","address":"938 W Main St","location":{"type":"Point","coordinates":[-96.1284,32.3311]},"isApproved":true,"items":[],"keys":["Burgers","Fast Food"],"lastUpdated":1547527612464,"name":"Whataburger","phone":"(903) 887-8700","price":"$","reviewCount":7,"reviewScore":3.5,"meta":{"revision":0,"created":1547531155695,"version":0},"$loki":108},{"_id":"5c3d65bd3525a329e0c15c24","address":"514 South 7th St","location":{"type":"Point","coordinates":[-96.1300626397133,32.3312676609736]},"isApproved":true,"items":[],"keys":["American (Traditional)","Pubs"],"lastUpdated":1547527612754,"name":"Marshall’s Tavern Corsicana","phone":"(903) 467-3146","price":"","reviewCount":1,"reviewScore":1,"meta":{"revision":0,"created":1547531155695,"version":0},"$loki":109},{"_id":"5c3d65bd3525a329e0c0c1c0","address":"140 Lr Campbell Rd","location":{"type":"Point","coordinates":[-96.1299983,32.3308593]},"isApproved":true,"items":[],"keys":["Diners","Breakfast & Brunch","American (Traditional)"],"lastUpdated":1547527612517,"name":"Denny’s","phone":"(972) 483-1100","price":"$","reviewCount":4,"reviewScore":2.5,"meta":{"revision":0,"created":1547531155695,"version":0},"$loki":110},{"_id":"5c3d65bd3525a329e0c141ac","address":"2104 S 3rd St","location":{"type":"Point","coordinates":[-96.1758593,32.3285213]},"isApproved":true,"items":[],"keys":["Restaurants"],"lastUpdated":1547527612713,"name":"Chuck Wagon Restaurant","phone":"(903) 880-0100","price":"$$","reviewCount":1,"reviewScore":5,"meta":{"revision":0,"created":1547531155695,"version":0},"$loki":111},{"_id":"5c3d65bd3525a329e0c06b63","address":"208 W Franklin St","location":{"type":"Point","coordinates":[-96.19451,32.32649]},"isApproved":true,"items":[],"keys":["Irish Pub","American (Traditional)","Chicken Wings"],"lastUpdated":1547527612385,"name":"The Plaid Turtle draft house","phone":"(214) 980-1399","price":"$","reviewCount":18,"reviewScore":4.5,"meta":{"revision":0,"created":1547531155695,"version":0},"$loki":112},{"_id":"5c3d65bd3525a329e0c00588","address":"706 N I-45","location":{"type":"Point","coordinates":[-96.1537045,32.3312874]},"isApproved":true,"items":[],"keys":["American (Traditional)","Southern","Comfort Food"],"lastUpdated":1547527612227,"name":"Cotton Patch Cafe","phone":"(972) 875-8591","price":"$$","reviewCount":36,"reviewScore":3.5,"meta":{"revision":0,"created":1547531155695,"version":0},"$loki":113},{"_id":"5c3d65bd3525a329e0c10ae9","address":"210 N Palestine St","location":{"type":"Point","coordinates":[-96.2007077,32.3239736]},"isApproved":true,"items":[],"keys":["American (Traditional)"],"lastUpdated":1547527612631,"name":"Railway Cafe","phone":"(903) 264-7245","price":"$$","reviewCount":122,"reviewScore":5,"meta":{"revision":0,"created":1547531155695,"version":0},"$loki":114},{"_id":"5c3d65bd3525a329e0c11dcf","address":"808 W Ennis Ave","location":{"type":"Point","coordinates":[-96.2109158735931,32.3190758915249]},"isApproved":true,"items":[],"keys":["Mexican"],"lastUpdated":1547527612661,"name":"Birrieria Aguinaga","phone":"(972) 875-4733","price":"","reviewCount":3,"reviewScore":2.5,"meta":{"revision":0,"created":1547531155695,"version":0},"$loki":115},{"_id":"5c3d65bd3525a329e0c19afe","address":"515 W Royall Blvd","location":{"type":"Point","coordinates":[-96.2070358233717,32.3223433415524]},"isApproved":true,"items":[],"keys":["Mexican","Tex-Mex"],"lastUpdated":1547527612849,"name":"Ochoa’s Mexican Restaurant","phone":"(903) 489-1779","price":"$$","reviewCount":34,"reviewScore":4,"meta":{"revision":0,"created":1547531155695,"version":0},"$loki":116},{"_id":"5c3d65bd3525a329e0c19b02","address":"908 Ferris Ave","location":{"type":"Point","coordinates":[-96.2059443481666,32.3224601386624]},"isApproved":true,"items":[],"keys":["Tex-Mex"],"lastUpdated":1547527612849,"name":"Taco Casa","phone":"(972) 923-7771","price":"$","reviewCount":15,"reviewScore":4,"meta":{"revision":0,"created":1547531155695,"version":0},"$loki":117},{"_id":"5c3d65bd3525a329e0c045e1","address":"119 E Market St","location":{"type":"Point","coordinates":[-96.206841,32.322979]},"isApproved":true,"items":[],"keys":["Cafes"],"lastUpdated":1547527612328,"name":"Guilty Pleasures Cafe","phone":"(903) 802-8841","price":"","reviewCount":2,"reviewScore":5,"meta":{"revision":0,"created":1547531155695,"version":0},"$loki":118},{"_id":"5c3d65bd3525a329e0c04e28","address":"229 N Seven Points Dr","location":{"type":"Point","coordinates":[-96.2153818988165,32.3238476418544]},"isApproved":true,"items":[],"keys":["Tex-Mex","Cafes"],"lastUpdated":1547527612338,"name":"Yellow Rose Cafe","phone":"(903) 432-9555","price":"$","reviewCount":20,"reviewScore":3,"meta":{"revision":0,"created":1547531155695,"version":0},"$loki":119},{"_id":"5c3d65bd3525a329e0c18924","address":"218 N Seven Points Blvd","location":{"type":"Point","coordinates":[-96.2156372,32.3233943]},"isApproved":true,"items":[],"keys":["Chicken Wings"],"lastUpdated":1547527612822,"name":"Papa’s Chicken and Catfish","phone":"(903) 432-2691","price":"$","reviewCount":3,"reviewScore":4,"meta":{"revision":0,"created":1547531155695,"version":0},"$loki":120},{"_id":"5c3d65bd3525a329e0c0d072","address":"403 Water St","location":{"type":"Point","coordinates":[-96.214235,32.320309]},"isApproved":true,"items":[],"keys":["Burgers"],"lastUpdated":1547527612544,"name":"Oma’s Jiffy Burger","phone":"(972) 937-9190","price":"$","reviewCount":58,"reviewScore":4,"meta":{"revision":0,"created":1547531155695,"version":0},"$loki":121},{"_id":"5c3d65bd3525a329e0c07bb0","address":"508 N Hwy 77","location":{"type":"Point","coordinates":[-96.2148473131013,32.321331717493]},"isApproved":true,"items":[],"keys":["Chicken Shop","Southern","American (Traditional)"],"lastUpdated":1547527612410,"name":"Cowboy Chicken","phone":"(972) 268-9437","price":"$","reviewCount":36,"reviewScore":3.5,"meta":{"revision":0,"created":1547531155695,"version":0},"$loki":122},{"_id":"5c3d65bd3525a329e0c19e90","address":"5401 Marina Dr","location":{"type":"Point","coordinates":[-96.212782,32.321159]},"isApproved":true,"items":[],"keys":["Seafood","Bars","Southern"],"lastUpdated":1547527612851,"name":"Athens Boathouse","phone":"(903) 675-2628","price":"$$","reviewCount":24,"reviewScore":4.5,"meta":{"revision":0,"created":1547531155695,"version":0},"$loki":123},{"_id":"5c3d65bd3525a329e0c0fae4","address":"301 S 3rd St","location":{"type":"Point","coordinates":[-96.2116192066283,32.3210278227482]},"isApproved":true,"items":[],"keys":["Burgers","Salad","Steakhouses"],"lastUpdated":1547527612601,"name":"Ole West Bean & Burger Co","phone":"(903) 887-0009","price":"$$","reviewCount":30,"reviewScore":4,"meta":{"revision":0,"created":1547531155695,"version":0},"$loki":124},{"_id":"5c3d65bd3525a329e0c11a75","address":"2509 N Business 45","location":{"type":"Point","coordinates":[-96.207252,32.312555]},"isApproved":true,"items":[],"keys":["American (Traditional)","Music Venues","Pubs"],"lastUpdated":1547527612652,"name":"Moontower At The Oaks","phone":"(903) 875-1354","price":"$$","reviewCount":16,"reviewScore":4,"meta":{"revision":0,"created":1547531155695,"version":0},"$loki":125},{"_id":"5c3d65bd3525a329e0c10176","address":"309 S Kaufman St","location":{"type":"Point","coordinates":[-96.2043932,32.309618]},"isApproved":true,"items":[],"keys":["Mexican"],"lastUpdated":1547527612610,"name":"Fiesta Grill","phone":"(972) 875-7620","price":"$","reviewCount":12,"reviewScore":3.5,"meta":{"revision":0,"created":1547531155695,"version":0},"$loki":126},{"_id":"5c3d65bd3525a329e0c113e9","address":"Highway 274","location":{"type":"Point","coordinates":[-96.2205273,32.4347582]},"isApproved":true,"items":[],"keys":["Nightlife","Restaurants"],"lastUpdated":1547527612642,"name":"McClain’s Restaurant & Willows Club","phone":"(903) 432-2169","price":"$","reviewCount":17,"reviewScore":3.5,"meta":{"revision":0,"created":1547531155695,"version":0},"$loki":127},{"_id":"5c3d65bd3525a329e0c0b0c9","address":"1204 Ferris Ave","location":{"type":"Point","coordinates":[-96.2205483019351,32.434804871571]},"isApproved":true,"items":[],"keys":["Mexican"],"lastUpdated":1547527612497,"name":"El Trebol Taqueria","phone":"(972) 937-5373","price":"$","reviewCount":8,"reviewScore":3.5,"meta":{"revision":0,"created":1547531155695,"version":0},"$loki":128},{"_id":"5c3d65bd3525a329e0c09a0d","address":"101 S Seven Points Dr","location":{"type":"Point","coordinates":[-96.2239735,32.4313716]},"isApproved":true,"items":[],"keys":["Fast Food","Delis"],"lastUpdated":1547527612463,"name":"Smash Hit Subs","phone":"(903) 432-4890","price":"$","reviewCount":1,"reviewScore":3,"meta":{"revision":0,"created":1547531155695,"version":0},"$loki":129},{"_id":"5c3d65bd3525a329e0c12e59","address":"701 E Cedar Creek Pkwy","location":{"type":"Point","coordinates":[-96.2246177624831,32.4323404598942]},"isApproved":true,"items":[],"keys":["Italian"],"lastUpdated":1547527612681,"name":"Tavi’s Italian Restaurant","phone":"(903) 432-0330","price":"$$","reviewCount":20,"reviewScore":4,"meta":{"revision":0,"created":1547531155695,"version":0},"$loki":130},{"_id":"5c3d65bd3525a329e0c12dba","address":"301 N I-45","location":{"type":"Point","coordinates":[-96.225138,32.433749]},"isApproved":true,"items":[],"keys":["Breakfast & Brunch","American (Traditional)","Diners"],"lastUpdated":1547527612681,"name":"Denny’s","phone":"(972) 875-2434","price":"$","reviewCount":7,"reviewScore":3.5,"meta":{"revision":0,"created":1547531155695,"version":0},"$loki":131},{"_id":"5c3d65bd3525a329e0c1581d","address":"615 S Seven Points Dr","location":{"type":"Point","coordinates":[-96.2220403,32.433542]},"isApproved":true,"items":[],"keys":["Barbeque"],"lastUpdated":1547527612747,"name":"The Feed Trough","phone":"(903) 432-9000","price":"$","reviewCount":10,"reviewScore":3.5,"meta":{"revision":0,"created":1547531155695,"version":0},"$loki":132},{"_id":"5c3d65bd3525a329e0c11739","address":"704 S Elm St","location":{"type":"Point","coordinates":[-96.228656,32.4384546]},"isApproved":true,"items":[],"keys":["Mexican"],"lastUpdated":1547527612650,"name":"La Fuente","phone":"(903) 498-4853","price":"$","reviewCount":4,"reviewScore":3.5,"meta":{"revision":0,"created":1547531155695,"version":0},"$loki":133},{"_id":"5c3d65bd3525a329e0c07d09","address":"539 E Interstate 30","location":{"type":"Point","coordinates":[-96.3091963,32.5898309]},"isApproved":true,"items":[],"keys":["Vietnamese"],"lastUpdated":1547527612411,"name":"Healthy Bánh Mì","phone":"(469) 314-1294","price":"$","reviewCount":51,"reviewScore":5,"meta":{"revision":0,"created":1547531155695,"version":0},"$loki":134},{"_id":"5c3d65bd3525a329e0c03071","address":"1706 N Hwy 175","location":{"type":"Point","coordinates":[-96.3102108283244,32.5891091280664]},"isApproved":true,"items":[],"keys":["Mexican"],"lastUpdated":1547527612295,"name":"Texas Pupuseria Taqueria","phone":"(214) 506-4030","price":"","reviewCount":6,"reviewScore":4.5,"meta":{"revision":0,"created":1547531155695,"version":0},"$loki":135},{"_id":"5c3d65bd3525a329e0c08354","address":"807 S Washington St","location":{"type":"Point","coordinates":[-96.3088803,32.5838922]},"isApproved":true,"items":[],"keys":["Burgers","Sandwiches"],"lastUpdated":1547527612420,"name":"Kaufman Burgers","phone":"(469) 770-1543","price":"","reviewCount":5,"reviewScore":4,"meta":{"revision":0,"created":1547531155695,"version":0},"$loki":136},{"_id":"5c3d65bd3525a329e0c0c968","address":"401 S Washington","location":{"type":"Point","coordinates":[-96.3089322,32.5870638]},"isApproved":true,"items":[],"keys":["Mexican","Breakfast & Brunch"],"lastUpdated":1547527612526,"name":"Little Mexico","phone":"(972) 932-2567","price":"$","reviewCount":12,"reviewScore":4,"meta":{"revision":0,"created":1547531155695,"version":0},"$loki":137},{"_id":"5c3d65bd3525a329e0c135d5","address":"300 E Cherry St","location":{"type":"Point","coordinates":[-96.3070115,32.5880334]},"isApproved":true,"items":[],"keys":["Bakeries","Cafes","Coffee & Tea"],"lastUpdated":1547527612696,"name":"The Sweet Dish Bakery & Cafe","phone":"(972) 932-2686","price":"$","reviewCount":9,"reviewScore":4.5,"meta":{"revision":0,"created":1547531155695,"version":0},"$loki":138},{"_id":"5c3d65bd3525a329e0c09263","address":"5321 E Mockingbird Ln","location":{"type":"Point","coordinates":[-96.3028796,32.5892744]},"isApproved":true,"items":[],"keys":["Poke","Pan Asian","Hawaiian"],"lastUpdated":1547527612452,"name":"Poke O","phone":"(214) 964-0800","price":"","reviewCount":15,"reviewScore":5,"meta":{"revision":0,"created":1547531155695,"version":0},"$loki":139},{"_id":"5c3d65bd3525a329e0c183ad","address":"1601 Elm St","location":{"type":"Point","coordinates":[-96.295068,32.588217]},"isApproved":true,"items":[],"keys":["Gluten-Free","Vegan"],"lastUpdated":1547527612814,"name":"Gather Kitchen","phone":"(469) 930-9015","price":"$$","reviewCount":82,"reviewScore":4.5,"meta":{"revision":0,"created":1547531155695,"version":0},"$loki":140},{"_id":"5c3d65bd3525a329e0c0f29f","address":"9665 N Central Expy","location":{"type":"Point","coordinates":[-96.3053017414724,32.571308031031]},"isApproved":true,"items":[],"keys":["Greek"],"lastUpdated":1547527612591,"name":"Little Greek Fresh Grill","phone":"(214) 696-1234","price":"$$","reviewCount":137,"reviewScore":4.5,"meta":{"revision":0,"created":1547531155695,"version":0},"$loki":141},{"_id":"5c3d65bd3525a329e0c00dbd","address":"2040 W Northwest Hwy","location":{"type":"Point","coordinates":[-96.3052500568666,32.5712337834947]},"isApproved":true,"items":[],"keys":["Tex-Mex"],"lastUpdated":1547527612237,"name":"Maza Tex-Mex","phone":"(469) 620-6490","price":"","reviewCount":4,"reviewScore":5,"meta":{"revision":0,"created":1547531155695,"version":0},"$loki":142},{"_id":"5c3d65bd3525a329e0c0be0f","address":"7015 Holly Hill Dr","location":{"type":"Point","coordinates":[-96.3046181201935,32.5708531499622]},"isApproved":true,"items":[],"keys":["Salvadoran"],"lastUpdated":1547527612515,"name":"Pupuseria Yoselyn","phone":"(214) 622-2706","price":"","reviewCount":3,"reviewScore":5,"meta":{"revision":0,"created":1547531155695,"version":0},"$loki":143},{"_id":"5c3d65bd3525a329e0c16678","address":"3600 Gus Thomasson Rd","location":{"type":"Point","coordinates":[-96.3086727,32.578579]},"isApproved":true,"items":[],"keys":["Mexican"],"lastUpdated":1547527612765,"name":"Pepper’s Cafe","phone":"(972) 682-4582","price":"$","reviewCount":49,"reviewScore":4,"meta":{"revision":0,"created":1547531155695,"version":0},"$loki":144},{"_id":"5c3d65bd3525a329e0c0ab13","address":"1301 S Washington St","location":{"type":"Point","coordinates":[-96.308706713477,32.580654919825]},"isApproved":true,"items":[],"keys":["Mexican","Tex-Mex"],"lastUpdated":1547527612489,"name":"Jalisco’s Mexican Grill Restaurant","phone":"(972) 932-3033","price":"$$","reviewCount":34,"reviewScore":3.5,"meta":{"revision":0,"created":1547531155695,"version":0},"$loki":145},{"_id":"5c3d65bd3525a329e0c19403","address":"1201 Oak Lawn Ave","location":{"type":"Point","coordinates":[-96.3093579,32.5794466]},"isApproved":true,"items":[],"keys":["Mexican","Tex-Mex","Bars"],"lastUpdated":1547527612840,"name":"El Bolero","phone":"(214) 741-1986","price":"$$","reviewCount":308,"reviewScore":3.5,"meta":{"revision":0,"created":1547531155695,"version":0},"$loki":146},{"_id":"5c3d65bd3525a329e0c15dfa","address":"3600 Gus Thomasson Road Suit 100","location":{"type":"Point","coordinates":[-96.3085119,32.571458]},"isApproved":true,"items":[],"keys":["Italian","Sandwiches"],"lastUpdated":1547527612755,"name":"Sapori Di Roma","phone":"(972) 613-8300","price":"","reviewCount":1,"reviewScore":5,"meta":{"revision":0,"created":1547531155695,"version":0},"$loki":147},{"_id":"5c3d65bd3525a329e0c1a47c","address":"1200 E Davis St","location":{"type":"Point","coordinates":[-96.3127634,32.5751399]},"isApproved":true,"items":[],"keys":["Chicken Wings","Sports Bars","Burgers"],"lastUpdated":1547527612859,"name":"BoomerJack’s Grill & Bar - Mesquite","phone":"(972) 288-9464","price":"$$","reviewCount":39,"reviewScore":3,"meta":{"revision":0,"created":1547531155695,"version":0},"$loki":148},{"_id":"5c3d65bd3525a329e0c0a21c","address":"3220 Gus Thomasson Rd","location":{"type":"Point","coordinates":[-96.2802807,32.7105083]},"isApproved":true,"items":[],"keys":["Chicken Wings"],"lastUpdated":1547527612473,"name":"Phat Wings","phone":"(972) 279-1368","price":"$","reviewCount":233,"reviewScore":4.5,"meta":{"revision":0,"created":1547531155695,"version":0},"$loki":149},{"_id":"5c3d65bd3525a329e0c11395","address":"4810 Maple Ave","location":{"type":"Point","coordinates":[-96.282279,32.7033096]},"isApproved":true,"items":[],"keys":["Burgers"],"lastUpdated":1547527612642,"name":"Maple and Motor","phone":"(214) 522-4400","price":"$","reviewCount":1289,"reviewScore":4,"meta":{"revision":0,"created":1547531155695,"version":0},"$loki":150},{"_id":"5c3d65bd3525a329e0c13a3f","address":"3125 Grand Ave","location":{"type":"Point","coordinates":[-96.274673268199,32.6980353654058]},"isApproved":true,"items":[],"keys":["Chicken Wings","Cheesesteaks","Sandwiches"],"lastUpdated":1547527612698,"name":"Southside Steaks & Cakes","phone":"(469) 399-7644","price":"$","reviewCount":22,"reviewScore":4.5,"meta":{"revision":0,"created":1547531155695,"version":0},"$loki":151},{"_id":"5c3d65bd3525a329e0c07b5c","address":"920 S Harwood St","location":{"type":"Point","coordinates":[-96.2791317,32.7019713]},"isApproved":true,"items":[],"keys":["Belgian","Food Stands","Waffles"],"lastUpdated":1547527612410,"name":"i see waffles","phone":"","price":"","reviewCount":1,"reviewScore":5,"meta":{"revision":0,"created":1547531155695,"version":0},"$loki":152},{"_id":"5c3d65bd3525a329e0c0277d","address":"4740 S Broadway","location":{"type":"Point","coordinates":[-96.007161,32.713239]},"isApproved":true,"items":[],"keys":["Italian"],"lastUpdated":1547527612284,"name":"La Villeta","phone":"(903) 509-8110","price":"","reviewCount":1,"reviewScore":1,"meta":{"revision":0,"created":1547531155695,"version":0},"$loki":153},{"_id":"5c3d65bd3525a329e0c0a0ce","address":"5332 Lakeview Pkwy","location":{"type":"Point","coordinates":[-96.0080523,32.7124572]},"isApproved":true,"items":[],"keys":["Indian","Buffets"],"lastUpdated":1547527612472,"name":"Spice Village","phone":"(469) 867-1448","price":"","reviewCount":8,"reviewScore":4.5,"meta":{"revision":0,"created":1547531155695,"version":0},"$loki":154},{"_id":"5c3d65bd3525a329e0c139be","address":"103 Hwy 31 W","location":{"type":"Point","coordinates":[-96.0080523,32.7124572]},"isApproved":true,"items":[],"keys":["Burgers","Fast Food"],"lastUpdated":1547527612698,"name":"Whataburger","phone":"(903) 849-3021","price":"$","reviewCount":4,"reviewScore":5,"meta":{"revision":0,"created":1547531155695,"version":0},"$loki":155},{"_id":"5c3d65bd3525a329e0c0d0b5","address":"1309 W S Commerce St","location":{"type":"Point","coordinates":[-96.0230713217533,32.7083853601837]},"isApproved":true,"items":[],"keys":["Seafood","Steakhouses"],"lastUpdated":1547527612544,"name":"Roth’s Seafood & Steakhouse","phone":"(903) 873-8110","price":"$$","reviewCount":13,"reviewScore":3.5,"meta":{"revision":0,"created":1547531155695,"version":0},"$loki":156},{"_id":"5c3d65bd3525a329e0c084d8","address":"1963 N Trade Days Blvd","location":{"type":"Point","coordinates":[-96.0118922,32.7074938]},"isApproved":true,"items":[],"keys":["Pizza","Chicken Wings","Sandwiches"],"lastUpdated":1547527612427,"name":"Domino’s Pizza","phone":"(903) 567-3030","price":"","reviewCount":4,"reviewScore":2.5,"meta":{"revision":0,"created":1547531155695,"version":0},"$loki":157},{"_id":"5c3d65bd3525a329e0c09ac3","address":"1100 E Broadway","location":{"type":"Point","coordinates":[-96.0074331,32.7072746]},"isApproved":true,"items":[],"keys":["Burgers","Coffee & Tea","Fast Food"],"lastUpdated":1547527612464,"name":"McDonald’s","phone":"(903) 845-9910","price":"$","reviewCount":7,"reviewScore":1.5,"meta":{"revision":0,"created":1547531155695,"version":0},"$loki":158},{"_id":"5c3d65bd3525a329e0c110f6","address":"109 W S Commerce St","location":{"type":"Point","coordinates":[-96.0086479,32.7074074]},"isApproved":true,"items":[],"keys":["Mexican"],"lastUpdated":1547527612641,"name":"Paco Dominguez","phone":"(903) 873-3667","price":"$$","reviewCount":7,"reviewScore":3.5,"meta":{"revision":0,"created":1547531155695,"version":0},"$loki":159},{"_id":"5c3d65bd3525a329e0c0cc90","address":"302 E Front St","location":{"type":"Point","coordinates":[-96.0086942,32.7083725]},"isApproved":true,"items":[],"keys":["Coffee & Tea","Breakfast & Brunch"],"lastUpdated":1547527612534,"name":"Strada Caffè","phone":"(903) 944-7744","price":"$$","reviewCount":73,"reviewScore":4,"meta":{"revision":0,"created":1547531155695,"version":0},"$loki":160},{"_id":"5c3d65bd3525a329e0c1b35e","address":"2661 Midway Rd","location":{"type":"Point","coordinates":[-96.0086942,32.7083725]},"isApproved":true,"items":[],"keys":["Hawaiian","Poke"],"lastUpdated":1547527612884,"name":"Halo Hawaiian BBQ&Poke Bar","phone":"(214) 758-0800","price":"","reviewCount":29,"reviewScore":5,"meta":{"revision":0,"created":1547531155695,"version":0},"$loki":161},{"_id":"5c3d65bd3525a329e0c00bcf","address":"111 E Main St","location":{"type":"Point","coordinates":[-96.008855,32.708459]},"isApproved":true,"items":[],"keys":["Diners","American (Traditional)"],"lastUpdated":1547527612230,"name":"Mama’s Daughters’ Diner","phone":"(972) 552-3463","price":"$","reviewCount":81,"reviewScore":4,"meta":{"revision":0,"created":1547531155695,"version":0},"$loki":162},{"_id":"5c3d65bd3525a329e0c0b0e0","address":"14457 Tx-31","location":{"type":"Point","coordinates":[-96.008855,32.708459]},"isApproved":true,"items":[],"keys":["Pizza","Burgers"],"lastUpdated":1547527612497,"name":"Dot’s Place","phone":"(903) 852-7630","price":"","reviewCount":3,"reviewScore":5,"meta":{"revision":0,"created":1547531155695,"version":0},"$loki":163},{"_id":"5c3d65bd3525a329e0c05411","address":"1800 Dalrock Rd","location":{"type":"Point","coordinates":[-96.0032128541378,32.7057370342807]},"isApproved":true,"items":[],"keys":["Mexican"],"lastUpdated":1547527612347,"name":"Alejandro’s Grill & Cantina","phone":"(972) 412-4370","price":"$$","reviewCount":62,"reviewScore":3.5,"meta":{"revision":0,"created":1547531155695,"version":0},"$loki":164},{"_id":"5c3d65bd3525a329e0c07d46","address":"1208 Titus","location":{"type":"Point","coordinates":[-96.0032128541378,32.7057370342807]},"isApproved":true,"items":[],"keys":["Southern"],"lastUpdated":1547527612411,"name":"Lori’s Eats & Sweets","phone":"(903) 680-3287","price":"","reviewCount":6,"reviewScore":4,"meta":{"revision":0,"created":1547531155695,"version":0},"$loki":165},{"_id":"5c3d65bd3525a329e0c07d45","address":"1703 S Broadway Ave","location":{"type":"Point","coordinates":[-95.9989405274575,32.7033332454046]},"isApproved":true,"items":[],"keys":["Restaurants"],"lastUpdated":1547527612411,"name":"Jack In the Box Restaurants","phone":"(903) 592-8841","price":"","reviewCount":3,"reviewScore":3.5,"meta":{"revision":0,"created":1547531155695,"version":0},"$loki":166},{"_id":"5c3d65bd3525a329e0c0c1e8","address":"400 N Coit Rd","location":{"type":"Point","coordinates":[-96.0239807681558,32.6322706591589]},"isApproved":true,"items":[],"keys":["Fish & Chips","British"],"lastUpdated":1547527612517,"name":"Fish & Fizz","phone":"(469) 687-0022","price":"","reviewCount":79,"reviewScore":4,"meta":{"revision":0,"created":1547531155695,"version":0},"$loki":167},{"_id":"5c3d65bd3525a329e0c0f5f8","address":"307 E Interstate 20","location":{"type":"Point","coordinates":[-96.0190097561921,32.6405617315217]},"isApproved":true,"items":[],"keys":["Steakhouses","Burgers"],"lastUpdated":1547527612598,"name":"Terrell Steak & Grill","phone":"(469) 614-3573","price":"$$","reviewCount":51,"reviewScore":4,"meta":{"revision":0,"created":1547531155695,"version":0},"$loki":168},{"_id":"5c3d65bd3525a329e0c044d3","address":"570 E Dallas St","location":{"type":"Point","coordinates":[-95.9219805219957,32.604206304976]},"isApproved":true,"items":[],"keys":["Mexican"],"lastUpdated":1547527612322,"name":"Tacos Y Mas","phone":"(972) 325-4104","price":"$","reviewCount":6,"reviewScore":4,"meta":{"revision":0,"created":1547531155695,"version":0},"$loki":169},{"_id":"5c3d65bd3525a329e0c11f09","address":"19177 Preston Rd","location":{"type":"Point","coordinates":[-95.9219730357961,32.6009663136076]},"isApproved":true,"items":[],"keys":["Breakfast & Brunch"],"lastUpdated":1547527612662,"name":"Mimi’s Star café","phone":"","price":"","reviewCount":6,"reviewScore":5,"meta":{"revision":0,"created":1547531155695,"version":0},"$loki":170},{"_id":"5c3d65bd3525a329e0c12771","address":"102 E Broadway St","location":{"type":"Point","coordinates":[-95.9219730357961,32.6009663136076]},"isApproved":true,"items":[],"keys":["Italian","Breakfast & Brunch","Burgers"],"lastUpdated":1547527612672,"name":"Uncle Mike’s Italian Cafe","phone":"(903) 636-0056","price":"","reviewCount":7,"reviewScore":4,"meta":{"revision":0,"created":1547531155695,"version":0},"$loki":171},{"_id":"5c3d65bd3525a329e0c06d22","address":"809 E Pine St","location":{"type":"Point","coordinates":[-95.8738213,32.6938638]},"isApproved":true,"items":[],"keys":["American (Traditional)"],"lastUpdated":1547527612387,"name":"Lumberyard Cafe","phone":"(903) 896-7766","price":"$$","reviewCount":37,"reviewScore":4.5,"meta":{"revision":0,"created":1547531155695,"version":0},"$loki":172},{"_id":"5c3d65bd3525a329e0c0d634","address":"2218 S Jupiter Rd","location":{"type":"Point","coordinates":[-95.8738213,32.6938638]},"isApproved":true,"items":[],"keys":["Tex-Mex","Mexican"],"lastUpdated":1547527612548,"name":"Tranky’s Tacos","phone":"(972) 864-1460","price":"$","reviewCount":202,"reviewScore":5,"meta":{"revision":0,"created":1547531155695,"version":0},"$loki":173},{"_id":"5c3d65bd3525a329e0c0c7d6","address":"14584 Highway 31 E","location":{"type":"Point","coordinates":[-95.8822049,32.6953132]},"isApproved":true,"items":[],"keys":["Burgers","Fast Food","Ice Cream & Frozen Yogurt"],"lastUpdated":1547527612526,"name":"Sonic Drive-In","phone":"(903) 852-2390","price":"$","reviewCount":1,"reviewScore":5,"meta":{"revision":0,"created":1547531155695,"version":0},"$loki":174},{"_id":"5c3d65bd3525a329e0c04a27","address":"1201 E Erwin St","location":{"type":"Point","coordinates":[-95.8815878447067,32.6947282170634]},"isApproved":true,"items":[],"keys":["Seafood"],"lastUpdated":1547527612331,"name":"Marisco’s Dj’s - Don Juan Seafood","phone":"(903) 533-1220","price":"$$","reviewCount":12,"reviewScore":4.5,"meta":{"revision":0,"created":1547531155695,"version":0},"$loki":175},{"_id":"5c3d65bd3525a329e0c1a900","address":"1436 S Buckner Blvd","location":{"type":"Point","coordinates":[-95.8815878447067,32.6947282170634]},"isApproved":true,"items":[],"keys":["Mexican"],"lastUpdated":1547527612867,"name":"Don Jorge’s Cocina","phone":"(214) 391-2494","price":"$$","reviewCount":13,"reviewScore":4,"meta":{"revision":0,"created":1547531155695,"version":0},"$loki":176},{"_id":"5c3d65bd3525a329e0c12a0c","address":"1433 S Beckham Ave","location":{"type":"Point","coordinates":[-95.8860842910156,32.7005161280452]},"isApproved":true,"items":[],"keys":["Tex-Mex","Mexican"],"lastUpdated":1547527612679,"name":"Manny’s Tex-Mex","phone":"(903) 630-5163","price":"","reviewCount":4,"reviewScore":1.5,"meta":{"revision":0,"created":1547531155695,"version":0},"$loki":177},{"_id":"5c3d65bd3525a329e0c197a4","address":"2412 W Erwin St","location":{"type":"Point","coordinates":[-95.8690553187714,32.5832663162895]},"isApproved":true,"items":[],"keys":["Tex-Mex","Seafood","Mexican"],"lastUpdated":1547527612841,"name":"3 charritos Mexican Restaraunt","phone":"(903) 526-7385","price":"$$","reviewCount":8,"reviewScore":4,"meta":{"revision":0,"created":1547531155695,"version":0},"$loki":178},{"_id":"5c3d65bd3525a329e0c13896","address":"1530 N Peachtree Rd","location":{"type":"Point","coordinates":[-95.8670728693115,32.5837950629462]},"isApproved":true,"items":[],"keys":["Tex-Mex","Mexican"],"lastUpdated":1547527612698,"name":"Cafe Del Rio","phone":"(972) 329-9560","price":"$$","reviewCount":94,"reviewScore":3.5,"meta":{"revision":0,"created":1547531155695,"version":0},"$loki":179},{"_id":"5c3d65bd3525a329e0c139c1","address":"3324 Old Henderson Hwy","location":{"type":"Point","coordinates":[-95.8670728693115,32.5837950629462]},"isApproved":true,"items":[],"keys":["Latin American"],"lastUpdated":1547527612698,"name":"Villa Montez","phone":"(903) 592-9696","price":"$$","reviewCount":192,"reviewScore":4.5,"meta":{"revision":0,"created":1547531155695,"version":0},"$loki":180},{"_id":"5c3d65bd3525a329e0c04af2","address":"552 W Main St","location":{"type":"Point","coordinates":[-95.7205228507519,32.6738283021401]},"isApproved":true,"items":[],"keys":["Chinese","Donuts"],"lastUpdated":1547527612331,"name":"Master Donut & Chinese Food","phone":"(903) 330-4122","price":"","reviewCount":1,"reviewScore":5,"meta":{"revision":0,"created":1547531155695,"version":0},"$loki":181},{"_id":"5c3d65bd3525a329e0c08dae","address":"508 E Broad St","location":{"type":"Point","coordinates":[-95.7202953,32.6741258]},"isApproved":true,"items":[],"keys":["Chinese"],"lastUpdated":1547527612437,"name":"Panda Buffet","phone":"(903) 569-3959","price":"$$","reviewCount":8,"reviewScore":2.5,"meta":{"revision":0,"created":1547531155695,"version":0},"$loki":182},{"_id":"5c3d65bd3525a329e0c02546","address":"6288 N US Hwy 271","location":{"type":"Point","coordinates":[-95.7215192122885,32.6734342656193]},"isApproved":true,"items":[],"keys":["Fast Food","Burgers"],"lastUpdated":1547527612278,"name":"Whataburger","phone":"(903) 526-0490","price":"$$","reviewCount":8,"reviewScore":3.5,"meta":{"revision":0,"created":1547531155695,"version":0},"$loki":183},{"_id":"5c3d65bd3525a329e0c0f7ae","address":"404 State Highway 31 E","location":{"type":"Point","coordinates":[-95.709806419909,32.6741249161111]},"isApproved":true,"items":[],"keys":["Mexican"],"lastUpdated":1547527612600,"name":"San Pedro’s Mexican Restaurant","phone":"(903) 849-2800","price":"$","reviewCount":41,"reviewScore":3,"meta":{"revision":0,"created":1547531155695,"version":0},"$loki":184},{"_id":"5c3d65bd3525a329e0c0d9c1","address":"14889 Hwy 110 N","location":{"type":"Point","coordinates":[-95.7098459,32.6741228]},"isApproved":true,"items":[],"keys":["Coffee & Tea","Juice Bars & Smoothies","Wraps"],"lastUpdated":1547527612555,"name":"The Journey Coffee House","phone":"(903) 944-4869","price":"$","reviewCount":6,"reviewScore":5,"meta":{"revision":0,"created":1547531155695,"version":0},"$loki":185},{"_id":"5c3d65bd3525a329e0c192a2","address":"310 W Garland St","location":{"type":"Point","coordinates":[-95.7120268,32.6745938]},"isApproved":true,"items":[],"keys":["Mexican"],"lastUpdated":1547527612833,"name":"Peraltas Mexican Restaurant","phone":"(903) 962-3949","price":"$$","reviewCount":6,"reviewScore":4.5,"meta":{"revision":0,"created":1547531155695,"version":0},"$loki":186},{"_id":"5c3d65bd3525a329e0c07f48","address":"124 S Main St","location":{"type":"Point","coordinates":[-95.7098129,32.6721071]},"isApproved":true,"items":[],"keys":["Barbeque","Sandwiches"],"lastUpdated":1547527612418,"name":"The Feed Hut","phone":"(903) 530-0689","price":"$$","reviewCount":13,"reviewScore":4.5,"meta":{"revision":0,"created":1547531155695,"version":0},"$loki":187},{"_id":"5c3d65bd3525a329e0c0c399","address":"3979 University Blvd","location":{"type":"Point","coordinates":[-95.7052644,32.6747432]},"isApproved":true,"items":[],"keys":["Sushi Bars","Asian Fusion","Japanese"],"lastUpdated":1547527612523,"name":"Sushi Guy","phone":"(903) 747-3450","price":"","reviewCount":13,"reviewScore":4,"meta":{"revision":0,"created":1547531155695,"version":0},"$loki":188},{"_id":"5c3d65bd3525a329e0c0eb32","address":"304 W Broad St","location":{"type":"Point","coordinates":[-95.7080671851851,32.6743083276749]},"isApproved":true,"items":[],"keys":["Mexican","Buffets","Sports Bars"],"lastUpdated":1547527612581,"name":"Paredes Family Restaurant","phone":"(903) 569-2424","price":"$$","reviewCount":20,"reviewScore":3,"meta":{"revision":0,"created":1547531155695,"version":0},"$loki":189},{"_id":"5c3d65bd3525a329e0c0ed20","address":"","location":{"type":"Point","coordinates":[-95.6371839,32.5248605]},"isApproved":true,"items":[],"keys":["Diners"],"lastUpdated":1547527612582,"name":"Stoney’s Dinner Bell","phone":"(903) 963-5200","price":"$","reviewCount":2,"reviewScore":4.5,"meta":{"revision":0,"created":1547531155695,"version":0},"$loki":190},{"_id":"5c3d65bd3525a329e0c19994","address":"201 Greenville Ave","location":{"type":"Point","coordinates":[-95.6386055,32.5243091]},"isApproved":true,"items":[],"keys":["Barbeque"],"lastUpdated":1547527612843,"name":"Split Rail Pit Bar-B-Q","phone":"(903) 569-9750","price":"$","reviewCount":16,"reviewScore":3.5,"meta":{"revision":0,"created":1547531155695,"version":0},"$loki":191},{"_id":"5c3d65bd3525a329e0c0dc06","address":"3318 S Main St","location":{"type":"Point","coordinates":[-95.644818842411,32.5256663384592]},"isApproved":true,"items":[],"keys":["Mexican"],"lastUpdated":1547527612556,"name":"Juanita’s Express","phone":"(903) 882-6116","price":"","reviewCount":2,"reviewScore":3,"meta":{"revision":0,"created":1547531155695,"version":0},"$loki":192},{"_id":"5c3d65bd3525a329e0c0c63f","address":"110 West Erwin St","location":{"type":"Point","coordinates":[-95.6441483,32.5247671]},"isApproved":true,"items":[],"keys":["Cocktail Bars","Seafood"],"lastUpdated":1547527612525,"name":"Black Pearl","phone":"(903) 531-2415","price":"$$$","reviewCount":18,"reviewScore":4.5,"meta":{"revision":0,"created":1547531155695,"version":0},"$loki":193},{"_id":"5c3d65bd3525a329e0c04cfb","address":"322 E Se Loop 323","location":{"type":"Point","coordinates":[-95.64385,32.524918]},"isApproved":true,"items":[],"keys":["American (Traditional)","Southern","Comfort Food"],"lastUpdated":1547527612338,"name":"Cotton Patch Cafe","phone":"(903) 509-3900","price":"$$","reviewCount":36,"reviewScore":3,"meta":{"revision":0,"created":1547531155695,"version":0},"$loki":194},{"_id":"5c3d65bd3525a329e0c0ea53","address":"14706 County Rd 1134","location":{"type":"Point","coordinates":[-95.642806,32.523914]},"isApproved":true,"items":[],"keys":["American (New)","Bars","Music Venues"],"lastUpdated":1547527612581,"name":"Lago del Pino","phone":"(903) 561-5246","price":"$$","reviewCount":124,"reviewScore":2.5,"meta":{"revision":0,"created":1547531155695,"version":0},"$loki":195},{"_id":"5c3d65bd3525a329e0c0388e","address":"2121 E 5th St","location":{"type":"Point","coordinates":[-95.639835,32.506709]},"isApproved":true,"items":[],"keys":["Mexican"],"lastUpdated":1547527612304,"name":"Taqueria El Lugar 3","phone":"(903) 526-6118","price":"$","reviewCount":12,"reviewScore":3.5,"meta":{"revision":0,"created":1547531155695,"version":0},"$loki":196},{"_id":"5c3d65bd3525a329e0c00087","address":"607 S Main St","location":{"type":"Point","coordinates":[-95.6415443969403,32.5079932128439]},"isApproved":true,"items":[],"keys":["Mexican"],"lastUpdated":1547527612223,"name":"Peralta’s Authentic Mexican Restaurant","phone":"(903) 763-5020","price":"$","reviewCount":10,"reviewScore":3.5,"meta":{"revision":0,"created":1547531155695,"version":0},"$loki":197},{"_id":"5c3d65bd3525a329e0c06f0b","address":"678 W Southwest Loop 323","location":{"type":"Point","coordinates":[-95.6421357,32.5083951]},"isApproved":true,"items":[],"keys":["Mexican","Spanish","Tex-Mex"],"lastUpdated":1547527612388,"name":"El Mejicano","phone":"(903) 939-2818","price":"$","reviewCount":21,"reviewScore":3.5,"meta":{"revision":0,"created":1547531155695,"version":0},"$loki":198},{"_id":"5c3d65bd3525a329e0c097c8","address":"1125 S Oak St","location":{"type":"Point","coordinates":[-95.64255,32.5093915]},"isApproved":true,"items":[],"keys":["Seafood","American (Traditional)"],"lastUpdated":1547527612461,"name":"The Farmhouse Restaurant","phone":"(903) 963-7077","price":"$$","reviewCount":52,"reviewScore":4,"meta":{"revision":0,"created":1547531155695,"version":0},"$loki":199},{"_id":"5c3d65bd3525a329e0c00bb0","address":"4186 S Broadway Ave","location":{"type":"Point","coordinates":[-95.6428219377994,32.5111448811476]},"isApproved":true,"items":[],"keys":["Fast Food"],"lastUpdated":1547527612230,"name":"Raising Cane’s Chicken Fingers","phone":"(903) 581-3923","price":"$","reviewCount":27,"reviewScore":3,"meta":{"revision":0,"created":1547531155695,"version":0},"$loki":200},{"_id":"5c3d65bd3525a329e0c0b938","address":"8337 Fm 279","location":{"type":"Point","coordinates":[-95.7048529,32.4446215]},"isApproved":true,"items":[],"keys":["American (Traditional)"],"lastUpdated":1547527612507,"name":"The Shed Cafe","phone":"(903) 852-7791","price":"$$","reviewCount":56,"reviewScore":3,"meta":{"revision":0,"created":1547531155695,"version":0},"$loki":201},{"_id":"5c3d65bd3525a329e0c00620","address":"1839 Troup Hwy","location":{"type":"Point","coordinates":[-95.7038519158959,32.4459751367693]},"isApproved":true,"items":[],"keys":["Burgers"],"lastUpdated":1547527612227,"name":"Burger Warehouse","phone":"","price":"$$","reviewCount":38,"reviewScore":5,"meta":{"revision":0,"created":1547531155695,"version":0},"$loki":202},{"_id":"5c3d65bd3525a329e0c162b9","address":"204 S Elm St","location":{"type":"Point","coordinates":[-95.7038519158959,32.4459751367693]},"isApproved":true,"items":[],"keys":["Diners","Breakfast & Brunch"],"lastUpdated":1547527612763,"name":"Rowdy’s Diner","phone":"(903) 498-7000","price":"","reviewCount":3,"reviewScore":3.5,"meta":{"revision":0,"created":1547531155695,"version":0},"$loki":203},{"_id":"5c3d65bd3525a329e0c00e67","address":"12034 State Hwy 154 W","location":{"type":"Point","coordinates":[-95.7043889615643,32.4452449953329]},"isApproved":true,"items":[],"keys":["Mexican"],"lastUpdated":1547527612237,"name":"Tele’s Mexican Restaurant","phone":"(903) 725-3936","price":"$","reviewCount":12,"reviewScore":3.5,"meta":{"revision":0,"created":1547531155695,"version":0},"$loki":204},{"_id":"5c3d65bd3525a329e0c05012","address":"229 N Main St","location":{"type":"Point","coordinates":[-95.7043889615643,32.4452449953329]},"isApproved":true,"items":[],"keys":["Cajun/Creole","Seafood"],"lastUpdated":1547527612339,"name":"Salt Lickers","phone":"(903) 368-1375","price":"$$","reviewCount":6,"reviewScore":3.5,"meta":{"revision":0,"created":1547531155695,"version":0},"$loki":205},{"_id":"5c3d65bd3525a329e0c147db","address":"655 Sardis Rd","location":{"type":"Point","coordinates":[-95.7043889615643,32.4452449953329]},"isApproved":true,"items":[],"keys":["Cafes"],"lastUpdated":1547527612721,"name":"Sardis Point Cafe","phone":"(972) 923-2155","price":"$$","reviewCount":35,"reviewScore":4.5,"meta":{"revision":0,"created":1547531155695,"version":0},"$loki":206}],"idIndex":[1,2,3,4,5,6,7,8,9,10,11,12,13,14,15,16,17,18,19,20,21,22,23,24,25,26,27,28,29,30,31,32,33,34,35,36,37,38,39,40,41,42,43,44,45,46,47,48,49,50,51,52,53,54,55,56,57,58,59,60,61,62,63,64,65,66,67,68,69,70,71,72,73,74,75,76,77,78,79,80,81,82,83,84,85,86,87,88,89,90,91,92,93,94,95,96,97,98,99,100,101,102,103,104,105,106,107,108,109,110,111,112,113,114,115,116,117,118,119,120,121,122,123,124,125,126,127,128,129,130,131,132,133,134,135,136,137,138,139,140,141,142,143,144,145,146,147,148,149,150,151,152,153,154,155,156,157,158,159,160,161,162,163,164,165,166,167,168,169,170,171,172,173,174,175,176,177,178,179,180,181,182,183,184,185,186,187,188,189,190,191,192,193,194,195,196,197,198,199,200,201,202,203,204,205,206],"binaryIndices":{},"constraints":null,"uniqueNames":[],"transforms":{},"objType":"restaurants","dirty":true,"cachedIndex":null,"cachedBinaryIndex":null,"cachedData":null,"adaptiveBinaryIndices":true,"transactional":false,"cloneObjects":false,"cloneMethod":"parse-stringify","asyncListeners":false,"disableMeta":false,"disableChangesApi":true,"disableDeltaChangesApi":true,"autoupdate":false,"serializableIndices":true,"ttl":null,"maxId":206,"DynamicViews":[],"events":{"insert":[],"update":[],"pre-insert":[],"pre-update":[],"close":[],"flushbuffer":[],"error":[],"delete":[null],"warning":[null]},"changes":[]}],"databaseVersion":1.5,"engineVersion":1.5,"autosave":false,"autosaveInterval":5000,"autosaveHandle":null,"throttledSaves":true,"options":{"serializationMethod":"normal","destructureDelimiter":"$<\n"},"persistenceMethod":"fs","persistenceAdapter":null,"verbose":false,"events":{"init":[null],"loaded":[],"flushChanges":[],"close":[],"changes":[],"warning":[]},"ENV":"NODEJS"}