{"filename":"-96-32.75","collections":[{"name":"restaurants","data":[{"_id":"5c3d65bd3525a329e0c0cd79","address":"3407 N Fourth St","location":{"type":"Point","coordinates":[-95.854292167454,32.5796376738705]},"isApproved":true,"items":[],"keys":["Pizza","Italian","Sports Bars"],"lastUpdated":1547527612534,"name":"Rotolo’s Pizzeria","phone":"(903) 212-7448","price":"$$","reviewCount":38,"reviewScore":3.5,"meta":{"revision":0,"created":1547531153518,"version":0},"$loki":1},{"_id":"5c3d65bd3525a329e0c192c9","address":"501 S Glenwood Blvd","location":{"type":"Point","coordinates":[-95.8563789093561,32.5799770767885]},"isApproved":true,"items":[],"keys":["Mexican","Barbeque"],"lastUpdated":1547527612833,"name":"Bbq Hernandez","phone":"(903) 593-3973","price":"","reviewCount":5,"reviewScore":5,"meta":{"revision":0,"created":1547531153518,"version":0},"$loki":2},{"_id":"5c3d65bd3525a329e0c1081c","address":"1413 N Wood","location":{"type":"Point","coordinates":[-95.855075,32.577674]},"isApproved":true,"items":[],"keys":["Pizza","Italian"],"lastUpdated":1547527612619,"name":"Pizza Hut","phone":"(903) 843-5589","price":"","reviewCount":7,"reviewScore":1.5,"meta":{"revision":0,"created":1547531153518,"version":0},"$loki":3},{"_id":"5c3d65bd3525a329e0c11f4c","address":"403 E Garland St","location":{"type":"Point","coordinates":[-95.855968,32.576322]},"isApproved":true,"items":[],"keys":["Pizza","Salad","Pasta Shops"],"lastUpdated":1547527612662,"name":"Milano’s Pizza","phone":"(903) 962-6060","price":"","reviewCount":3,"reviewScore":3.5,"meta":{"revision":0,"created":1547531153518,"version":0},"$loki":4},{"_id":"5c3d65bd3525a329e0c01c86","address":"631 S Beckham Ave","location":{"type":"Point","coordinates":[-95.855661,32.575383]},"isApproved":true,"items":[],"keys":["Pizza"],"lastUpdated":1547527612259,"name":"Papa John’s Pizza","phone":"(903) 596-7272","price":"","reviewCount":6,"reviewScore":2,"meta":{"revision":0,"created":1547531153518,"version":0},"$loki":5},{"_id":"5c3d65bd3525a329e0c00888","address":"2401 Gilmer Rd","location":{"type":"Point","coordinates":[-95.856077959788,32.5753933890344]},"isApproved":true,"items":[],"keys":["Fast Food","Burgers"],"lastUpdated":1547527612228,"name":"Whataburger","phone":"(903) 759-8858","price":"","reviewCount":5,"reviewScore":3,"meta":{"revision":0,"created":1547531153518,"version":0},"$loki":6},{"_id":"5c3d65bd3525a329e0c162e3","address":"802 N Main St","location":{"type":"Point","coordinates":[-95.856303157714,32.574073712923]},"isApproved":true,"items":[],"keys":["Chicken Wings"],"lastUpdated":1547527612763,"name":"Pop’s Honey Fried Chicken","phone":"(903) 882-9961","price":"$","reviewCount":6,"reviewScore":3,"meta":{"revision":0,"created":1547531153518,"version":0},"$loki":7},{"_id":"5c3d65bd3525a329e0c1900f","address":"1700 S Se Loop 323","location":{"type":"Point","coordinates":[-95.8555374145508,32.5746879577637]},"isApproved":true,"items":[],"keys":["Chinese"],"lastUpdated":1547527612832,"name":"Poch’s Rice Cafe","phone":"(903) 630-7695","price":"$","reviewCount":53,"reviewScore":4.5,"meta":{"revision":0,"created":1547531153518,"version":0},"$loki":8},{"_id":"5c3d65bd3525a329e0c0cc0f","address":"17290 I-20","location":{"type":"Point","coordinates":[-95.854845,32.575836]},"isApproved":true,"items":[],"keys":["Burgers","Fast Food"],"lastUpdated":1547527612533,"name":"Whataburger","phone":"(903) 567-2952","price":"$","reviewCount":12,"reviewScore":4,"meta":{"revision":0,"created":1547531153518,"version":0},"$loki":9},{"_id":"5c3d65bd3525a329e0c0a2f1","address":"2034 E SE Loop 323","location":{"type":"Point","coordinates":[-95.8546661585569,32.5762466031792]},"isApproved":true,"items":[],"keys":["Fast Food","Burgers","Coffee & Tea"],"lastUpdated":1547527612474,"name":"McDonald’s","phone":"(903) 593-7951","price":"$","reviewCount":8,"reviewScore":1.5,"meta":{"revision":0,"created":1547531153518,"version":0},"$loki":10},{"_id":"5c3d65bd3525a329e0c0fa95","address":"220 S Sw Loop 323","location":{"type":"Point","coordinates":[-95.852528506357,32.5554080811056]},"isApproved":true,"items":[],"keys":["Hot Dogs","Food Stands"],"lastUpdated":1547527612601,"name":"Quick Dawgs of Texas","phone":"(903) 944-7960","price":"","reviewCount":1,"reviewScore":3,"meta":{"revision":0,"created":1547531153518,"version":0},"$loki":11},{"_id":"5c3d65bd3525a329e0c1af42","address":"3511 S Main St","location":{"type":"Point","coordinates":[-95.853642,32.55404]},"isApproved":true,"items":[],"keys":["Coffee & Tea","Burgers","Fast Food"],"lastUpdated":1547527612876,"name":"McDonald’s","phone":"(903) 882-5821","price":"","reviewCount":6,"reviewScore":3,"meta":{"revision":0,"created":1547531153518,"version":0},"$loki":12},{"_id":"5c3d65bd3525a329e0c17fe9","address":"1327 E Front St","location":{"type":"Point","coordinates":[-95.8490731,32.5495546]},"isApproved":true,"items":[],"keys":["Mexican"],"lastUpdated":1547527612802,"name":"Margarita’s Mexican Restaurant","phone":"(903) 593-5954","price":"$$","reviewCount":29,"reviewScore":3.5,"meta":{"revision":0,"created":1547531153518,"version":0},"$loki":13},{"_id":"5c3d65bd3525a329e0c14d61","address":"630 W Highway 243","location":{"type":"Point","coordinates":[-95.8508705,32.5456405]},"isApproved":true,"items":[],"keys":["Barbeque"],"lastUpdated":1547527612729,"name":"Backwoods Bar-B-Que","phone":"(903) 567-6253","price":"$","reviewCount":14,"reviewScore":3.5,"meta":{"revision":0,"created":1547531153518,"version":0},"$loki":14},{"_id":"5c3d65bd3525a329e0c0fd39","address":"400 E Hwy 243","location":{"type":"Point","coordinates":[-95.8594917521079,32.5458166678665]},"isApproved":true,"items":[],"keys":["Buffets"],"lastUpdated":1547527612608,"name":"CHEN’S BUFFET","phone":"(903) 567-6888","price":"$","reviewCount":10,"reviewScore":2.5,"meta":{"revision":0,"created":1547531153518,"version":0},"$loki":15},{"_id":"5c3d65bd3525a329e0c05886","address":"11980 State Hwy 64 W","location":{"type":"Point","coordinates":[-95.8659707331921,32.5442933740086]},"isApproved":true,"items":[],"keys":["Mexican"],"lastUpdated":1547527612354,"name":"La Plazita","phone":"(903) 526-4193","price":"$","reviewCount":45,"reviewScore":4,"meta":{"revision":0,"created":1547531153518,"version":0},"$loki":16},{"_id":"5c3d65bd3525a329e0c13822","address":"311 W Broad St","location":{"type":"Point","coordinates":[-95.8632073178887,32.5417956496025]},"isApproved":true,"items":[],"keys":["Fast Food","Burgers","Ice Cream & Frozen Yogurt"],"lastUpdated":1547527612697,"name":"Sonic Drive-In","phone":"(903) 569-5506","price":"$","reviewCount":1,"reviewScore":3,"meta":{"revision":0,"created":1547531153518,"version":0},"$loki":17},{"_id":"5c3d65bd3525a329e0c13470","address":"1860 N Trade Days Blvd","location":{"type":"Point","coordinates":[-95.8620169717053,32.5402077114897]},"isApproved":true,"items":[],"keys":["Mexican"],"lastUpdated":1547527612690,"name":"Street Taco Shack","phone":"(903) 287-5029","price":"$","reviewCount":17,"reviewScore":4,"meta":{"revision":0,"created":1547531153518,"version":0},"$loki":18},{"_id":"5c3d65bd3525a329e0c042aa","address":"488 W Main St","location":{"type":"Point","coordinates":[-95.8766279,32.5435668]},"isApproved":true,"items":[],"keys":["Italian","Pizza"],"lastUpdated":1547527612321,"name":"Milano’s Pizza","phone":"(903) 963-3430","price":"","reviewCount":5,"reviewScore":3.5,"meta":{"revision":0,"created":1547531153518,"version":0},"$loki":19},{"_id":"5c3d65bd3525a329e0c16548","address":"14112 State Hwy 31 E","location":{"type":"Point","coordinates":[-95.8763181,32.5437208]},"isApproved":true,"items":[],"keys":["Mexican"],"lastUpdated":1547527612764,"name":"El Presidente","phone":"(903) 852-6247","price":"","reviewCount":5,"reviewScore":3.5,"meta":{"revision":0,"created":1547531153518,"version":0},"$loki":20},{"_id":"5c3d65bd3525a329e0c0c4fb","address":"636 Sh 31 St","location":{"type":"Point","coordinates":[-95.8705368041992,32.5425109863281]},"isApproved":true,"items":[],"keys":["Chinese"],"lastUpdated":1547527612524,"name":"China Chef","phone":"(903) 849-2308","price":"$","reviewCount":16,"reviewScore":4,"meta":{"revision":0,"created":1547531153518,"version":0},"$loki":21},{"_id":"5c3d65bd3525a329e0c16984","address":"206 State Hwy 31","location":{"type":"Point","coordinates":[-95.8696693371094,32.5441740458276]},"isApproved":true,"items":[],"keys":["Southern"],"lastUpdated":1547527612772,"name":"Nettie’s Southern Kitchen","phone":"(903) 849-6388","price":"","reviewCount":8,"reviewScore":4,"meta":{"revision":0,"created":1547531153518,"version":0},"$loki":22},{"_id":"5c3d65bd3525a329e0c0da6f","address":"104 W Erwin St","location":{"type":"Point","coordinates":[-95.8621136,32.5566075]},"isApproved":true,"items":[],"keys":["American (New)"],"lastUpdated":1547527612556,"name":"Rick’s On the Square","phone":"(903) 531-2415","price":"$$","reviewCount":80,"reviewScore":4,"meta":{"revision":0,"created":1547531153518,"version":0},"$loki":23},{"_id":"5c3d65bd3525a329e0c0811e","address":"1ST Monday Ln","location":{"type":"Point","coordinates":[-95.8624723631876,32.5569120309234]},"isApproved":true,"items":[],"keys":["American (New)","Burgers","Sandwiches"],"lastUpdated":1547527612419,"name":"The Baked Potatoe","phone":"(903) 245-1384","price":"","reviewCount":2,"reviewScore":5,"meta":{"revision":0,"created":1547531153518,"version":0},"$loki":24},{"_id":"5c3d65bd3525a329e0c0815f","address":"4405 Gilmer Rd","location":{"type":"Point","coordinates":[-95.8632996,32.5565244]},"isApproved":true,"items":[],"keys":["Salad","Sandwiches","Indian"],"lastUpdated":1547527612419,"name":"Chill’um Grill & More","phone":"(430) 625-7007","price":"","reviewCount":4,"reviewScore":3,"meta":{"revision":0,"created":1547531153518,"version":0},"$loki":25},{"_id":"5c3d65bd3525a329e0c1876c","address":"Hwy 19 First Monday Trades Day","location":{"type":"Point","coordinates":[-95.8632996,32.5565244]},"isApproved":true,"items":[],"keys":["Food Stands"],"lastUpdated":1547527612821,"name":"Taylor’s Homemade Ice Cream","phone":"","price":"","reviewCount":1,"reviewScore":5,"meta":{"revision":0,"created":1547531153518,"version":0},"$loki":26},{"_id":"5c3d65bd3525a329e0c16100","address":"100 W Dallas St","location":{"type":"Point","coordinates":[-95.8635963062136,32.5567776298573]},"isApproved":true,"items":[],"keys":["Burgers","American (Traditional)","Sandwiches"],"lastUpdated":1547527612762,"name":"Buttermilk’s","phone":"(903) 567-3287","price":"$$","reviewCount":143,"reviewScore":4.5,"meta":{"revision":0,"created":1547531153518,"version":0},"$loki":27},{"_id":"5c3d65bd3525a329e0c0a131","address":"3408 S Main St","location":{"type":"Point","coordinates":[-95.862407,32.5560606]},"isApproved":true,"items":[],"keys":["Breakfast & Brunch","American (Traditional)","Burgers"],"lastUpdated":1547527612473,"name":"IHOP","phone":"(903) 882-3436","price":"$","reviewCount":14,"reviewScore":3,"meta":{"revision":0,"created":1547531153518,"version":0},"$loki":28},{"_id":"5c3d65bd3525a329e0c024e3","address":"305 E Dallas St","location":{"type":"Point","coordinates":[-95.8618917,32.5561285]},"isApproved":true,"items":[],"keys":["Mexican"],"lastUpdated":1547527612277,"name":"Robles Mexican Restaurant","phone":"(903) 567-3533","price":"$$","reviewCount":19,"reviewScore":3,"meta":{"revision":0,"created":1547531153518,"version":0},"$loki":29},{"_id":"5c3d65bd3525a329e0c10532","address":"426 E Southeast Loop 323","location":{"type":"Point","coordinates":[-95.8607245,32.5559197]},"isApproved":true,"items":[],"keys":["Breakfast & Brunch","Tacos"],"lastUpdated":1547527612618,"name":"Torchy’s Tacos","phone":"(903) 581-3716","price":"$$","reviewCount":127,"reviewScore":3.5,"meta":{"revision":0,"created":1547531153518,"version":0},"$loki":30},{"_id":"5c3d65bd3525a329e0c0a503","address":"N Trade Days Blvd","location":{"type":"Point","coordinates":[-95.8618568944275,32.5602448752269]},"isApproved":true,"items":[],"keys":["Creperies","American (New)","Cafes"],"lastUpdated":1547527612480,"name":"Monkey Crepe Cafe","phone":"(214) 636-7859","price":"","reviewCount":4,"reviewScore":3,"meta":{"revision":0,"created":1547531153518,"version":0},"$loki":31},{"_id":"5c3d65bd3525a329e0c08ca3","address":"530 S Southwest Loop 323","location":{"type":"Point","coordinates":[-95.8567857342424,32.5780400869379]},"isApproved":true,"items":[],"keys":["Hot Dogs","Burgers"],"lastUpdated":1547527612436,"name":"Burger King","phone":"(903) 595-4687","price":"","reviewCount":2,"reviewScore":2.5,"meta":{"revision":0,"created":1547531153518,"version":0},"$loki":32},{"_id":"5c3d65bd3525a329e0c14d18","address":"1815 W Erwin St","location":{"type":"Point","coordinates":[-95.87174,32.569723]},"isApproved":true,"items":[],"keys":["Southern","American (Traditional)","Soul Food"],"lastUpdated":1547527612729,"name":"Hattie Mae’s Sum 2 Eat","phone":"","price":"","reviewCount":5,"reviewScore":4.5,"meta":{"revision":0,"created":1547531153518,"version":0},"$loki":33},{"_id":"5c3d65bd3525a329e0c07d09","address":"539 E Interstate 30","location":{"type":"Point","coordinates":[-96.3091963,32.5898309]},"isApproved":true,"items":[],"keys":["Vietnamese"],"lastUpdated":1547527612411,"name":"Healthy Bánh Mì","phone":"(469) 314-1294","price":"$","reviewCount":51,"reviewScore":5,"meta":{"revision":0,"created":1547531153518,"version":0},"$loki":34},{"_id":"5c3d65bd3525a329e0c03071","address":"1706 N Hwy 175","location":{"type":"Point","coordinates":[-96.3102108283244,32.5891091280664]},"isApproved":true,"items":[],"keys":["Mexican"],"lastUpdated":1547527612295,"name":"Texas Pupuseria Taqueria","phone":"(214) 506-4030","price":"","reviewCount":6,"reviewScore":4.5,"meta":{"revision":0,"created":1547531153518,"version":0},"$loki":35},{"_id":"5c3d65bd3525a329e0c08354","address":"807 S Washington St","location":{"type":"Point","coordinates":[-96.3088803,32.5838922]},"isApproved":true,"items":[],"keys":["Burgers","Sandwiches"],"lastUpdated":1547527612420,"name":"Kaufman Burgers","phone":"(469) 770-1543","price":"","reviewCount":5,"reviewScore":4,"meta":{"revision":0,"created":1547531153518,"version":0},"$loki":36},{"_id":"5c3d65bd3525a329e0c0c968","address":"401 S Washington","location":{"type":"Point","coordinates":[-96.3089322,32.5870638]},"isApproved":true,"items":[],"keys":["Mexican","Breakfast & Brunch"],"lastUpdated":1547527612526,"name":"Little Mexico","phone":"(972) 932-2567","price":"$","reviewCount":12,"reviewScore":4,"meta":{"revision":0,"created":1547531153518,"version":0},"$loki":37},{"_id":"5c3d65bd3525a329e0c135d5","address":"300 E Cherry St","location":{"type":"Point","coordinates":[-96.3070115,32.5880334]},"isApproved":true,"items":[],"keys":["Bakeries","Cafes","Coffee & Tea"],"lastUpdated":1547527612696,"name":"The Sweet Dish Bakery & Cafe","phone":"(972) 932-2686","price":"$","reviewCount":9,"reviewScore":4.5,"meta":{"revision":0,"created":1547531153518,"version":0},"$loki":38},{"_id":"5c3d65bd3525a329e0c09263","address":"5321 E Mockingbird Ln","location":{"type":"Point","coordinates":[-96.3028796,32.5892744]},"isApproved":true,"items":[],"keys":["Poke","Pan Asian","Hawaiian"],"lastUpdated":1547527612452,"name":"Poke O","phone":"(214) 964-0800","price":"","reviewCount":15,"reviewScore":5,"meta":{"revision":0,"created":1547531153518,"version":0},"$loki":39},{"_id":"5c3d65bd3525a329e0c183ad","address":"1601 Elm St","location":{"type":"Point","coordinates":[-96.295068,32.588217]},"isApproved":true,"items":[],"keys":["Gluten-Free","Vegan"],"lastUpdated":1547527612814,"name":"Gather Kitchen","phone":"(469) 930-9015","price":"$$","reviewCount":82,"reviewScore":4.5,"meta":{"revision":0,"created":1547531153518,"version":0},"$loki":40},{"_id":"5c3d65bd3525a329e0c0f29f","address":"9665 N Central Expy","location":{"type":"Point","coordinates":[-96.3053017414724,32.571308031031]},"isApproved":true,"items":[],"keys":["Greek"],"lastUpdated":1547527612591,"name":"Little Greek Fresh Grill","phone":"(214) 696-1234","price":"$$","reviewCount":137,"reviewScore":4.5,"meta":{"revision":0,"created":1547531153518,"version":0},"$loki":41},{"_id":"5c3d65bd3525a329e0c00dbd","address":"2040 W Northwest Hwy","location":{"type":"Point","coordinates":[-96.3052500568666,32.5712337834947]},"isApproved":true,"items":[],"keys":["Tex-Mex"],"lastUpdated":1547527612237,"name":"Maza Tex-Mex","phone":"(469) 620-6490","price":"","reviewCount":4,"reviewScore":5,"meta":{"revision":0,"created":1547531153518,"version":0},"$loki":42},{"_id":"5c3d65bd3525a329e0c0be0f","address":"7015 Holly Hill Dr","location":{"type":"Point","coordinates":[-96.3046181201935,32.5708531499622]},"isApproved":true,"items":[],"keys":["Salvadoran"],"lastUpdated":1547527612515,"name":"Pupuseria Yoselyn","phone":"(214) 622-2706","price":"","reviewCount":3,"reviewScore":5,"meta":{"revision":0,"created":1547531153518,"version":0},"$loki":43},{"_id":"5c3d65bd3525a329e0c16678","address":"3600 Gus Thomasson Rd","location":{"type":"Point","coordinates":[-96.3086727,32.578579]},"isApproved":true,"items":[],"keys":["Mexican"],"lastUpdated":1547527612765,"name":"Pepper’s Cafe","phone":"(972) 682-4582","price":"$","reviewCount":49,"reviewScore":4,"meta":{"revision":0,"created":1547531153518,"version":0},"$loki":44},{"_id":"5c3d65bd3525a329e0c0ab13","address":"1301 S Washington St","location":{"type":"Point","coordinates":[-96.308706713477,32.580654919825]},"isApproved":true,"items":[],"keys":["Mexican","Tex-Mex"],"lastUpdated":1547527612489,"name":"Jalisco’s Mexican Grill Restaurant","phone":"(972) 932-3033","price":"$$","reviewCount":34,"reviewScore":3.5,"meta":{"revision":0,"created":1547531153518,"version":0},"$loki":45},{"_id":"5c3d65bd3525a329e0c19403","address":"1201 Oak Lawn Ave","location":{"type":"Point","coordinates":[-96.3093579,32.5794466]},"isApproved":true,"items":[],"keys":["Mexican","Tex-Mex","Bars"],"lastUpdated":1547527612840,"name":"El Bolero","phone":"(214) 741-1986","price":"$$","reviewCount":308,"reviewScore":3.5,"meta":{"revision":0,"created":1547531153518,"version":0},"$loki":46},{"_id":"5c3d65bd3525a329e0c15dfa","address":"3600 Gus Thomasson Road Suit 100","location":{"type":"Point","coordinates":[-96.3085119,32.571458]},"isApproved":true,"items":[],"keys":["Italian","Sandwiches"],"lastUpdated":1547527612755,"name":"Sapori Di Roma","phone":"(972) 613-8300","price":"","reviewCount":1,"reviewScore":5,"meta":{"revision":0,"created":1547531153518,"version":0},"$loki":47},{"_id":"5c3d65bd3525a329e0c1a47c","address":"1200 E Davis St","location":{"type":"Point","coordinates":[-96.3127634,32.5751399]},"isApproved":true,"items":[],"keys":["Chicken Wings","Sports Bars","Burgers"],"lastUpdated":1547527612859,"name":"BoomerJack’s Grill & Bar - Mesquite","phone":"(972) 288-9464","price":"$$","reviewCount":39,"reviewScore":3,"meta":{"revision":0,"created":1547531153518,"version":0},"$loki":48},{"_id":"5c3d65bd3525a329e0c04957","address":"950 S Carrier Pkwy","location":{"type":"Point","coordinates":[-96.325575,32.716663]},"isApproved":true,"items":[],"keys":["Burgers"],"lastUpdated":1547527612330,"name":"Hagan’s Handcrafted","phone":"","price":"","reviewCount":12,"reviewScore":4.5,"meta":{"revision":0,"created":1547531153518,"version":0},"$loki":49},{"_id":"5c3d65bd3525a329e0c0cb3e","address":"641 Powell Ln","location":{"type":"Point","coordinates":[-96.324528,32.717526]},"isApproved":true,"items":[],"keys":["Burgers","Beer Bar","Cocktail Bars"],"lastUpdated":1547527612533,"name":"Rodeo Goat","phone":"(469) 409-4628","price":"","reviewCount":68,"reviewScore":4,"meta":{"revision":0,"created":1547531153518,"version":0},"$loki":50},{"_id":"5c3d65bd3525a329e0c061d4","address":"101 West Fate Main Pl","location":{"type":"Point","coordinates":[-96.3158161,32.7232594]},"isApproved":true,"items":[],"keys":["Desserts","Cafes","Specialty Food"],"lastUpdated":1547527612369,"name":"Café Chamoy Mexican Snacks and Refreshments","phone":"(469) 264-7942","price":"$$","reviewCount":19,"reviewScore":5,"meta":{"revision":0,"created":1547531153518,"version":0},"$loki":51},{"_id":"5c3d65bd3525a329e0c02f14","address":"3309 S Malcolm X Blvd","location":{"type":"Point","coordinates":[-96.3042084,32.7402579]},"isApproved":true,"items":[],"keys":["Seafood","Cajun/Creole"],"lastUpdated":1547527612295,"name":"Aunt Irene’s Kitchen","phone":"(469) 899-7927","price":"$$","reviewCount":144,"reviewScore":4,"meta":{"revision":0,"created":1547531153518,"version":0},"$loki":52},{"_id":"5c3d65bd3525a329e0c1b5cf","address":"4906 Maple Ave","location":{"type":"Point","coordinates":[-96.3003873,32.7379019]},"isApproved":true,"items":[],"keys":["Ramen"],"lastUpdated":1547527612886,"name":"Ichiro Ramen Shop","phone":"(214) 643-6602","price":"$$","reviewCount":343,"reviewScore":4,"meta":{"revision":0,"created":1547531153518,"version":0},"$loki":53},{"_id":"5c3d65bd3525a329e0c19bd9","address":"1420 W Moore Ave","location":{"type":"Point","coordinates":[-96.2998312017846,32.7385096172632]},"isApproved":true,"items":[],"keys":["Burgers"],"lastUpdated":1547527612850,"name":"Jungle Burger","phone":"(972) 563-4117","price":"$","reviewCount":59,"reviewScore":4,"meta":{"revision":0,"created":1547531153518,"version":0},"$loki":54},{"_id":"5c3d65bd3525a329e0c04f77","address":"2927 Ridge Rd","location":{"type":"Point","coordinates":[-96.2988966,32.7387734]},"isApproved":true,"items":[],"keys":["Sushi Bars","Japanese","Thai"],"lastUpdated":1547527612339,"name":"Basil Cafe","phone":"(972) 722-2888","price":"$$","reviewCount":161,"reviewScore":4.5,"meta":{"revision":0,"created":1547531153518,"version":0},"$loki":55},{"_id":"5c3d65bd3525a329e0c04166","address":"813 W Moore Ave","location":{"type":"Point","coordinates":[-96.2880984,32.7373671]},"isApproved":true,"items":[],"keys":["Mexican","Sports Bars"],"lastUpdated":1547527612320,"name":"La Torta Sports Bar","phone":"(972) 551-0313","price":"$","reviewCount":7,"reviewScore":4.5,"meta":{"revision":0,"created":1547531153518,"version":0},"$loki":56},{"_id":"5c3d65bd3525a329e0c042f5","address":"1515 E Kearney St","location":{"type":"Point","coordinates":[-96.2871851,32.7373342]},"isApproved":true,"items":[],"keys":["Puerto Rican","Bakeries"],"lastUpdated":1547527612321,"name":"Sabores Boricuas","phone":"(214) 782-9118","price":"","reviewCount":2,"reviewScore":5,"meta":{"revision":0,"created":1547531153518,"version":0},"$loki":57},{"_id":"5c3d65bd3525a329e0c03675","address":"4603 Interstate 30 W","location":{"type":"Point","coordinates":[-96.2824469804764,32.7373415918544]},"isApproved":true,"items":[],"keys":["Seafood"],"lastUpdated":1547527612303,"name":"Ciro’s Seafood","phone":"(903) 527-0333","price":"$$","reviewCount":38,"reviewScore":4.5,"meta":{"revision":0,"created":1547531153518,"version":0},"$loki":58},{"_id":"5c3d65bd3525a329e0c0a21c","address":"3220 Gus Thomasson Rd","location":{"type":"Point","coordinates":[-96.2802807,32.7105083]},"isApproved":true,"items":[],"keys":["Chicken Wings"],"lastUpdated":1547527612473,"name":"Phat Wings","phone":"(972) 279-1368","price":"$","reviewCount":233,"reviewScore":4.5,"meta":{"revision":0,"created":1547531153518,"version":0},"$loki":59},{"_id":"5c3d65bd3525a329e0c11395","address":"4810 Maple Ave","location":{"type":"Point","coordinates":[-96.282279,32.7033096]},"isApproved":true,"items":[],"keys":["Burgers"],"lastUpdated":1547527612642,"name":"Maple and Motor","phone":"(214) 522-4400","price":"$","reviewCount":1289,"reviewScore":4,"meta":{"revision":0,"created":1547531153518,"version":0},"$loki":60},{"_id":"5c3d65bd3525a329e0c13a3f","address":"3125 Grand Ave","location":{"type":"Point","coordinates":[-96.274673268199,32.6980353654058]},"isApproved":true,"items":[],"keys":["Chicken Wings","Cheesesteaks","Sandwiches"],"lastUpdated":1547527612698,"name":"Southside Steaks & Cakes","phone":"(469) 399-7644","price":"$","reviewCount":22,"reviewScore":4.5,"meta":{"revision":0,"created":1547531153518,"version":0},"$loki":61},{"_id":"5c3d65bd3525a329e0c07b5c","address":"920 S Harwood St","location":{"type":"Point","coordinates":[-96.2791317,32.7019713]},"isApproved":true,"items":[],"keys":["Belgian","Food Stands","Waffles"],"lastUpdated":1547527612410,"name":"i see waffles","phone":"","price":"","reviewCount":1,"reviewScore":5,"meta":{"revision":0,"created":1547531153518,"version":0},"$loki":62},{"_id":"5c3d65bd3525a329e0c1866a","address":"1317 Us 175 Frontage Rd","location":{"type":"Point","coordinates":[-96.2696683,32.7357513]},"isApproved":true,"items":[],"keys":["Barbeque","American (Traditional)"],"lastUpdated":1547527612815,"name":"City Limits Barbecue","phone":"(469) 909-0555","price":"$$","reviewCount":16,"reviewScore":4,"meta":{"revision":0,"created":1547531153518,"version":0},"$loki":63},{"_id":"5c3d65bd3525a329e0c055f6","address":"1160 Peavy Rd","location":{"type":"Point","coordinates":[-96.2731546,32.7361036]},"isApproved":true,"items":[],"keys":["Seafood"],"lastUpdated":1547527612348,"name":"20 Feet Seafood Joint","phone":"(972) 707-7442","price":"$$","reviewCount":487,"reviewScore":4,"meta":{"revision":0,"created":1547531153518,"version":0},"$loki":64},{"_id":"5c3d65bd3525a329e0c07a5f","address":"1900 14th St","location":{"type":"Point","coordinates":[-96.2744337229648,32.7358863562445]},"isApproved":true,"items":[],"keys":["Donuts","Breakfast & Brunch"],"lastUpdated":1547527612409,"name":"14th Street Donut","phone":"(469) 975-6504","price":"","reviewCount":2,"reviewScore":5,"meta":{"revision":0,"created":1547531153518,"version":0},"$loki":65},{"_id":"5c3d65bd3525a329e0c00785","address":"101 S Fannin St","location":{"type":"Point","coordinates":[-96.276517,32.736067]},"isApproved":true,"items":[],"keys":["Seafood","Cajun/Creole","Bars"],"lastUpdated":1547527612228,"name":"Pier 101","phone":"(469) 769-1108","price":"$$","reviewCount":166,"reviewScore":4,"meta":{"revision":0,"created":1547531153518,"version":0},"$loki":66},{"_id":"5c3d65bd3525a329e0c158a0","address":"300 W Moore Ave","location":{"type":"Point","coordinates":[-96.2793699,32.7369127]},"isApproved":true,"items":[],"keys":["Mexican","Breakfast & Brunch","American (New)"],"lastUpdated":1547527612747,"name":"Taqueria Dos Aces","phone":"(972) 524-4446","price":"$$","reviewCount":49,"reviewScore":3.5,"meta":{"revision":0,"created":1547531153518,"version":0},"$loki":67},{"_id":"5c3d65bd3525a329e0c157ee","address":"411 Hwy 78","location":{"type":"Point","coordinates":[-96.2759978,32.7402447]},"isApproved":true,"items":[],"keys":["Burgers","Salad","Tacos"],"lastUpdated":1547527612747,"name":"Burgers & Chile Loco","phone":"(214) 952-1129","price":"$","reviewCount":25,"reviewScore":4.5,"meta":{"revision":0,"created":1547531153518,"version":0},"$loki":68},{"_id":"5c3d65bd3525a329e0c09e1d","address":"705 E Moore Ave","location":{"type":"Point","coordinates":[-96.2691702,32.7356877]},"isApproved":true,"items":[],"keys":["Barbeque"],"lastUpdated":1547527612471,"name":"Hickory Roots BBQ","phone":"(972) 563-3375","price":"$$","reviewCount":26,"reviewScore":4,"meta":{"revision":0,"created":1547531153518,"version":0},"$loki":69},{"_id":"5c3d65bd3525a329e0c0a3da","address":"801 E Moore Ave","location":{"type":"Point","coordinates":[-96.2677384,32.7354737]},"isApproved":true,"items":[],"keys":["American (Traditional)","Breakfast & Brunch","Cafes"],"lastUpdated":1547527612480,"name":"The Terrell Cafe","phone":"(972) 524-5401","price":"$","reviewCount":33,"reviewScore":4,"meta":{"revision":0,"created":1547531153518,"version":0},"$loki":70},{"_id":"5c3d65bd3525a329e0c0c43d","address":"803 Woodbridge Pkwy","location":{"type":"Point","coordinates":[-96.2673333727793,32.734699538864]},"isApproved":true,"items":[],"keys":["American (Traditional)"],"lastUpdated":1547527612524,"name":"The 544","phone":"(972) 429-3125","price":"$","reviewCount":1,"reviewScore":5,"meta":{"revision":0,"created":1547531153518,"version":0},"$loki":71},{"_id":"5c3d65bd3525a329e0c0f4b8","address":"904 E Davis St","location":{"type":"Point","coordinates":[-96.352088,32.821123]},"isApproved":true,"items":[],"keys":["Greek","Mediterranean","Cafes"],"lastUpdated":1547527612592,"name":"Yia Yia’s House of Gyros Mesquite","phone":"(469) 802-9797","price":"$$","reviewCount":434,"reviewScore":5,"meta":{"revision":0,"created":1547531153518,"version":0},"$loki":72},{"_id":"5c3d65bd3525a329e0c0c72f","address":"909 Gross Rd","location":{"type":"Point","coordinates":[-96.260503,32.917799]},"isApproved":true,"items":[],"keys":["Salvadoran"],"lastUpdated":1547527612525,"name":"Rosis Pupuseria","phone":"(972) 285-0770","price":"$","reviewCount":44,"reviewScore":4,"meta":{"revision":0,"created":1547531153518,"version":0},"$loki":73},{"_id":"5c3d65bd3525a329e0c0d152","address":"508 Interstate Hwy 30","location":{"type":"Point","coordinates":[-96.2581533103597,32.916529380767]},"isApproved":true,"items":[],"keys":["Hot Dogs","Salad","Wraps"],"lastUpdated":1547527612545,"name":"Our Bistro","phone":"(469) 723-5155","price":"","reviewCount":12,"reviewScore":5,"meta":{"revision":0,"created":1547531153518,"version":0},"$loki":74},{"_id":"5c3d65bd3525a329e0c132fc","address":"2717 Martin Luther King Junior Blvd","location":{"type":"Point","coordinates":[-96.1117018,32.9022536]},"isApproved":true,"items":[],"keys":["Caribbean"],"lastUpdated":1547527612689,"name":"Elaine’s Kitchen","phone":"(214) 565-1008","price":"$$","reviewCount":180,"reviewScore":4,"meta":{"revision":0,"created":1547531153518,"version":0},"$loki":75},{"_id":"5c3d65bd3525a329e0c00cc3","address":"100 Kings Fort Pkwy","location":{"type":"Point","coordinates":[-96.1109026,32.9031962]},"isApproved":true,"items":[],"keys":["Italian","Pizza"],"lastUpdated":1547527612231,"name":"Roma’s Italian Restaurant","phone":"(972) 962-8081","price":"$$","reviewCount":36,"reviewScore":4,"meta":{"revision":0,"created":1547531153518,"version":0},"$loki":76},{"_id":"5c3d65bd3525a329e0c1640f","address":"1914 N Plano Rd","location":{"type":"Point","coordinates":[-96.1234019,32.9037695]},"isApproved":true,"items":[],"keys":["Tex-Mex","Mexican"],"lastUpdated":1547527612764,"name":"Frankie’s Place","phone":"(469) 814-0287","price":"$$","reviewCount":94,"reviewScore":4,"meta":{"revision":0,"created":1547531153518,"version":0},"$loki":77},{"_id":"5c3d65bd3525a329e0c03597","address":"611 E Quinlan Pkwy","location":{"type":"Point","coordinates":[-96.1261511,32.9031741]},"isApproved":true,"items":[],"keys":["Italian"],"lastUpdated":1547527612303,"name":"Luigis Italian Cafe","phone":"(903) 356-9003","price":"$$","reviewCount":32,"reviewScore":4.5,"meta":{"revision":0,"created":1547531153518,"version":0},"$loki":78},{"_id":"5c3d65bd3525a329e0c0f18e","address":"4640 McKinney Ave130","location":{"type":"Point","coordinates":[-96.030815,32.903125]},"isApproved":true,"items":[],"keys":["Thai"],"lastUpdated":1547527612591,"name":"Ka Thai","phone":"(469) 291-7995","price":"","reviewCount":105,"reviewScore":4.5,"meta":{"revision":0,"created":1547531153518,"version":0},"$loki":79},{"_id":"5c3d65bd3525a329e0c0757c","address":"2023 Greenville Ave","location":{"type":"Point","coordinates":[-96.0160251,32.9029902]},"isApproved":true,"items":[],"keys":["Bars","American (Traditional)"],"lastUpdated":1547527612401,"name":"Rapscallion","phone":"(469) 291-5660","price":"$$","reviewCount":368,"reviewScore":4,"meta":{"revision":0,"created":1547531153518,"version":0},"$loki":80},{"_id":"5c3d65bd3525a329e0c03159","address":"2343 Oates Dr","location":{"type":"Point","coordinates":[-96.0070982,32.9028029]},"isApproved":true,"items":[],"keys":["Mexican"],"lastUpdated":1547527612296,"name":"Buena Vida","phone":"(469) 697-6015","price":"","reviewCount":1,"reviewScore":5,"meta":{"revision":0,"created":1547531153518,"version":0},"$loki":81},{"_id":"5c3d65bd3525a329e0c0277d","address":"4740 S Broadway","location":{"type":"Point","coordinates":[-96.007161,32.713239]},"isApproved":true,"items":[],"keys":["Italian"],"lastUpdated":1547527612284,"name":"La Villeta","phone":"(903) 509-8110","price":"","reviewCount":1,"reviewScore":1,"meta":{"revision":0,"created":1547531153518,"version":0},"$loki":82},{"_id":"5c3d65bd3525a329e0c0a0ce","address":"5332 Lakeview Pkwy","location":{"type":"Point","coordinates":[-96.0080523,32.7124572]},"isApproved":true,"items":[],"keys":["Indian","Buffets"],"lastUpdated":1547527612472,"name":"Spice Village","phone":"(469) 867-1448","price":"","reviewCount":8,"reviewScore":4.5,"meta":{"revision":0,"created":1547531153518,"version":0},"$loki":83},{"_id":"5c3d65bd3525a329e0c139be","address":"103 Hwy 31 W","location":{"type":"Point","coordinates":[-96.0080523,32.7124572]},"isApproved":true,"items":[],"keys":["Burgers","Fast Food"],"lastUpdated":1547527612698,"name":"Whataburger","phone":"(903) 849-3021","price":"$","reviewCount":4,"reviewScore":5,"meta":{"revision":0,"created":1547531153518,"version":0},"$loki":84},{"_id":"5c3d65bd3525a329e0c0d0b5","address":"1309 W S Commerce St","location":{"type":"Point","coordinates":[-96.0230713217533,32.7083853601837]},"isApproved":true,"items":[],"keys":["Seafood","Steakhouses"],"lastUpdated":1547527612544,"name":"Roth’s Seafood & Steakhouse","phone":"(903) 873-8110","price":"$$","reviewCount":13,"reviewScore":3.5,"meta":{"revision":0,"created":1547531153518,"version":0},"$loki":85},{"_id":"5c3d65bd3525a329e0c084d8","address":"1963 N Trade Days Blvd","location":{"type":"Point","coordinates":[-96.0118922,32.7074938]},"isApproved":true,"items":[],"keys":["Pizza","Chicken Wings","Sandwiches"],"lastUpdated":1547527612427,"name":"Domino’s Pizza","phone":"(903) 567-3030","price":"","reviewCount":4,"reviewScore":2.5,"meta":{"revision":0,"created":1547531153518,"version":0},"$loki":86},{"_id":"5c3d65bd3525a329e0c09ac3","address":"1100 E Broadway","location":{"type":"Point","coordinates":[-96.0074331,32.7072746]},"isApproved":true,"items":[],"keys":["Burgers","Coffee & Tea","Fast Food"],"lastUpdated":1547527612464,"name":"McDonald’s","phone":"(903) 845-9910","price":"$","reviewCount":7,"reviewScore":1.5,"meta":{"revision":0,"created":1547531153518,"version":0},"$loki":87},{"_id":"5c3d65bd3525a329e0c110f6","address":"109 W S Commerce St","location":{"type":"Point","coordinates":[-96.0086479,32.7074074]},"isApproved":true,"items":[],"keys":["Mexican"],"lastUpdated":1547527612641,"name":"Paco Dominguez","phone":"(903) 873-3667","price":"$$","reviewCount":7,"reviewScore":3.5,"meta":{"revision":0,"created":1547531153518,"version":0},"$loki":88},{"_id":"5c3d65bd3525a329e0c0cc90","address":"302 E Front St","location":{"type":"Point","coordinates":[-96.0086942,32.7083725]},"isApproved":true,"items":[],"keys":["Coffee & Tea","Breakfast & Brunch"],"lastUpdated":1547527612534,"name":"Strada Caffè","phone":"(903) 944-7744","price":"$$","reviewCount":73,"reviewScore":4,"meta":{"revision":0,"created":1547531153518,"version":0},"$loki":89},{"_id":"5c3d65bd3525a329e0c1b35e","address":"2661 Midway Rd","location":{"type":"Point","coordinates":[-96.0086942,32.7083725]},"isApproved":true,"items":[],"keys":["Hawaiian","Poke"],"lastUpdated":1547527612884,"name":"Halo Hawaiian BBQ&Poke Bar","phone":"(214) 758-0800","price":"","reviewCount":29,"reviewScore":5,"meta":{"revision":0,"created":1547531153518,"version":0},"$loki":90},{"_id":"5c3d65bd3525a329e0c00bcf","address":"111 E Main St","location":{"type":"Point","coordinates":[-96.008855,32.708459]},"isApproved":true,"items":[],"keys":["Diners","American (Traditional)"],"lastUpdated":1547527612230,"name":"Mama’s Daughters’ Diner","phone":"(972) 552-3463","price":"$","reviewCount":81,"reviewScore":4,"meta":{"revision":0,"created":1547531153518,"version":0},"$loki":91},{"_id":"5c3d65bd3525a329e0c0b0e0","address":"14457 Tx-31","location":{"type":"Point","coordinates":[-96.008855,32.708459]},"isApproved":true,"items":[],"keys":["Pizza","Burgers"],"lastUpdated":1547527612497,"name":"Dot’s Place","phone":"(903) 852-7630","price":"","reviewCount":3,"reviewScore":5,"meta":{"revision":0,"created":1547531153518,"version":0},"$loki":92},{"_id":"5c3d65bd3525a329e0c05411","address":"1800 Dalrock Rd","location":{"type":"Point","coordinates":[-96.0032128541378,32.7057370342807]},"isApproved":true,"items":[],"keys":["Mexican"],"lastUpdated":1547527612347,"name":"Alejandro’s Grill & Cantina","phone":"(972) 412-4370","price":"$$","reviewCount":62,"reviewScore":3.5,"meta":{"revision":0,"created":1547531153518,"version":0},"$loki":93},{"_id":"5c3d65bd3525a329e0c07d46","address":"1208 Titus","location":{"type":"Point","coordinates":[-96.0032128541378,32.7057370342807]},"isApproved":true,"items":[],"keys":["Southern"],"lastUpdated":1547527612411,"name":"Lori’s Eats & Sweets","phone":"(903) 680-3287","price":"","reviewCount":6,"reviewScore":4,"meta":{"revision":0,"created":1547531153518,"version":0},"$loki":94},{"_id":"5c3d65bd3525a329e0c07d45","address":"1703 S Broadway Ave","location":{"type":"Point","coordinates":[-95.9989405274575,32.7033332454046]},"isApproved":true,"items":[],"keys":["Restaurants"],"lastUpdated":1547527612411,"name":"Jack In the Box Restaurants","phone":"(903) 592-8841","price":"","reviewCount":3,"reviewScore":3.5,"meta":{"revision":0,"created":1547531153518,"version":0},"$loki":95},{"_id":"5c3d65bd3525a329e0c0c1e8","address":"400 N Coit Rd","location":{"type":"Point","coordinates":[-96.0239807681558,32.6322706591589]},"isApproved":true,"items":[],"keys":["Fish & Chips","British"],"lastUpdated":1547527612517,"name":"Fish & Fizz","phone":"(469) 687-0022","price":"","reviewCount":79,"reviewScore":4,"meta":{"revision":0,"created":1547531153518,"version":0},"$loki":96},{"_id":"5c3d65bd3525a329e0c0f5f8","address":"307 E Interstate 20","location":{"type":"Point","coordinates":[-96.0190097561921,32.6405617315217]},"isApproved":true,"items":[],"keys":["Steakhouses","Burgers"],"lastUpdated":1547527612598,"name":"Terrell Steak & Grill","phone":"(469) 614-3573","price":"$$","reviewCount":51,"reviewScore":4,"meta":{"revision":0,"created":1547531153518,"version":0},"$loki":97},{"_id":"5c3d65bd3525a329e0c044d3","address":"570 E Dallas St","location":{"type":"Point","coordinates":[-95.9219805219957,32.604206304976]},"isApproved":true,"items":[],"keys":["Mexican"],"lastUpdated":1547527612322,"name":"Tacos Y Mas","phone":"(972) 325-4104","price":"$","reviewCount":6,"reviewScore":4,"meta":{"revision":0,"created":1547531153518,"version":0},"$loki":98},{"_id":"5c3d65bd3525a329e0c11f09","address":"19177 Preston Rd","location":{"type":"Point","coordinates":[-95.9219730357961,32.6009663136076]},"isApproved":true,"items":[],"keys":["Breakfast & Brunch"],"lastUpdated":1547527612662,"name":"Mimi’s Star café","phone":"","price":"","reviewCount":6,"reviewScore":5,"meta":{"revision":0,"created":1547531153518,"version":0},"$loki":99},{"_id":"5c3d65bd3525a329e0c12771","address":"102 E Broadway St","location":{"type":"Point","coordinates":[-95.9219730357961,32.6009663136076]},"isApproved":true,"items":[],"keys":["Italian","Breakfast & Brunch","Burgers"],"lastUpdated":1547527612672,"name":"Uncle Mike’s Italian Cafe","phone":"(903) 636-0056","price":"","reviewCount":7,"reviewScore":4,"meta":{"revision":0,"created":1547531153518,"version":0},"$loki":100},{"_id":"5c3d65bd3525a329e0c06d22","address":"809 E Pine St","location":{"type":"Point","coordinates":[-95.8738213,32.6938638]},"isApproved":true,"items":[],"keys":["American (Traditional)"],"lastUpdated":1547527612387,"name":"Lumberyard Cafe","phone":"(903) 896-7766","price":"$$","reviewCount":37,"reviewScore":4.5,"meta":{"revision":0,"created":1547531153518,"version":0},"$loki":101},{"_id":"5c3d65bd3525a329e0c0d634","address":"2218 S Jupiter Rd","location":{"type":"Point","coordinates":[-95.8738213,32.6938638]},"isApproved":true,"items":[],"keys":["Tex-Mex","Mexican"],"lastUpdated":1547527612548,"name":"Tranky’s Tacos","phone":"(972) 864-1460","price":"$","reviewCount":202,"reviewScore":5,"meta":{"revision":0,"created":1547531153518,"version":0},"$loki":102},{"_id":"5c3d65bd3525a329e0c0c7d6","address":"14584 Highway 31 E","location":{"type":"Point","coordinates":[-95.8822049,32.6953132]},"isApproved":true,"items":[],"keys":["Burgers","Fast Food","Ice Cream & Frozen Yogurt"],"lastUpdated":1547527612526,"name":"Sonic Drive-In","phone":"(903) 852-2390","price":"$","reviewCount":1,"reviewScore":5,"meta":{"revision":0,"created":1547531153518,"version":0},"$loki":103},{"_id":"5c3d65bd3525a329e0c04a27","address":"1201 E Erwin St","location":{"type":"Point","coordinates":[-95.8815878447067,32.6947282170634]},"isApproved":true,"items":[],"keys":["Seafood"],"lastUpdated":1547527612331,"name":"Marisco’s Dj’s - Don Juan Seafood","phone":"(903) 533-1220","price":"$$","reviewCount":12,"reviewScore":4.5,"meta":{"revision":0,"created":1547531153518,"version":0},"$loki":104},{"_id":"5c3d65bd3525a329e0c1a900","address":"1436 S Buckner Blvd","location":{"type":"Point","coordinates":[-95.8815878447067,32.6947282170634]},"isApproved":true,"items":[],"keys":["Mexican"],"lastUpdated":1547527612867,"name":"Don Jorge’s Cocina","phone":"(214) 391-2494","price":"$$","reviewCount":13,"reviewScore":4,"meta":{"revision":0,"created":1547531153518,"version":0},"$loki":105},{"_id":"5c3d65bd3525a329e0c12a0c","address":"1433 S Beckham Ave","location":{"type":"Point","coordinates":[-95.8860842910156,32.7005161280452]},"isApproved":true,"items":[],"keys":["Tex-Mex","Mexican"],"lastUpdated":1547527612679,"name":"Manny’s Tex-Mex","phone":"(903) 630-5163","price":"","reviewCount":4,"reviewScore":1.5,"meta":{"revision":0,"created":1547531153518,"version":0},"$loki":106},{"_id":"5c3d65bd3525a329e0c197a4","address":"2412 W Erwin St","location":{"type":"Point","coordinates":[-95.8690553187714,32.5832663162895]},"isApproved":true,"items":[],"keys":["Tex-Mex","Seafood","Mexican"],"lastUpdated":1547527612841,"name":"3 charritos Mexican Restaraunt","phone":"(903) 526-7385","price":"$$","reviewCount":8,"reviewScore":4,"meta":{"revision":0,"created":1547531153518,"version":0},"$loki":107},{"_id":"5c3d65bd3525a329e0c13896","address":"1530 N Peachtree Rd","location":{"type":"Point","coordinates":[-95.8670728693115,32.5837950629462]},"isApproved":true,"items":[],"keys":["Tex-Mex","Mexican"],"lastUpdated":1547527612698,"name":"Cafe Del Rio","phone":"(972) 329-9560","price":"$$","reviewCount":94,"reviewScore":3.5,"meta":{"revision":0,"created":1547531153518,"version":0},"$loki":108},{"_id":"5c3d65bd3525a329e0c139c1","address":"3324 Old Henderson Hwy","location":{"type":"Point","coordinates":[-95.8670728693115,32.5837950629462]},"isApproved":true,"items":[],"keys":["Latin American"],"lastUpdated":1547527612698,"name":"Villa Montez","phone":"(903) 592-9696","price":"$$","reviewCount":192,"reviewScore":4.5,"meta":{"revision":0,"created":1547531153518,"version":0},"$loki":109},{"_id":"5c3d65bd3525a329e0c0f12d","address":"1901 Abrams Rd","location":{"type":"Point","coordinates":[-95.8678869249809,32.9286454749935]},"isApproved":true,"items":[],"keys":["Cocktail Bars","Barbeque","Smokehouse"],"lastUpdated":1547527612590,"name":"Lakewood Smokehouse","phone":"(972) 677-7906","price":"$$","reviewCount":293,"reviewScore":4,"meta":{"revision":0,"created":1547531153518,"version":0},"$loki":110},{"_id":"5c3d65bd3525a329e0c02120","address":"124 N Planters St","location":{"type":"Point","coordinates":[-95.7642425224185,32.8746432403704]},"isApproved":true,"items":[],"keys":["Burgers","Sandwiches","Salad"],"lastUpdated":1547527612275,"name":"Big Mouth Burger Company","phone":"(903) 473-3904","price":"$","reviewCount":35,"reviewScore":4.5,"meta":{"revision":0,"created":1547531153518,"version":0},"$loki":111},{"_id":"5c3d65bd3525a329e0c13898","address":"10720 Preston Rd","location":{"type":"Point","coordinates":[-95.758012,32.868368]},"isApproved":true,"items":[],"keys":["American (Traditional)","Bars"],"lastUpdated":1547527612698,"name":"Neighborhood Services Bar Room & Broiler","phone":"(214) 368-1101","price":"$$","reviewCount":196,"reviewScore":4,"meta":{"revision":0,"created":1547531153518,"version":0},"$loki":112},{"_id":"5c3d65bd3525a329e0c04cd8","address":"Fm 779 And Fm 1799 Intersection","location":{"type":"Point","coordinates":[-95.6318118,32.788849]},"isApproved":true,"items":[],"keys":["Delis","Grocery"],"lastUpdated":1547527612338,"name":"Golden Grocery & Deli","phone":"(903) 768-2322","price":"","reviewCount":1,"reviewScore":5,"meta":{"revision":0,"created":1547531153518,"version":0},"$loki":113},{"_id":"5c3d65bd3525a329e0c169d5","address":"1505 W Garland St","location":{"type":"Point","coordinates":[-95.6347577730469,32.7927893814417]},"isApproved":true,"items":[],"keys":["Barbeque","Burgers"],"lastUpdated":1547527612773,"name":"Circle A BBQ and More","phone":"(903) 913-4545","price":"$","reviewCount":5,"reviewScore":3.5,"meta":{"revision":0,"created":1547531153518,"version":0},"$loki":114},{"_id":"5c3d65bd3525a329e0c04af2","address":"552 W Main St","location":{"type":"Point","coordinates":[-95.7205228507519,32.6738283021401]},"isApproved":true,"items":[],"keys":["Chinese","Donuts"],"lastUpdated":1547527612331,"name":"Master Donut & Chinese Food","phone":"(903) 330-4122","price":"","reviewCount":1,"reviewScore":5,"meta":{"revision":0,"created":1547531153518,"version":0},"$loki":115},{"_id":"5c3d65bd3525a329e0c08dae","address":"508 E Broad St","location":{"type":"Point","coordinates":[-95.7202953,32.6741258]},"isApproved":true,"items":[],"keys":["Chinese"],"lastUpdated":1547527612437,"name":"Panda Buffet","phone":"(903) 569-3959","price":"$$","reviewCount":8,"reviewScore":2.5,"meta":{"revision":0,"created":1547531153518,"version":0},"$loki":116},{"_id":"5c3d65bd3525a329e0c02546","address":"6288 N US Hwy 271","location":{"type":"Point","coordinates":[-95.7215192122885,32.6734342656193]},"isApproved":true,"items":[],"keys":["Fast Food","Burgers"],"lastUpdated":1547527612278,"name":"Whataburger","phone":"(903) 526-0490","price":"$$","reviewCount":8,"reviewScore":3.5,"meta":{"revision":0,"created":1547531153518,"version":0},"$loki":117},{"_id":"5c3d65bd3525a329e0c0f7ae","address":"404 State Highway 31 E","location":{"type":"Point","coordinates":[-95.709806419909,32.6741249161111]},"isApproved":true,"items":[],"keys":["Mexican"],"lastUpdated":1547527612600,"name":"San Pedro’s Mexican Restaurant","phone":"(903) 849-2800","price":"$","reviewCount":41,"reviewScore":3,"meta":{"revision":0,"created":1547531153518,"version":0},"$loki":118},{"_id":"5c3d65bd3525a329e0c0d9c1","address":"14889 Hwy 110 N","location":{"type":"Point","coordinates":[-95.7098459,32.6741228]},"isApproved":true,"items":[],"keys":["Coffee & Tea","Juice Bars & Smoothies","Wraps"],"lastUpdated":1547527612555,"name":"The Journey Coffee House","phone":"(903) 944-4869","price":"$","reviewCount":6,"reviewScore":5,"meta":{"revision":0,"created":1547531153518,"version":0},"$loki":119},{"_id":"5c3d65bd3525a329e0c192a2","address":"310 W Garland St","location":{"type":"Point","coordinates":[-95.7120268,32.6745938]},"isApproved":true,"items":[],"keys":["Mexican"],"lastUpdated":1547527612833,"name":"Peraltas Mexican Restaurant","phone":"(903) 962-3949","price":"$$","reviewCount":6,"reviewScore":4.5,"meta":{"revision":0,"created":1547531153518,"version":0},"$loki":120},{"_id":"5c3d65bd3525a329e0c07f48","address":"124 S Main St","location":{"type":"Point","coordinates":[-95.7098129,32.6721071]},"isApproved":true,"items":[],"keys":["Barbeque","Sandwiches"],"lastUpdated":1547527612418,"name":"The Feed Hut","phone":"(903) 530-0689","price":"$$","reviewCount":13,"reviewScore":4.5,"meta":{"revision":0,"created":1547531153518,"version":0},"$loki":121},{"_id":"5c3d65bd3525a329e0c0c399","address":"3979 University Blvd","location":{"type":"Point","coordinates":[-95.7052644,32.6747432]},"isApproved":true,"items":[],"keys":["Sushi Bars","Asian Fusion","Japanese"],"lastUpdated":1547527612523,"name":"Sushi Guy","phone":"(903) 747-3450","price":"","reviewCount":13,"reviewScore":4,"meta":{"revision":0,"created":1547531153518,"version":0},"$loki":122},{"_id":"5c3d65bd3525a329e0c0eb32","address":"304 W Broad St","location":{"type":"Point","coordinates":[-95.7080671851851,32.6743083276749]},"isApproved":true,"items":[],"keys":["Mexican","Buffets","Sports Bars"],"lastUpdated":1547527612581,"name":"Paredes Family Restaurant","phone":"(903) 569-2424","price":"$$","reviewCount":20,"reviewScore":3,"meta":{"revision":0,"created":1547531153518,"version":0},"$loki":123},{"_id":"5c3d65bd3525a329e0c18b74","address":"3419 W Walnut St","location":{"type":"Point","coordinates":[-95.9438252120994,33.0048004889645]},"isApproved":true,"items":[],"keys":["Bakeries","Vietnamese","Sandwiches"],"lastUpdated":1547527612824,"name":"Quoc Bao Bakery","phone":"(972) 272-9892","price":"$","reviewCount":294,"reviewScore":4.5,"meta":{"revision":0,"created":1547531153518,"version":0},"$loki":124},{"_id":"5c3d65bd3525a329e0c11f38","address":"105 Kenway St","location":{"type":"Point","coordinates":[-95.940062,32.996227]},"isApproved":true,"items":[],"keys":["Mexican"],"lastUpdated":1547527612662,"name":"La Cocina Del Tio Mon","phone":"(972) 771-6799","price":"$","reviewCount":45,"reviewScore":4,"meta":{"revision":0,"created":1547531153518,"version":0},"$loki":125},{"_id":"5c3d65bd3525a329e0c12616","address":"4765 state highway 276 w","location":{"type":"Point","coordinates":[-96.221452,33.008671]},"isApproved":true,"items":[],"keys":["Tex-Mex"],"lastUpdated":1547527612671,"name":"Matt’s Rancho Martinez","phone":"(972) 635-2930","price":"","reviewCount":11,"reviewScore":3.5,"meta":{"revision":0,"created":1547531153518,"version":0},"$loki":126}],"idIndex":[1,2,3,4,5,6,7,8,9,10,11,12,13,14,15,16,17,18,19,20,21,22,23,24,25,26,27,28,29,30,31,32,33,34,35,36,37,38,39,40,41,42,43,44,45,46,47,48,49,50,51,52,53,54,55,56,57,58,59,60,61,62,63,64,65,66,67,68,69,70,71,72,73,74,75,76,77,78,79,80,81,82,83,84,85,86,87,88,89,90,91,92,93,94,95,96,97,98,99,100,101,102,103,104,105,106,107,108,109,110,111,112,113,114,115,116,117,118,119,120,121,122,123,124,125,126],"binaryIndices":{},"constraints":null,"uniqueNames":[],"transforms":{},"objType":"restaurants","dirty":true,"cachedIndex":null,"cachedBinaryIndex":null,"cachedData":null,"adaptiveBinaryIndices":true,"transactional":false,"cloneObjects":false,"cloneMethod":"parse-stringify","asyncListeners":false,"disableMeta":false,"disableChangesApi":true,"disableDeltaChangesApi":true,"autoupdate":false,"serializableIndices":true,"ttl":null,"maxId":126,"DynamicViews":[],"events":{"insert":[],"update":[],"pre-insert":[],"pre-update":[],"close":[],"flushbuffer":[],"error":[],"delete":[null],"warning":[null]},"changes":[]}],"databaseVersion":1.5,"engineVersion":1.5,"autosave":false,"autosaveInterval":5000,"autosaveHandle":null,"throttledSaves":true,"options":{"serializationMethod":"normal","destructureDelimiter":"$<\n"},"persistenceMethod":"fs","persistenceAdapter":null,"verbose":false,"events":{"init":[null],"loaded":[],"flushChanges":[],"close":[],"changes":[],"warning":[]},"ENV":"NODEJS"}