{"filename":"-96.5-42.75","collections":[{"name":"restaurants","data":[{"_id":"5c3d65bd3525a329e0c075bf","address":"11 Central Ave SW","location":{"type":"Point","coordinates":[-96.172421,42.7880328]},"isApproved":true,"items":[],"keys":["Pizza"],"lastUpdated":1547527612401,"name":"Pizza Ranch","phone":"(712) 546-7272","price":"$$","reviewCount":3,"reviewScore":3.5,"meta":{"revision":0,"created":1547531149401,"version":0},"$loki":1},{"_id":"5c3d65bd3525a329e0c04f10","address":"625 Hawkeye Ave SW","location":{"type":"Point","coordinates":[-96.173238158226,42.7886731057756]},"isApproved":true,"items":[],"keys":["Pizza"],"lastUpdated":1547527612339,"name":"Godfather’s Pizza","phone":"(712) 546-4159","price":"$","reviewCount":6,"reviewScore":4,"meta":{"revision":0,"created":1547531149401,"version":0},"$loki":2},{"_id":"5c3d65bd3525a329e0c09c71","address":"89050 570th Ave","location":{"type":"Point","coordinates":[-96.1732582759145,42.7939126193483]},"isApproved":true,"items":[],"keys":["American (Traditional)"],"lastUpdated":1547527612465,"name":"Green Diamond","phone":"(402) 357-2340","price":"","reviewCount":1,"reviewScore":4,"meta":{"revision":0,"created":1547531149401,"version":0},"$loki":3},{"_id":"5c3d65bd3525a329e0c0c714","address":"44368 309th St","location":{"type":"Point","coordinates":[-96.166186,42.795342]},"isApproved":true,"items":[],"keys":["Restaurants"],"lastUpdated":1547527612525,"name":"Fleeg’s Riverside Road House","phone":"(605) 665-9749","price":"$$","reviewCount":2,"reviewScore":1.5,"meta":{"revision":0,"created":1547531149401,"version":0},"$loki":4},{"_id":"5c3d65bd3525a329e0c0b372","address":"19 2nd St SW","location":{"type":"Point","coordinates":[-96.1669751,42.7907236]},"isApproved":true,"items":[],"keys":["Food Stands"],"lastUpdated":1547527612498,"name":"Frydaze","phone":"(712) 546-5999","price":"","reviewCount":2,"reviewScore":4.5,"meta":{"revision":0,"created":1547531149401,"version":0},"$loki":5},{"_id":"5c3d65bd3525a329e0c0616a","address":"708 E 1st St","location":{"type":"Point","coordinates":[-96.1672172695398,42.7927964723882]},"isApproved":true,"items":[],"keys":["Barbeque","Food Trucks"],"lastUpdated":1547527612369,"name":"Iowa BBQ Company","phone":"(319) 981-3955","price":"","reviewCount":3,"reviewScore":5,"meta":{"revision":0,"created":1547531149401,"version":0},"$loki":6},{"_id":"5c3d65bd3525a329e0c169c3","address":"707 E Cherry St","location":{"type":"Point","coordinates":[-96.1668248,42.792889]},"isApproved":true,"items":[],"keys":["Restaurants"],"lastUpdated":1547527612772,"name":"Burger King","phone":"(605) 624-7070","price":"","reviewCount":1,"reviewScore":5,"meta":{"revision":0,"created":1547531149401,"version":0},"$loki":7},{"_id":"5c3d65bd3525a329e0c0f926","address":"128 Central Ave NE","location":{"type":"Point","coordinates":[-96.1588918,42.7923832]},"isApproved":true,"items":[],"keys":["Chinese"],"lastUpdated":1547527612600,"name":"Bamboo Village","phone":"(712) 546-1688","price":"$","reviewCount":5,"reviewScore":2,"meta":{"revision":0,"created":1547531149401,"version":0},"$loki":8},{"_id":"5c3d65bd3525a329e0c15634","address":"224 4th Ave NE","location":{"type":"Point","coordinates":[-96.1602797,42.7968096]},"isApproved":true,"items":[],"keys":["American (Traditional)"],"lastUpdated":1547527612746,"name":"Archie’s Waeside","phone":"(712) 546-7011","price":"$$","reviewCount":34,"reviewScore":4.5,"meta":{"revision":0,"created":1547531149401,"version":0},"$loki":9},{"_id":"5c3d65bd3525a329e0c1a5ba","address":"702 N Dakota St","location":{"type":"Point","coordinates":[-96.1741395,42.7933852]},"isApproved":true,"items":[],"keys":["Fast Food","Burgers","Coffee & Tea"],"lastUpdated":1547527612860,"name":"McDonald’s","phone":"(605) 624-4630","price":"","reviewCount":10,"reviewScore":1.5,"meta":{"revision":0,"created":1547531149401,"version":0},"$loki":10},{"_id":"5c3d65bd3525a329e0c04118","address":"320 5th Ave SW","location":{"type":"Point","coordinates":[-96.1742846,42.7887622]},"isApproved":true,"items":[],"keys":["Mexican","Fast Food"],"lastUpdated":1547527612320,"name":"Taco John’s","phone":"(712) 546-4008","price":"$","reviewCount":3,"reviewScore":4.5,"meta":{"revision":0,"created":1547531149401,"version":0},"$loki":11},{"_id":"5c3d65bd3525a329e0c14e25","address":"321 5th Ave SW","location":{"type":"Point","coordinates":[-96.1742846,42.7887622]},"isApproved":true,"items":[],"keys":["Coffee & Tea","Breakfast & Brunch","Burgers"],"lastUpdated":1547527612730,"name":"Le Mars Truck Stop","phone":"(712) 546-4324","price":"$$","reviewCount":3,"reviewScore":4.5,"meta":{"revision":0,"created":1547531149401,"version":0},"$loki":12},{"_id":"5c3d65bd3525a329e0c0e69e","address":"15 1st St NE","location":{"type":"Point","coordinates":[-96.1748647,42.7867555]},"isApproved":true,"items":[],"keys":["Mexican","Burgers"],"lastUpdated":1547527612574,"name":"Jim’s Burgers","phone":"(712) 546-6030","price":"","reviewCount":3,"reviewScore":4,"meta":{"revision":0,"created":1547531149401,"version":0},"$loki":13},{"_id":"5c3d65bd3525a329e0c0bd04","address":"25 Plymouth St NE","location":{"type":"Point","coordinates":[-96.1765016,42.785478]},"isApproved":true,"items":[],"keys":["Pizza"],"lastUpdated":1547527612510,"name":"Jerry’s Pizza","phone":"(712) 546-8146","price":"$$","reviewCount":5,"reviewScore":2.5,"meta":{"revision":0,"created":1547531149401,"version":0},"$loki":14},{"_id":"5c3d65bd3525a329e0c041c9","address":"Hwy 75 S","location":{"type":"Point","coordinates":[-96.1760759353638,42.7856377938815]},"isApproved":true,"items":[],"keys":["Fast Food"],"lastUpdated":1547527612320,"name":"Bob’s Drive-Inn","phone":"(712) 546-5445","price":"$","reviewCount":36,"reviewScore":4.5,"meta":{"revision":0,"created":1547531149401,"version":0},"$loki":15},{"_id":"5c3d65bd3525a329e0c13fe5","address":"511 Hawkeye Ave SW","location":{"type":"Point","coordinates":[-96.1832430385466,42.7819223976597]},"isApproved":true,"items":[],"keys":["American (Traditional)"],"lastUpdated":1547527612707,"name":"Family Table Restaurant","phone":"(712) 546-4016","price":"$$","reviewCount":11,"reviewScore":4,"meta":{"revision":0,"created":1547531149401,"version":0},"$loki":16},{"_id":"5c3d65bd3525a329e0c0ce24","address":"630 8th Ave SW","location":{"type":"Point","coordinates":[-96.1779616,42.7849859]},"isApproved":true,"items":[],"keys":["Pizza","American (Traditional)"],"lastUpdated":1547527612534,"name":"P’s Pizza House","phone":"(712) 546-8777","price":"$$","reviewCount":11,"reviewScore":3.5,"meta":{"revision":0,"created":1547531149401,"version":0},"$loki":17},{"_id":"5c3d65bd3525a329e0c0c3f3","address":"785 Hawkeye Ave SW","location":{"type":"Point","coordinates":[-96.178602,42.7840391]},"isApproved":true,"items":[],"keys":["Mexican"],"lastUpdated":1547527612523,"name":"Tacos La Juanita","phone":"(712) 548-4369","price":"","reviewCount":1,"reviewScore":5,"meta":{"revision":0,"created":1547531149401,"version":0},"$loki":18},{"_id":"5c3d65bd3525a329e0c01830","address":"905 E Cherry St","location":{"type":"Point","coordinates":[-96.187665,42.778374]},"isApproved":true,"items":[],"keys":["Ice Cream & Frozen Yogurt","Fast Food"],"lastUpdated":1547527612251,"name":"Dairy Queen","phone":"(605) 624-4191","price":"$","reviewCount":3,"reviewScore":2.5,"meta":{"revision":0,"created":1547531149401,"version":0},"$loki":19},{"_id":"5c3d65bd3525a329e0c14c8f","address":"702 N University St","location":{"type":"Point","coordinates":[-96.1872688915651,42.7786057220523]},"isApproved":true,"items":[],"keys":["Pizza","Chicken Wings","Sandwiches"],"lastUpdated":1547527612729,"name":"Domino’s Pizza","phone":"(605) 624-5577","price":"","reviewCount":1,"reviewScore":4,"meta":{"revision":0,"created":1547531149401,"version":0},"$loki":20},{"_id":"5c3d65bd3525a329e0c0a2e6","address":"1430 Two Rivers Blvd","location":{"type":"Point","coordinates":[-96.188593,42.781543]},"isApproved":true,"items":[],"keys":["Bars","American (Traditional)"],"lastUpdated":1547527612473,"name":"4 Brothers Bar & Grill","phone":"(712) 548-4444","price":"$$","reviewCount":30,"reviewScore":3.5,"meta":{"revision":0,"created":1547531149401,"version":0},"$loki":21},{"_id":"5c3d65bd3525a329e0c09528","address":"928 E Cherry St","location":{"type":"Point","coordinates":[-96.1876709,42.7819232]},"isApproved":true,"items":[],"keys":["Pizza","Italian","Chicken Wings"],"lastUpdated":1547527612453,"name":"Pizza Hut","phone":"(605) 624-5513","price":"","reviewCount":2,"reviewScore":1,"meta":{"revision":0,"created":1547531149401,"version":0},"$loki":22},{"_id":"5c3d65bd3525a329e0c17761","address":"117 Main St","location":{"type":"Point","coordinates":[-96.2472089369057,42.719996668859]},"isApproved":true,"items":[],"keys":["Burgers","Cafes"],"lastUpdated":1547527612791,"name":"Emma Rae’s Cafe","phone":"(712) 938-2332","price":"","reviewCount":2,"reviewScore":5,"meta":{"revision":0,"created":1547531149401,"version":0},"$loki":23},{"_id":"5c3d65bd3525a329e0c019fa","address":"101 Main St","location":{"type":"Point","coordinates":[-96.2467901,42.7200301]},"isApproved":true,"items":[],"keys":["Tex-Mex"],"lastUpdated":1547527612257,"name":"Merrill Mexican","phone":"(712) 938-2093","price":"","reviewCount":3,"reviewScore":3.5,"meta":{"revision":0,"created":1547531149401,"version":0},"$loki":24},{"_id":"5c3d65bd3525a329e0c0173d","address":"32028 White St","location":{"type":"Point","coordinates":[-96.828484,42.744804]},"isApproved":true,"items":[],"keys":["American (Traditional)"],"lastUpdated":1547527612250,"name":"Whimp’s Place","phone":"(605) 624-9973","price":"$$","reviewCount":8,"reviewScore":3.5,"meta":{"revision":0,"created":1547531149401,"version":0},"$loki":25},{"_id":"5c3d65bd3525a329e0c17481","address":"1111 Holton Dr","location":{"type":"Point","coordinates":[-96.9165151,42.7870782]},"isApproved":true,"items":[],"keys":["Sandwiches","Fast Food"],"lastUpdated":1547527612790,"name":"Subway","phone":"(712) 548-5201","price":"$","reviewCount":2,"reviewScore":3,"meta":{"revision":0,"created":1547531149401,"version":0},"$loki":26},{"_id":"5c3d65bd3525a329e0c152f7","address":"911 East Cherry St","location":{"type":"Point","coordinates":[-96.9175322845507,42.7866145134803]},"isApproved":true,"items":[],"keys":["American (New)","American (Traditional)"],"lastUpdated":1547527612738,"name":"The Roadhouse","phone":"(605) 624-7336","price":"","reviewCount":10,"reviewScore":3.5,"meta":{"revision":0,"created":1547531149401,"version":0},"$loki":27},{"_id":"5c3d65bd3525a329e0c1210a","address":"825 E Cherry St","location":{"type":"Point","coordinates":[-96.9205599278212,42.7864500299774]},"isApproved":true,"items":[],"keys":["Cheesesteaks","Sandwiches"],"lastUpdated":1547527612663,"name":"Steak Escape/Taco Johns Vermillion","phone":"(605) 624-9431","price":"$","reviewCount":3,"reviewScore":2.5,"meta":{"revision":0,"created":1547531149401,"version":0},"$loki":28},{"_id":"5c3d65bd3525a329e0c0c427","address":"30 5th Ave SE","location":{"type":"Point","coordinates":[-96.918808691205,42.7863094990428]},"isApproved":true,"items":[],"keys":["Fast Food"],"lastUpdated":1547527612524,"name":"Hardee’s","phone":"(712) 546-8003","price":"$","reviewCount":4,"reviewScore":2.5,"meta":{"revision":0,"created":1547531149401,"version":0},"$loki":29},{"_id":"5c3d65bd3525a329e0c015ba","address":"11 5th Ave NW","location":{"type":"Point","coordinates":[-96.9173496,42.7862773]},"isApproved":true,"items":[],"keys":["Sandwiches","Fast Food"],"lastUpdated":1547527612250,"name":"Subway","phone":"(712) 546-5200","price":"$","reviewCount":3,"reviewScore":3,"meta":{"revision":0,"created":1547531149401,"version":0},"$loki":30},{"_id":"5c3d65bd3525a329e0c076c7","address":"1110 E Cherry St","location":{"type":"Point","coordinates":[-96.9315315,42.7796619]},"isApproved":true,"items":[],"keys":["Breakfast & Brunch","Coffee & Tea","Internet Cafes"],"lastUpdated":1547527612402,"name":"Bru2","phone":"(605) 658-0140","price":"$$","reviewCount":5,"reviewScore":4,"meta":{"revision":0,"created":1547531149401,"version":0},"$loki":31},{"_id":"5c3d65bd3525a329e0c1310b","address":"101 1st St","location":{"type":"Point","coordinates":[-96.9209754,42.7863808]},"isApproved":true,"items":[],"keys":["Pizza"],"lastUpdated":1547527612688,"name":"Casey’s Carry Out Pizza","phone":"(712) 938-2132","price":"","reviewCount":2,"reviewScore":4,"meta":{"revision":0,"created":1547531149401,"version":0},"$loki":32},{"_id":"5c3d65bd3525a329e0c02043","address":"11 S Market St","location":{"type":"Point","coordinates":[-96.924784,42.786863]},"isApproved":true,"items":[],"keys":["American (Traditional)","Sports Bars"],"lastUpdated":1547527612274,"name":"Leo’s Sports Bar & Grill","phone":"(605) 624-9991","price":"$","reviewCount":3,"reviewScore":3.5,"meta":{"revision":0,"created":1547531149401,"version":0},"$loki":33},{"_id":"5c3d65bd3525a329e0c0a9d3","address":"709 E Cherry St","location":{"type":"Point","coordinates":[-96.9245194,42.787016]},"isApproved":true,"items":[],"keys":["Coffee & Tea","Breakfast & Brunch","Cafes"],"lastUpdated":1547527612482,"name":"Latte Da","phone":"(605) 624-6306","price":"$","reviewCount":7,"reviewScore":4,"meta":{"revision":0,"created":1547531149401,"version":0},"$loki":34},{"_id":"5c3d65bd3525a329e0c126c8","address":"4801 Highway 143","location":{"type":"Point","coordinates":[-96.9297293069689,42.7873297465179]},"isApproved":true,"items":[],"keys":["Pizza"],"lastUpdated":1547527612671,"name":"Casey’s Carry Out Pizza","phone":"(712) 376-2733","price":"$","reviewCount":2,"reviewScore":4,"meta":{"revision":0,"created":1547531149401,"version":0},"$loki":35},{"_id":"5c3d65bd3525a329e0c11b48","address":"432 E Cherry St","location":{"type":"Point","coordinates":[-96.9331891,42.7881505]},"isApproved":true,"items":[],"keys":["Mexican"],"lastUpdated":1547527612652,"name":"Mexico Viejo Mexican Restaurant","phone":"(605) 624-5102","price":"$$","reviewCount":20,"reviewScore":2.5,"meta":{"revision":0,"created":1547531149401,"version":0},"$loki":36},{"_id":"5c3d65bd3525a329e0c049f4","address":"15 W Main St","location":{"type":"Point","coordinates":[-96.9329494,42.779567]},"isApproved":true,"items":[],"keys":["Pizza","American (Traditional)","Bars"],"lastUpdated":1547527612331,"name":"Dakota Brick House","phone":"(605) 658-2337","price":"","reviewCount":10,"reviewScore":4,"meta":{"revision":0,"created":1547531149401,"version":0},"$loki":37},{"_id":"5c3d65bd3525a329e0c10018","address":"1 E Main St","location":{"type":"Point","coordinates":[-96.93214,42.779115]},"isApproved":true,"items":[],"keys":["American (Traditional)","Steakhouses","Sandwiches"],"lastUpdated":1547527612609,"name":"RED Steakhouse","phone":"(605) 624-0079","price":"$$","reviewCount":33,"reviewScore":4,"meta":{"revision":0,"created":1547531149401,"version":0},"$loki":38},{"_id":"5c3d65bd3525a329e0c17bef","address":"15 Court St","location":{"type":"Point","coordinates":[-96.9326060637832,42.7785469458686]},"isApproved":true,"items":[],"keys":["Bars","American (Traditional)"],"lastUpdated":1547527612800,"name":"Old Lumber Company","phone":"(605) 658-9663","price":"$$","reviewCount":16,"reviewScore":3,"meta":{"revision":0,"created":1547531149401,"version":0},"$loki":39},{"_id":"5c3d65bd3525a329e0c038c4","address":"7 Court St","location":{"type":"Point","coordinates":[-96.9325758889318,42.7787605493498]},"isApproved":true,"items":[],"keys":["American (Traditional)","Bars"],"lastUpdated":1547527612304,"name":"Hartford Steak Co. Tavern","phone":"(605) 658-0214","price":"","reviewCount":2,"reviewScore":4.5,"meta":{"revision":0,"created":1547531149401,"version":0},"$loki":40},{"_id":"5c3d65bd3525a329e0c00a29","address":"12 W Main St","location":{"type":"Point","coordinates":[-96.9330529,42.7791208]},"isApproved":true,"items":[],"keys":["Korean","Thai","Japanese"],"lastUpdated":1547527612230,"name":"Silk Road","phone":"(605) 658-1923","price":"$$","reviewCount":37,"reviewScore":4,"meta":{"revision":0,"created":1547531149401,"version":0},"$loki":41},{"_id":"5c3d65bd3525a329e0c12638","address":"24 W Main St","location":{"type":"Point","coordinates":[-96.9337195158005,42.7793107963965]},"isApproved":true,"items":[],"keys":["Coffee & Tea","Breakfast & Brunch","Sandwiches"],"lastUpdated":1547527612671,"name":"Cafe Brule","phone":"(605) 624-2945","price":"$$","reviewCount":73,"reviewScore":4.5,"meta":{"revision":0,"created":1547531149401,"version":0},"$loki":42},{"_id":"5c3d65bd3525a329e0c1835d","address":"1001 Ave E","location":{"type":"Point","coordinates":[-96.9340441661361,42.7788243213445]},"isApproved":true,"items":[],"keys":["Pizza"],"lastUpdated":1547527612814,"name":"Casey’s Pizza","phone":"(712) 551-2303","price":"","reviewCount":1,"reviewScore":2,"meta":{"revision":0,"created":1547531149401,"version":0},"$loki":43},{"_id":"5c3d65bd3525a329e0c167f3","address":"31300 473rd Ave","location":{"type":"Point","coordinates":[-96.7462737153443,42.8514972086854]},"isApproved":true,"items":[],"keys":["Cafes","American (Traditional)"],"lastUpdated":1547527612772,"name":"Spink Cafe","phone":"(605) 356-2663","price":"$","reviewCount":6,"reviewScore":4,"meta":{"revision":0,"created":1547531149401,"version":0},"$loki":44},{"_id":"5c3d65bd3525a329e0bff605","address":"105 W Main St","location":{"type":"Point","coordinates":[-96.6849893,42.6865593]},"isApproved":true,"items":[],"keys":["Mexican"],"lastUpdated":1547527612217,"name":"Los Amigos Mexican Restaurant Bar & Casino","phone":"(605) 356-9454","price":"$$","reviewCount":7,"reviewScore":4.5,"meta":{"revision":0,"created":1547531149401,"version":0},"$loki":45},{"_id":"5c3d65bd3525a329e0c02357","address":"201 Union St","location":{"type":"Point","coordinates":[-96.6043163,42.7565728]},"isApproved":true,"items":[],"keys":["Beer Bar","Chicken Wings","Pizza"],"lastUpdated":1547527612276,"name":"Hummer’s Roadhouse Bar & Grill","phone":"(712) 568-2337","price":"$","reviewCount":5,"reviewScore":4,"meta":{"revision":0,"created":1547531149401,"version":0},"$loki":46},{"_id":"5c3d65bd3525a329e0c0dc7f","address":"404 Bower St","location":{"type":"Point","coordinates":[-96.559052,42.828992]},"isApproved":true,"items":[],"keys":["Asian Fusion"],"lastUpdated":1547527612557,"name":"Asian Buffet","phone":"(605) 658-2000","price":"","reviewCount":2,"reviewScore":2.5,"meta":{"revision":0,"created":1547531149401,"version":0},"$loki":47},{"_id":"5c3d65bd3525a329e0c11a27","address":"150 Reed St","location":{"type":"Point","coordinates":[-96.5597440195739,42.8287042]},"isApproved":true,"items":[],"keys":["Diners","Breakfast & Brunch","Cafes"],"lastUpdated":1547527612651,"name":"Akron Jos Cafe","phone":"(712) 568-2246","price":"","reviewCount":6,"reviewScore":4.5,"meta":{"revision":0,"created":1547531149401,"version":0},"$loki":48},{"_id":"5c3d65bd3525a329e0c0c8ff","address":"723 Central Ave","location":{"type":"Point","coordinates":[-96.4856079,42.9941122]},"isApproved":true,"items":[],"keys":["Pizza"],"lastUpdated":1547527612526,"name":"Pizza Ranch","phone":"(712) 551-2455","price":"","reviewCount":3,"reviewScore":2.5,"meta":{"revision":0,"created":1547531149401,"version":0},"$loki":49},{"_id":"5c3d65bd3525a329e0c0a38e","address":"815 Central Ave","location":{"type":"Point","coordinates":[-96.485629,42.9950364]},"isApproved":true,"items":[],"keys":["Restaurants"],"lastUpdated":1547527612474,"name":"Central Cafe","phone":"(712) 551-2739","price":"","reviewCount":1,"reviewScore":2,"meta":{"revision":0,"created":1547531149401,"version":0},"$loki":50},{"_id":"5c3d65bd3525a329e0c186c9","address":"1123 Ave E","location":{"type":"Point","coordinates":[-96.4856704,42.9960186]},"isApproved":true,"items":[],"keys":["Restaurants"],"lastUpdated":1547527612815,"name":"The Drive In","phone":"(712) 551-4777","price":"$$","reviewCount":1,"reviewScore":1,"meta":{"revision":0,"created":1547531149401,"version":0},"$loki":51},{"_id":"5c3d65bd3525a329e0c0d24f","address":"909 Central Ave","location":{"type":"Point","coordinates":[-96.4885022,42.9971716]},"isApproved":true,"items":[],"keys":["Pizza"],"lastUpdated":1547527612545,"name":"Pro Sport Bistro","phone":"(712) 551-1637","price":"","reviewCount":1,"reviewScore":1,"meta":{"revision":0,"created":1547531149401,"version":0},"$loki":52},{"_id":"5c3d65bd3525a329e0c15204","address":"125 Plymouth St NE","location":{"type":"Point","coordinates":[-96.4883566,42.9993266]},"isApproved":true,"items":[],"keys":["Coffee & Tea","Burgers","Sandwiches"],"lastUpdated":1547527612737,"name":"Lally’s East Side Restaurant","phone":"(712) 546-4406","price":"$","reviewCount":7,"reviewScore":3.5,"meta":{"revision":0,"created":1547531149401,"version":0},"$loki":53}],"idIndex":[1,2,3,4,5,6,7,8,9,10,11,12,13,14,15,16,17,18,19,20,21,22,23,24,25,26,27,28,29,30,31,32,33,34,35,36,37,38,39,40,41,42,43,44,45,46,47,48,49,50,51,52,53],"binaryIndices":{},"constraints":null,"uniqueNames":[],"transforms":{},"objType":"restaurants","dirty":true,"cachedIndex":null,"cachedBinaryIndex":null,"cachedData":null,"adaptiveBinaryIndices":true,"transactional":false,"cloneObjects":false,"cloneMethod":"parse-stringify","asyncListeners":false,"disableMeta":false,"disableChangesApi":true,"disableDeltaChangesApi":true,"autoupdate":false,"serializableIndices":true,"ttl":null,"maxId":53,"DynamicViews":[],"events":{"insert":[],"update":[],"pre-insert":[],"pre-update":[],"close":[],"flushbuffer":[],"error":[],"delete":[null],"warning":[null]},"changes":[]}],"databaseVersion":1.5,"engineVersion":1.5,"autosave":false,"autosaveInterval":5000,"autosaveHandle":null,"throttledSaves":true,"options":{"serializationMethod":"normal","destructureDelimiter":"$<\n"},"persistenceMethod":"fs","persistenceAdapter":null,"verbose":false,"events":{"init":[null],"loaded":[],"flushChanges":[],"close":[],"changes":[],"warning":[]},"ENV":"NODEJS"}