{"filename":"-96.25-41.5","collections":[{"name":"restaurants","data":[{"_id":"5c3d65bd3525a329e0c15e59","address":"415 S Main St","location":{"type":"Point","coordinates":[-96.6110385,41.3971877]},"isApproved":true,"items":[],"keys":["American (Traditional)"],"lastUpdated":1547527612755,"name":"DJ’s Bar & Grill","phone":"(402) 721-2001","price":"$$","reviewCount":5,"reviewScore":5,"meta":{"revision":0,"created":1547531154886,"version":0},"$loki":1},{"_id":"5c3d65bd3525a329e0c012ed","address":"116 S 14th St","location":{"type":"Point","coordinates":[-96.479412,41.382384]},"isApproved":true,"items":[],"keys":["American (New)"],"lastUpdated":1547527612240,"name":"The Rustic Inn","phone":"(402) 468-5565","price":"$$","reviewCount":20,"reviewScore":4,"meta":{"revision":0,"created":1547531154886,"version":0},"$loki":2},{"_id":"5c3d65bd3525a329e0c022dd","address":"980 County Rd W","location":{"type":"Point","coordinates":[-96.4838363,41.4279987]},"isApproved":true,"items":[],"keys":["American (New)","Bars"],"lastUpdated":1547527612276,"name":"The Woodcliff Restaurant","phone":"(402) 721-2922","price":"$$","reviewCount":25,"reviewScore":4.5,"meta":{"revision":0,"created":1547531154886,"version":0},"$loki":3},{"_id":"5c3d65bd3525a329e0bff52b","address":"420 W Erie St","location":{"type":"Point","coordinates":[-96.4722597,41.4347319]},"isApproved":true,"items":[],"keys":["Ice Cream & Frozen Yogurt","Fast Food"],"lastUpdated":1547527612216,"name":"Dairy Den","phone":"(712) 642-3698","price":"$","reviewCount":3,"reviewScore":4.5,"meta":{"revision":0,"created":1547531154886,"version":0},"$loki":4},{"_id":"5c3d65bd3525a329e0c06a9c","address":"8701 N 30th St","location":{"type":"Point","coordinates":[-96.4722597,41.4347319]},"isApproved":true,"items":[],"keys":["Bowling","Bars","American (Traditional)"],"lastUpdated":1547527612380,"name":"Kelley’s North Bowl","phone":"(402) 453-5500","price":"","reviewCount":1,"reviewScore":3,"meta":{"revision":0,"created":1547531154886,"version":0},"$loki":5},{"_id":"5c3d65bd3525a329e0c02a33","address":"128 Willow Rd","location":{"type":"Point","coordinates":[-96.4748284685918,41.4343352552053]},"isApproved":true,"items":[],"keys":["Diners"],"lastUpdated":1547527612286,"name":"Penny’s Dinner","phone":"(712) 642-3000","price":"$$","reviewCount":30,"reviewScore":3,"meta":{"revision":0,"created":1547531154886,"version":0},"$loki":6},{"_id":"5c3d65bd3525a329e0c02a0c","address":"439 S 13th St","location":{"type":"Point","coordinates":[-96.4835207,41.4460452]},"isApproved":true,"items":[],"keys":["Burgers"],"lastUpdated":1547527612286,"name":"Winners Grill","phone":"(402) 374-1572","price":"$$","reviewCount":3,"reviewScore":4,"meta":{"revision":0,"created":1547531154886,"version":0},"$loki":7},{"_id":"5c3d65bd3525a329e0c1492f","address":"1851 E 23rd St","location":{"type":"Point","coordinates":[-96.483255,41.4462667]},"isApproved":true,"items":[],"keys":["Pizza"],"lastUpdated":1547527612727,"name":"Godfathers Pizza","phone":"(402) 727-6262","price":"$","reviewCount":7,"reviewScore":3.5,"meta":{"revision":0,"created":1547531154886,"version":0},"$loki":8},{"_id":"5c3d65bd3525a329e0c05fae","address":"1682 E 23rd St","location":{"type":"Point","coordinates":[-96.4831925,41.4478472]},"isApproved":true,"items":[],"keys":["Bars","Music Venues","American (Traditional)"],"lastUpdated":1547527612368,"name":"Tin Lizzy Tavern","phone":"(402) 727-7677","price":"","reviewCount":4,"reviewScore":3,"meta":{"revision":0,"created":1547531154886,"version":0},"$loki":9},{"_id":"5c3d65bd3525a329e0c0a491","address":"1616 Washington St","location":{"type":"Point","coordinates":[-96.4831675,41.4495886]},"isApproved":true,"items":[],"keys":["American (Traditional)","Barbeque"],"lastUpdated":1547527612480,"name":"Main Street BBQ & Grill","phone":"(402) 426-9935","price":"$$","reviewCount":24,"reviewScore":4,"meta":{"revision":0,"created":1547531154886,"version":0},"$loki":10},{"_id":"5c3d65bd3525a329e0c061ad","address":"1220 E 23rd St","location":{"type":"Point","coordinates":[-96.4831185,41.4490379]},"isApproved":true,"items":[],"keys":["Fast Food","Delis","Sandwiches"],"lastUpdated":1547527612369,"name":"Firehouse Subs","phone":"(402) 816-4454","price":"","reviewCount":1,"reviewScore":2,"meta":{"revision":0,"created":1547531154886,"version":0},"$loki":11},{"_id":"5c3d65bd3525a329e0c13735","address":"100 N Willow Rd","location":{"type":"Point","coordinates":[-96.4832095664662,41.4510502513367]},"isApproved":true,"items":[],"keys":["Fast Food","Burgers","Coffee & Tea"],"lastUpdated":1547527612697,"name":"McDonald’s","phone":"(712) 642-2711","price":"$","reviewCount":8,"reviewScore":1.5,"meta":{"revision":0,"created":1547531154886,"version":0},"$loki":12},{"_id":"5c3d65bd3525a329e0c18078","address":"250 E 5th St","location":{"type":"Point","coordinates":[-96.4823695,41.4511075]},"isApproved":true,"items":[],"keys":["Restaurants"],"lastUpdated":1547527612803,"name":"Martini’s","phone":"(402) 721-0101","price":"","reviewCount":2,"reviewScore":4,"meta":{"revision":0,"created":1547531154886,"version":0},"$loki":13},{"_id":"5c3d65bd3525a329e0c16640","address":"2099 Diers Pkwy","location":{"type":"Point","coordinates":[-96.4831925,41.4517409]},"isApproved":true,"items":[],"keys":["American (Traditional)"],"lastUpdated":1547527612765,"name":"Hardee’s","phone":"","price":"$$","reviewCount":10,"reviewScore":3,"meta":{"revision":0,"created":1547531154886,"version":0},"$loki":14},{"_id":"5c3d65bd3525a329e0c0d685","address":"1781 E 23rd St","location":{"type":"Point","coordinates":[-96.4823596,41.4520993]},"isApproved":true,"items":[],"keys":["Pizza","Italian","Chicken Wings"],"lastUpdated":1547527612554,"name":"Pizza Hut","phone":"(402) 721-7175","price":"$","reviewCount":3,"reviewScore":2.5,"meta":{"revision":0,"created":1547531154886,"version":0},"$loki":15},{"_id":"5c3d65bd3525a329e0c0a776","address":"115 N 4th Ave","location":{"type":"Point","coordinates":[-96.4836818,41.4517774]},"isApproved":true,"items":[],"keys":["American (Traditional)"],"lastUpdated":1547527612481,"name":"4th Avenue Grill","phone":"(712) 644-3200","price":"$","reviewCount":2,"reviewScore":4,"meta":{"revision":0,"created":1547531154886,"version":0},"$loki":16},{"_id":"5c3d65bd3525a329e0c019c7","address":"9226 Mormon Bridge Rd","location":{"type":"Point","coordinates":[-96.4852676,41.452964]},"isApproved":true,"items":[],"keys":["Sports Bars","American (Traditional)"],"lastUpdated":1547527612257,"name":"The Cabin Bar & Grill","phone":"(402) 453-6300","price":"$","reviewCount":34,"reviewScore":3.5,"meta":{"revision":0,"created":1547531154886,"version":0},"$loki":17},{"_id":"5c3d65bd3525a329e0c04abc","address":"2100 S 20th St","location":{"type":"Point","coordinates":[-96.4871489,41.4529583]},"isApproved":true,"items":[],"keys":["Delis","Sandwiches","Fast Food"],"lastUpdated":1547527612331,"name":"Jimmy John’s","phone":"(402) 533-8333","price":"$$","reviewCount":4,"reviewScore":2.5,"meta":{"revision":0,"created":1547531154886,"version":0},"$loki":18},{"_id":"5c3d65bd3525a329e0c005e2","address":"640 N Park Ave","location":{"type":"Point","coordinates":[-96.4905094,41.4511692]},"isApproved":true,"items":[],"keys":["Burgers","Fast Food"],"lastUpdated":1547527612227,"name":"Runza Restaurant","phone":"(402) 721-8444","price":"$","reviewCount":6,"reviewScore":2.5,"meta":{"revision":0,"created":1547531154886,"version":0},"$loki":19},{"_id":"5c3d65bd3525a329e0c14690","address":"123 Willow Rd","location":{"type":"Point","coordinates":[-96.4897176066606,41.4517869110559]},"isApproved":true,"items":[],"keys":["Sandwiches","Fast Food"],"lastUpdated":1547527612716,"name":"Arby’s","phone":"(712) 642-5722","price":"$$$$","reviewCount":5,"reviewScore":2.5,"meta":{"revision":0,"created":1547531154886,"version":0},"$loki":20},{"_id":"5c3d65bd3525a329e0c1140e","address":"407 W Huron St","location":{"type":"Point","coordinates":[-96.489,41.4514]},"isApproved":true,"items":[],"keys":["Grocery","Delis"],"lastUpdated":1547527612643,"name":"Food Land Deli","phone":"(712) 642-4487","price":"","reviewCount":1,"reviewScore":3,"meta":{"revision":0,"created":1547531154886,"version":0},"$loki":21},{"_id":"5c3d65bd3525a329e0c0045a","address":"325 N Main St","location":{"type":"Point","coordinates":[-96.4801769633682,41.451990072436]},"isApproved":true,"items":[],"keys":["Burgers","Chicken Wings","Sandwiches"],"lastUpdated":1547527612226,"name":"L.A. Fire Proof Door","phone":"(402) 727-8911","price":"$$","reviewCount":30,"reviewScore":3,"meta":{"revision":0,"created":1547531154886,"version":0},"$loki":22},{"_id":"5c3d65bd3525a329e0c13598","address":"514 E Erie St","location":{"type":"Point","coordinates":[-96.48214,41.45225]},"isApproved":true,"items":[],"keys":["Chinese"],"lastUpdated":1547527612696,"name":"Bamboo Village Chinese Cafe","phone":"(712) 600-6542","price":"$","reviewCount":4,"reviewScore":5,"meta":{"revision":0,"created":1547531154886,"version":0},"$loki":23},{"_id":"5c3d65bd3525a329e0c09383","address":"15409 S 2nd St","location":{"type":"Point","coordinates":[-96.4769937,41.4514138]},"isApproved":true,"items":[],"keys":["Bars","American (Traditional)"],"lastUpdated":1547527612452,"name":"Nate’s Stumble Inn Bar & Grill","phone":"(402) 238-2430","price":"$","reviewCount":18,"reviewScore":3.5,"meta":{"revision":0,"created":1547531154886,"version":0},"$loki":24},{"_id":"5c3d65bd3525a329e0c06319","address":"610 E 23rd St","location":{"type":"Point","coordinates":[-96.4761807,41.4519023]},"isApproved":true,"items":[],"keys":["Cafes","Coffee & Tea"],"lastUpdated":1547527612369,"name":"Scooters Coffee House","phone":"(402) 721-2888","price":"$$","reviewCount":14,"reviewScore":3.5,"meta":{"revision":0,"created":1547531154886,"version":0},"$loki":25},{"_id":"5c3d65bd3525a329e0c0bc83","address":"1440 W Military Ave","location":{"type":"Point","coordinates":[-96.4737787,41.4507202]},"isApproved":true,"items":[],"keys":["Pizza"],"lastUpdated":1547527612509,"name":"Gambino’s Pizza","phone":"(402) 727-1300","price":"$$","reviewCount":9,"reviewScore":4,"meta":{"revision":0,"created":1547531154886,"version":0},"$loki":26},{"_id":"5c3d65bd3525a329e0c0924f","address":"605 Main St","location":{"type":"Point","coordinates":[-96.4716800785965,41.4515031922191]},"isApproved":true,"items":[],"keys":["American (Traditional)"],"lastUpdated":1547527612452,"name":"Corner Cafe","phone":"(402) 652-8703","price":"$","reviewCount":7,"reviewScore":4,"meta":{"revision":0,"created":1547531154886,"version":0},"$loki":27},{"_id":"5c3d65bd3525a329e0c1a766","address":"9201 N 30th St","location":{"type":"Point","coordinates":[-96.4710229,41.450551]},"isApproved":true,"items":[],"keys":["Cafes"],"lastUpdated":1547527612866,"name":"OJ’s Cafe","phone":"(402) 451-3266","price":"$","reviewCount":25,"reviewScore":2,"meta":{"revision":0,"created":1547531154886,"version":0},"$loki":28},{"_id":"5c3d65bd3525a329e0c10ba2","address":"102 N Main St","location":{"type":"Point","coordinates":[-96.453663110733,41.4547166752524]},"isApproved":true,"items":[],"keys":["Mexican","Bars"],"lastUpdated":1547527612632,"name":"Fuentes De Jalisco Restaurant & Bar","phone":"","price":"","reviewCount":3,"reviewScore":3.5,"meta":{"revision":0,"created":1547531154886,"version":0},"$loki":29},{"_id":"5c3d65bd3525a329e0bffb0f","address":"500 S Main St","location":{"type":"Point","coordinates":[-96.45319,41.450685]},"isApproved":true,"items":[],"keys":["Cafes"],"lastUpdated":1547527612220,"name":"Vic’s Cafe","phone":"(402) 727-8353","price":"$","reviewCount":4,"reviewScore":4.5,"meta":{"revision":0,"created":1547531154886,"version":0},"$loki":30},{"_id":"5c3d65bd3525a329e0c022a0","address":"1740 North Bell Street","location":{"type":"Point","coordinates":[-96.4548939,41.4503617]},"isApproved":true,"items":[],"keys":["Pizza"],"lastUpdated":1547527612276,"name":"Papa Murphy’s","phone":"(402) 721-0077","price":"$","reviewCount":5,"reviewScore":4.5,"meta":{"revision":0,"created":1547531154886,"version":0},"$loki":31},{"_id":"5c3d65bd3525a329e0c007f7","address":"1058 E 23rd St","location":{"type":"Point","coordinates":[-96.454574,41.451154]},"isApproved":true,"items":[],"keys":["Fast Food"],"lastUpdated":1547527612228,"name":"Raising Cane’s Chicken Fingers","phone":"(402) 620-4827","price":"","reviewCount":2,"reviewScore":4.5,"meta":{"revision":0,"created":1547531154886,"version":0},"$loki":32},{"_id":"5c3d65bd3525a329e0c0379f","address":"309 E 12th St","location":{"type":"Point","coordinates":[-96.4562397,41.4507236]},"isApproved":true,"items":[],"keys":["Restaurants"],"lastUpdated":1547527612304,"name":"Burrito House","phone":"(402) 352-3369","price":"$","reviewCount":7,"reviewScore":5,"meta":{"revision":0,"created":1547531154886,"version":0},"$loki":33},{"_id":"5c3d65bd3525a329e0c00dd5","address":"1669 Washington St","location":{"type":"Point","coordinates":[-96.4566429,41.4507024]},"isApproved":true,"items":[],"keys":["Wine Tasting Room","Beer Bar","Pizza"],"lastUpdated":1547527612237,"name":"Heartland Tasting Room","phone":"(402) 533-8015","price":"","reviewCount":8,"reviewScore":5,"meta":{"revision":0,"created":1547531154886,"version":0},"$loki":34},{"_id":"5c3d65bd3525a329e0c1a401","address":"860 E 23rd St","location":{"type":"Point","coordinates":[-96.4580441,41.4508978]},"isApproved":true,"items":[],"keys":["Chinese"],"lastUpdated":1547527612859,"name":"Imperial Palace Express","phone":"(402) 721-6801","price":"$","reviewCount":4,"reviewScore":4,"meta":{"revision":0,"created":1547531154886,"version":0},"$loki":35},{"_id":"5c3d65bd3525a329e0c1a56e","address":"207 S Bell St","location":{"type":"Point","coordinates":[-96.495976,41.470458]},"isApproved":true,"items":[],"keys":["Seafood","Tacos","Juice Bars & Smoothies"],"lastUpdated":1547527612860,"name":"Tortilleria Anita Y Taqueria","phone":"(402) 721-8336","price":"$","reviewCount":24,"reviewScore":4.5,"meta":{"revision":0,"created":1547531154886,"version":0},"$loki":36},{"_id":"5c3d65bd3525a329e0c1797e","address":"1531 N Bell St","location":{"type":"Point","coordinates":[-96.496302,41.471181]},"isApproved":true,"items":[],"keys":["Delis","Bakeries","Grocery"],"lastUpdated":1547527612792,"name":"Baker’s","phone":"(402) 727-8622","price":"","reviewCount":1,"reviewScore":4,"meta":{"revision":0,"created":1547531154886,"version":0},"$loki":37},{"_id":"5c3d65bd3525a329e0c01a47","address":"970 Washington St","location":{"type":"Point","coordinates":[-96.5156585,41.4370554]},"isApproved":true,"items":[],"keys":["Burgers","Fast Food"],"lastUpdated":1547527612257,"name":"Burger King","phone":"(402) 533-2700","price":"$","reviewCount":3,"reviewScore":2.5,"meta":{"revision":0,"created":1547531154886,"version":0},"$loki":38},{"_id":"5c3d65bd3525a329e0c0858a","address":"1220 E 23rd St","location":{"type":"Point","coordinates":[-96.5156537,41.4370518]},"isApproved":true,"items":[],"keys":["Chicken Wings","Sports Bars","American (Traditional)"],"lastUpdated":1547527612427,"name":"Buffalo Wild Wings","phone":"(402) 727-7426","price":"$$","reviewCount":11,"reviewScore":2,"meta":{"revision":0,"created":1547531154886,"version":0},"$loki":39},{"_id":"5c3d65bd3525a329e0c0b26a","address":"2005 E 23rd Ave S","location":{"type":"Point","coordinates":[-96.4978531,41.4517699]},"isApproved":true,"items":[],"keys":["Burgers"],"lastUpdated":1547527612498,"name":"Burger King","phone":"(402) 727-6406","price":"","reviewCount":3,"reviewScore":1.5,"meta":{"revision":0,"created":1547531154886,"version":0},"$loki":40},{"_id":"5c3d65bd3525a329e0c14aa6","address":"515 N Broad St","location":{"type":"Point","coordinates":[-96.4993094,41.4517069]},"isApproved":true,"items":[],"keys":["American (Traditional)"],"lastUpdated":1547527612728,"name":"Bella’s Broad Street Diner","phone":"(402) 816-4259","price":"$","reviewCount":6,"reviewScore":3.5,"meta":{"revision":0,"created":1547531154886,"version":0},"$loki":41},{"_id":"5c3d65bd3525a329e0c194fb","address":"2700 N Diers Pkwy","location":{"type":"Point","coordinates":[-96.4987719,41.434242]},"isApproved":true,"items":[],"keys":["American (Traditional)"],"lastUpdated":1547527612840,"name":"Penny’s Diner","phone":"(402) 721-3700","price":"$","reviewCount":15,"reviewScore":2,"meta":{"revision":0,"created":1547531154886,"version":0},"$loki":42},{"_id":"5c3d65bd3525a329e0c0b816","address":"9229 Mormon Bridge Plz","location":{"type":"Point","coordinates":[-96.4988252,41.4355055]},"isApproved":true,"items":[],"keys":["American (Traditional)"],"lastUpdated":1547527612506,"name":"Tussey’s Casual Grill","phone":"(402) 884-2288","price":"$$","reviewCount":36,"reviewScore":4,"meta":{"revision":0,"created":1547531154886,"version":0},"$loki":43},{"_id":"5c3d65bd3525a329e0c0efc2","address":"2155 E 23rd Ave S","location":{"type":"Point","coordinates":[-96.4969959,41.4355198]},"isApproved":true,"items":[],"keys":["Pizza","Chicken Wings","Sandwiches"],"lastUpdated":1547527612589,"name":"Domino’s Pizza","phone":"(402) 721-1444","price":"","reviewCount":3,"reviewScore":3.5,"meta":{"revision":0,"created":1547531154886,"version":0},"$loki":44},{"_id":"5c3d65bd3525a329e0c02f29","address":"3420 E Elk Ln","location":{"type":"Point","coordinates":[-96.4950109,41.4338651]},"isApproved":true,"items":[],"keys":["Sports Bars","Burgers","American (Traditional)"],"lastUpdated":1547527612295,"name":"Applebee’s Grill + Bar","phone":"(402) 753-0010","price":"$$","reviewCount":27,"reviewScore":2,"meta":{"revision":0,"created":1547531154886,"version":0},"$loki":45},{"_id":"5c3d65bd3525a329e0bffcf6","address":"102 W Main St","location":{"type":"Point","coordinates":[-96.4959162,41.4331292]},"isApproved":true,"items":[],"keys":["American (New)"],"lastUpdated":1547527612221,"name":"Todd’s Tavern and Cafe","phone":"(402) 628-2202","price":"$","reviewCount":2,"reviewScore":4.5,"meta":{"revision":0,"created":1547531154886,"version":0},"$loki":46},{"_id":"5c3d65bd3525a329e0c03101","address":"1410 E 23rd St","location":{"type":"Point","coordinates":[-96.4959162,41.4331292]},"isApproved":true,"items":[],"keys":["Sushi Bars","Japanese","Steakhouses"],"lastUpdated":1547527612295,"name":"Ninja Steak & Sushi house","phone":"(402) 936-4801","price":"$$","reviewCount":33,"reviewScore":3.5,"meta":{"revision":0,"created":1547531154886,"version":0},"$loki":47},{"_id":"5c3d65bd3525a329e0c0dee1","address":"103 N Willow Rd","location":{"type":"Point","coordinates":[-96.4960204,41.4330259]},"isApproved":true,"items":[],"keys":["Breakfast & Brunch","Cafes"],"lastUpdated":1547527612564,"name":"Cornstalk Cafe","phone":"(712) 642-2623","price":"","reviewCount":7,"reviewScore":4.5,"meta":{"revision":0,"created":1547531154886,"version":0},"$loki":48},{"_id":"5c3d65bd3525a329e0c08292","address":"1769 Washington St","location":{"type":"Point","coordinates":[-96.4971033,41.4345226]},"isApproved":true,"items":[],"keys":["Salad","Pizza","Sandwiches"],"lastUpdated":1547527612420,"name":"Butch’s Deli","phone":"(402) 426-5181","price":"$$","reviewCount":9,"reviewScore":4,"meta":{"revision":0,"created":1547531154886,"version":0},"$loki":49},{"_id":"5c3d65bd3525a329e0c13f58","address":"15835 Center West Hadan Dr","location":{"type":"Point","coordinates":[-96.4964926242828,41.4323225370509]},"isApproved":true,"items":[],"keys":["American (Traditional)","Bars"],"lastUpdated":1547527612707,"name":"The Warehouse","phone":"(402) 238-3000","price":"$","reviewCount":27,"reviewScore":3.5,"meta":{"revision":0,"created":1547531154886,"version":0},"$loki":50},{"_id":"5c3d65bd3525a329e0c092af","address":"1950 N Bell St","location":{"type":"Point","coordinates":[-96.4966243,41.4326218]},"isApproved":true,"items":[],"keys":["Mexican","Southern","American (Traditional)"],"lastUpdated":1547527612452,"name":"Gringos Cantina","phone":"(402) 727-6811","price":"$$","reviewCount":37,"reviewScore":3,"meta":{"revision":0,"created":1547531154886,"version":0},"$loki":51},{"_id":"5c3d65bd3525a329e0c0d4ea","address":"225 W Military Ave","location":{"type":"Point","coordinates":[-96.496291,41.4300846]},"isApproved":true,"items":[],"keys":["Ice Cream & Frozen Yogurt","Fast Food","Breakfast & Brunch"],"lastUpdated":1547527612547,"name":"Dick’s Zesto","phone":"(402) 721-0147","price":"$","reviewCount":10,"reviewScore":4.5,"meta":{"revision":0,"created":1547531154886,"version":0},"$loki":52},{"_id":"5c3d65bd3525a329e0c05692","address":"408 N Main St","location":{"type":"Point","coordinates":[-96.4971244,41.4261451]},"isApproved":true,"items":[],"keys":["Bars","American (Traditional)"],"lastUpdated":1547527612348,"name":"Sour Mash","phone":"(712) 645-2902","price":"","reviewCount":1,"reviewScore":4,"meta":{"revision":0,"created":1547531154886,"version":0},"$loki":53},{"_id":"5c3d65bd3525a329e0c0c21a","address":"3140 Elk Ln","location":{"type":"Point","coordinates":[-96.4967679,41.4266699]},"isApproved":true,"items":[],"keys":["Mexican"],"lastUpdated":1547527612517,"name":"La Hacienda","phone":"(402) 721-9909","price":"$$","reviewCount":24,"reviewScore":3.5,"meta":{"revision":0,"created":1547531154886,"version":0},"$loki":54},{"_id":"5c3d65bd3525a329e0c01502","address":"103 Willow Rd","location":{"type":"Point","coordinates":[-96.549979,41.610021]},"isApproved":true,"items":[],"keys":["Diners"],"lastUpdated":1547527612249,"name":"Cornstock Cafe","phone":"","price":"$","reviewCount":4,"reviewScore":3.5,"meta":{"revision":0,"created":1547531154886,"version":0},"$loki":55},{"_id":"5c3d65bd3525a329e0c14a29","address":"414 N Main St","location":{"type":"Point","coordinates":[-96.548132,41.611505]},"isApproved":true,"items":[],"keys":["Cafes","Sandwiches","Breakfast & Brunch"],"lastUpdated":1547527612728,"name":"Polymath Cyber Cafe","phone":"(402) 704-2020","price":"$","reviewCount":11,"reviewScore":4.5,"meta":{"revision":0,"created":1547531154886,"version":0},"$loki":56},{"_id":"5c3d65bd3525a329e0c14492","address":"4240 N Broad St","location":{"type":"Point","coordinates":[-96.548014,41.611127]},"isApproved":true,"items":[],"keys":["American (Traditional)","Burgers","Breakfast & Brunch"],"lastUpdated":1547527612714,"name":"Mel’s Diner","phone":"(402) 721-9779","price":"$","reviewCount":26,"reviewScore":4,"meta":{"revision":0,"created":1547531154886,"version":0},"$loki":57},{"_id":"5c3d65bd3525a329e0c111a3","address":"2849 335th St","location":{"type":"Point","coordinates":[-96.221022771888,41.7740367834574]},"isApproved":true,"items":[],"keys":["Steakhouses"],"lastUpdated":1547527612641,"name":"The Twisted Tail Steakhouse & Saloon","phone":"(712) 644-3942","price":"$$","reviewCount":35,"reviewScore":4.5,"meta":{"revision":0,"created":1547531154886,"version":0},"$loki":58},{"_id":"5c3d65bd3525a329e0c19508","address":"105 South 19th Street","location":{"type":"Point","coordinates":[-96.221689,41.7734959]},"isApproved":true,"items":[],"keys":["Tex-Mex","Fast Food","Mexican"],"lastUpdated":1547527612840,"name":"Taco Bell","phone":"(402) 533-9099","price":"","reviewCount":4,"reviewScore":2,"meta":{"revision":0,"created":1547531154886,"version":0},"$loki":59},{"_id":"5c3d65bd3525a329e0c0c347","address":"1420 Cuming St","location":{"type":"Point","coordinates":[-95.9468179,41.2789464]},"isApproved":true,"items":[],"keys":["Burgers","American (New)","American (Traditional)"],"lastUpdated":1547527612518,"name":"Burger Theory Omaha","phone":"(402) 449-2222","price":"$$","reviewCount":133,"reviewScore":3,"meta":{"revision":0,"created":1547531154886,"version":0},"$loki":60},{"_id":"5c3d65bd3525a329e0c06961","address":"225 N 12th St","location":{"type":"Point","coordinates":[-95.947277,41.2789745811695]},"isApproved":true,"items":[],"keys":["Chicken Wings","Burgers"],"lastUpdated":1547527612379,"name":"BurgerIM","phone":"(402) 502-2955","price":"","reviewCount":11,"reviewScore":3,"meta":{"revision":0,"created":1547531154886,"version":0},"$loki":61},{"_id":"5c3d65bd3525a329e0c01ad0","address":"902 Dodge St","location":{"type":"Point","coordinates":[-95.9470602,41.2809873]},"isApproved":true,"items":[],"keys":["American (New)","Bars","Burgers"],"lastUpdated":1547527612258,"name":"Local Beer, Patio and Kitchen","phone":"(402) 315-4301","price":"$$","reviewCount":233,"reviewScore":3.5,"meta":{"revision":0,"created":1547531154886,"version":0},"$loki":62},{"_id":"5c3d65bd3525a329e0c04424","address":"2221 Madison St","location":{"type":"Point","coordinates":[-95.9472564,41.2749496]},"isApproved":true,"items":[],"keys":["Cafes","Breakfast & Brunch"],"lastUpdated":1547527612322,"name":"AtomMik Cafe","phone":"(402) 291-0611","price":"","reviewCount":9,"reviewScore":2.5,"meta":{"revision":0,"created":1547531154886,"version":0},"$loki":63},{"_id":"5c3d65bd3525a329e0c03d29","address":"2960 E Elk Ln","location":{"type":"Point","coordinates":[-95.9647536,41.2644695]},"isApproved":true,"items":[],"keys":["Fast Food","Burgers","Ice Cream & Frozen Yogurt"],"lastUpdated":1547527612313,"name":"Sonic Drive-In","phone":"(402) 941-1122","price":"$","reviewCount":10,"reviewScore":2.5,"meta":{"revision":0,"created":1547531154886,"version":0},"$loki":64},{"_id":"5c3d65bd3525a329e0c13db4","address":"1702 Vinton St","location":{"type":"Point","coordinates":[-95.9647536,41.2644695]},"isApproved":true,"items":[],"keys":["Salvadoran","Honduran","Mexican"],"lastUpdated":1547527612706,"name":"Restaurant Y Pupuseria Salvadorena","phone":"(402) 502-2528","price":"$","reviewCount":17,"reviewScore":4,"meta":{"revision":0,"created":1547531154886,"version":0},"$loki":65},{"_id":"5c3d65bd3525a329e0c0a448","address":"4318 S 24th St","location":{"type":"Point","coordinates":[-95.9376222,41.2873875]},"isApproved":true,"items":[],"keys":["Mexican"],"lastUpdated":1547527612480,"name":"El Ranchito","phone":"(402) 731-9717","price":"$","reviewCount":11,"reviewScore":4.5,"meta":{"revision":0,"created":1547531154886,"version":0},"$loki":66},{"_id":"5c3d65bd3525a329e0c0f54e","address":"2419 Leavenworth St","location":{"type":"Point","coordinates":[-95.9369742,41.3030668]},"isApproved":true,"items":[],"keys":["American (Traditional)","Breakfast & Brunch"],"lastUpdated":1547527612592,"name":"11-Worth Cafe","phone":"(402) 346-6924","price":"$","reviewCount":289,"reviewScore":4.5,"meta":{"revision":0,"created":1547531154886,"version":0},"$loki":67},{"_id":"5c3d65bd3525a329e0c0e5b5","address":"1604 F St","location":{"type":"Point","coordinates":[-95.958082,41.328021]},"isApproved":true,"items":[],"keys":["Pizza","Italian","Chicken Wings"],"lastUpdated":1547527612573,"name":"Pizza Hut","phone":"(402) 352-5106","price":"","reviewCount":2,"reviewScore":1,"meta":{"revision":0,"created":1547531154886,"version":0},"$loki":68},{"_id":"5c3d65bd3525a329e0c1706b","address":"7601 N 30th St","location":{"type":"Point","coordinates":[-95.9583932161331,41.3279708621056]},"isApproved":true,"items":[],"keys":["Fast Food","Chicken Wings","Chicken Shop"],"lastUpdated":1547527612782,"name":"KFC","phone":"(402) 453-9700","price":"","reviewCount":4,"reviewScore":1.5,"meta":{"revision":0,"created":1547531154886,"version":0},"$loki":69},{"_id":"5c3d65bd3525a329e0c0f869","address":"330 W 23rd St","location":{"type":"Point","coordinates":[-95.959715,41.328258]},"isApproved":true,"items":[],"keys":["Chinese"],"lastUpdated":1547527612600,"name":"Brass Wok","phone":"(402) 721-3688","price":"$","reviewCount":17,"reviewScore":3.5,"meta":{"revision":0,"created":1547531154886,"version":0},"$loki":70},{"_id":"5c3d65bd3525a329e0c1a651","address":"1307 Washington St","location":{"type":"Point","coordinates":[-95.9601385,41.3361044]},"isApproved":true,"items":[],"keys":["Burgers","Fast Food"],"lastUpdated":1547527612860,"name":"Runza","phone":"(402) 533-2393","price":"$","reviewCount":6,"reviewScore":3.5,"meta":{"revision":0,"created":1547531154886,"version":0},"$loki":71},{"_id":"5c3d65bd3525a329e0c0a9a7","address":"504 S 13th St","location":{"type":"Point","coordinates":[-95.9610987,41.3375753]},"isApproved":true,"items":[],"keys":["Sandwiches","Fast Food"],"lastUpdated":1547527612482,"name":"Subway","phone":"(402) 808-7827","price":"","reviewCount":1,"reviewScore":3,"meta":{"revision":0,"created":1547531154886,"version":0},"$loki":72},{"_id":"5c3d65bd3525a329e0c11fdd","address":"929 Washington","location":{"type":"Point","coordinates":[-95.96125,41.338486]},"isApproved":true,"items":[],"keys":["Fast Food","Burgers","Coffee & Tea"],"lastUpdated":1547527612662,"name":"McDonald’s","phone":"(402) 426-4688","price":"$","reviewCount":5,"reviewScore":2.5,"meta":{"revision":0,"created":1547531154886,"version":0},"$loki":73},{"_id":"5c3d65bd3525a329e0c11b25","address":"226 Center St","location":{"type":"Point","coordinates":[-95.9601964,41.339486]},"isApproved":true,"items":[],"keys":["Restaurants"],"lastUpdated":1547527612652,"name":"Owl Cafe","phone":"(402) 986-1700","price":"","reviewCount":1,"reviewScore":3,"meta":{"revision":0,"created":1547531154886,"version":0},"$loki":74},{"_id":"5c3d65bd3525a329e0c0e09a","address":"7440 N 30th St","location":{"type":"Point","coordinates":[-95.966778,41.346628]},"isApproved":true,"items":[],"keys":["Barbeque","American (Traditional)"],"lastUpdated":1547527612564,"name":"Fat BBQ Shack","phone":"(402) 639-7275","price":"$$","reviewCount":119,"reviewScore":4,"meta":{"revision":0,"created":1547531154886,"version":0},"$loki":75},{"_id":"5c3d65bd3525a329e0c0b4bc","address":"124 Willow Rd","location":{"type":"Point","coordinates":[-95.9621301,41.3441708]},"isApproved":true,"items":[],"keys":["Sandwiches"],"lastUpdated":1547527612499,"name":"Subway","phone":"(712) 642-4777","price":"$","reviewCount":7,"reviewScore":2.5,"meta":{"revision":0,"created":1547531154886,"version":0},"$loki":76},{"_id":"5c3d65bd3525a329e0c02a4f","address":"7446 N 30th St","location":{"type":"Point","coordinates":[-95.957469,41.327168]},"isApproved":true,"items":[],"keys":["Pizza"],"lastUpdated":1547527612286,"name":"Little Caesar’s Pizza","phone":"(402) 932-2898","price":"$","reviewCount":3,"reviewScore":3.5,"meta":{"revision":0,"created":1547531154886,"version":0},"$loki":77},{"_id":"5c3d65bd3525a329e0c0d4c3","address":"1213 Howard St","location":{"type":"Point","coordinates":[-95.9473063,41.2992054]},"isApproved":true,"items":[],"keys":["Mexican","Bars"],"lastUpdated":1547527612547,"name":"Eat the Worm","phone":"(402) 614-4240","price":"$","reviewCount":116,"reviewScore":3.5,"meta":{"revision":0,"created":1547531154886,"version":0},"$loki":78},{"_id":"5c3d65bd3525a329e0c10507","address":"1900 E Military Ave","location":{"type":"Point","coordinates":[-95.9842715,41.3437036]},"isApproved":true,"items":[],"keys":["Delis"],"lastUpdated":1547527612618,"name":"Hero Deli","phone":"(402) 727-1333","price":"$","reviewCount":2,"reviewScore":3,"meta":{"revision":0,"created":1547531154886,"version":0},"$loki":79},{"_id":"5c3d65bd3525a329e0c18f60","address":"436 Main St","location":{"type":"Point","coordinates":[-95.985073,41.343908]},"isApproved":true,"items":[],"keys":["American (Traditional)","Bars","Chicken Wings"],"lastUpdated":1547527612832,"name":"Z’s Bar and Grill","phone":"(402) 664-3436","price":"$$","reviewCount":1,"reviewScore":2,"meta":{"revision":0,"created":1547531154886,"version":0},"$loki":80},{"_id":"5c3d65bd3525a329e0c00c62","address":"9520 Calhoun Rd","location":{"type":"Point","coordinates":[-95.9389625,41.3892408]},"isApproved":true,"items":[],"keys":["American (Traditional)","Sandwiches"],"lastUpdated":1547527612231,"name":"Finicky Franks","phone":"(402) 451-5555","price":"$$","reviewCount":64,"reviewScore":4,"meta":{"revision":0,"created":1547531154886,"version":0},"$loki":81},{"_id":"5c3d65bd3525a329e0c07d52","address":"23226 Centre Dr","location":{"type":"Point","coordinates":[-95.9389625,41.3892408]},"isApproved":true,"items":[],"keys":["Convenience Stores","Delis"],"lastUpdated":1547527612411,"name":"Lake Ohana Market","phone":"(712) 526-2412","price":"","reviewCount":2,"reviewScore":3,"meta":{"revision":0,"created":1547531154886,"version":0},"$loki":82},{"_id":"5c3d65bd3525a329e0c0d709","address":"1945 E Military Ave","location":{"type":"Point","coordinates":[-95.8800438074097,41.5591965326106]},"isApproved":true,"items":[],"keys":["Mexican","Pizza"],"lastUpdated":1547527612554,"name":"San Ann’a Pizza & Mexican","phone":"(402) 721-6146","price":"$$","reviewCount":15,"reviewScore":4,"meta":{"revision":0,"created":1547531154886,"version":0},"$loki":83},{"_id":"5c3d65bd3525a329e0c175f5","address":"3161 Joliet Ave","location":{"type":"Point","coordinates":[-95.894336,41.55594]},"isApproved":true,"items":[],"keys":["Fast Food","Burgers"],"lastUpdated":1547527612791,"name":"Burger King","phone":"(712) 642-3149","price":"$","reviewCount":8,"reviewScore":2,"meta":{"revision":0,"created":1547531154886,"version":0},"$loki":84},{"_id":"5c3d65bd3525a329e0c03dce","address":"8327 N 30th St","location":{"type":"Point","coordinates":[-95.8948982,41.5558761]},"isApproved":true,"items":[],"keys":["Breakfast & Brunch","American (Traditional)"],"lastUpdated":1547527612313,"name":"Harold’s Koffee House","phone":"(402) 451-9776","price":"$","reviewCount":95,"reviewScore":4.5,"meta":{"revision":0,"created":1547531154886,"version":0},"$loki":85},{"_id":"5c3d65bd3525a329e0c025e0","address":"105 E 6th St","location":{"type":"Point","coordinates":[-95.8927532,41.5566082]},"isApproved":true,"items":[],"keys":["Coffee & Tea","Cafes","Juice Bars & Smoothies"],"lastUpdated":1547527612278,"name":"The Milady Coffeehouse","phone":"(402) 206-2125","price":"$","reviewCount":9,"reviewScore":5,"meta":{"revision":0,"created":1547531154886,"version":0},"$loki":86},{"_id":"5c3d65bd3525a329e0c16b07","address":"345 N Main St","location":{"type":"Point","coordinates":[-96.0115823,41.6239079]},"isApproved":true,"items":[],"keys":["Delis"],"lastUpdated":1547527612773,"name":"Irv’s Deli & More","phone":"(402) 721-4787","price":"$$","reviewCount":13,"reviewScore":4,"meta":{"revision":0,"created":1547531154886,"version":0},"$loki":87},{"_id":"5c3d65bd3525a329e0c05239","address":"1540 E 23rd St.","location":{"type":"Point","coordinates":[-95.9210355,41.5491471]},"isApproved":true,"items":[],"keys":["Mexican","Tex-Mex","Fast Food"],"lastUpdated":1547527612346,"name":"Taco Bell","phone":"(402) 727-4097","price":"","reviewCount":3,"reviewScore":1.5,"meta":{"revision":0,"created":1547531154886,"version":0},"$loki":88},{"_id":"5c3d65bd3525a329e0c05e24","address":"204 W 23rd St","location":{"type":"Point","coordinates":[-95.9201663732529,41.5507017867385]},"isApproved":true,"items":[],"keys":["Burgers"],"lastUpdated":1547527612362,"name":"Burger King","phone":"(402) 721-8283","price":"","reviewCount":7,"reviewScore":2,"meta":{"revision":0,"created":1547531154886,"version":0},"$loki":89},{"_id":"5c3d65bd3525a329e0c125c9","address":"106 E Erie St","location":{"type":"Point","coordinates":[-95.8993212,41.5578629]},"isApproved":true,"items":[],"keys":["Convenience Stores","Pizza","Gas Stations"],"lastUpdated":1547527612671,"name":"Casey’s General Store","phone":"(712) 642-9425","price":"$","reviewCount":1,"reviewScore":4,"meta":{"revision":0,"created":1547531154886,"version":0},"$loki":90},{"_id":"5c3d65bd3525a329e0c00919","address":"1071 S Hwy 30","location":{"type":"Point","coordinates":[-95.8997246,41.5562119]},"isApproved":true,"items":[],"keys":["Pizza","Italian","Chicken Wings"],"lastUpdated":1547527612229,"name":"Pizza Hut","phone":"(402) 426-4006","price":"","reviewCount":5,"reviewScore":3.5,"meta":{"revision":0,"created":1547531154886,"version":0},"$loki":91},{"_id":"5c3d65bd3525a329e0c10666","address":"707 E 23rd St","location":{"type":"Point","coordinates":[-95.9110353794767,41.5511212098171]},"isApproved":true,"items":[],"keys":["Fast Food","Chicken Wings","Chicken Shop"],"lastUpdated":1547527612619,"name":"KFC","phone":"(402) 721-7720","price":"","reviewCount":2,"reviewScore":2,"meta":{"revision":0,"created":1547531154886,"version":0},"$loki":92},{"_id":"5c3d65bd3525a329e0c067c0","address":"1743 E Military Ave","location":{"type":"Point","coordinates":[-95.9130072726259,41.5507455566434]},"isApproved":true,"items":[],"keys":["Mexican"],"lastUpdated":1547527612378,"name":"Taco Smack","phone":"(402) 620-4361","price":"","reviewCount":3,"reviewScore":5,"meta":{"revision":0,"created":1547531154886,"version":0},"$loki":93},{"_id":"5c3d65bd3525a329e0c08db8","address":"406 E Lincoln Hwy","location":{"type":"Point","coordinates":[-95.9128651,41.5508119]},"isApproved":true,"items":[],"keys":["Mexican"],"lastUpdated":1547527612437,"name":"El Burrito Loco","phone":"(712) 642-2832","price":"","reviewCount":1,"reviewScore":5,"meta":{"revision":0,"created":1547531154886,"version":0},"$loki":94},{"_id":"5c3d65bd3525a329e0c0e7d8","address":"1059 Washington St","location":{"type":"Point","coordinates":[-95.9126471101927,41.5509243640925]},"isApproved":true,"items":[],"keys":["Convenience Stores","Pizza"],"lastUpdated":1547527612574,"name":"Casey’s General Stores","phone":"(402) 426-0155","price":"","reviewCount":3,"reviewScore":3.5,"meta":{"revision":0,"created":1547531154886,"version":0},"$loki":95},{"_id":"5c3d65bd3525a329e0c0e712","address":"435 E 23rd St","location":{"type":"Point","coordinates":[-95.9110702,41.5517411]},"isApproved":true,"items":[],"keys":["Fast Food","Burgers","Coffee & Tea"],"lastUpdated":1547527612574,"name":"McDonald’s","phone":"(402) 721-3818","price":"$","reviewCount":10,"reviewScore":2,"meta":{"revision":0,"created":1547531154886,"version":0},"$loki":96},{"_id":"5c3d65bd3525a329e0bff591","address":"103 S 14th St","location":{"type":"Point","coordinates":[-95.910802,41.5522403]},"isApproved":true,"items":[],"keys":["Restaurants"],"lastUpdated":1547527612217,"name":"Hard Ware Cafe","phone":"(402) 468-4880","price":"","reviewCount":1,"reviewScore":5,"meta":{"revision":0,"created":1547531154886,"version":0},"$loki":97},{"_id":"5c3d65bd3525a329e0c10013","address":"1250 Lincoln St","location":{"type":"Point","coordinates":[-96.026341,41.455569]},"isApproved":true,"items":[],"keys":["Seafood"],"lastUpdated":1547527612609,"name":"Kelley’s Fish & Seafood","phone":"(402) 426-3033","price":"","reviewCount":8,"reviewScore":5,"meta":{"revision":0,"created":1547531154886,"version":0},"$loki":98},{"_id":"5c3d65bd3525a329e0c117d8","address":"1755 North Bell St","location":{"type":"Point","coordinates":[-96.0261357007822,41.4556002103337]},"isApproved":true,"items":[],"keys":["Cafes"],"lastUpdated":1547527612650,"name":"Mac’s Cafe","phone":"(402) 620-4489","price":"$","reviewCount":31,"reviewScore":4,"meta":{"revision":0,"created":1547531154886,"version":0},"$loki":99},{"_id":"5c3d65bd3525a329e0c1a7c0","address":"1600 Washington St","location":{"type":"Point","coordinates":[-96.0261009,41.4554412]},"isApproved":true,"items":[],"keys":["Mexican"],"lastUpdated":1547527612867,"name":"Fernando’s Cafe & Cantina","phone":"(402) 533-4450","price":"$$","reviewCount":26,"reviewScore":3,"meta":{"revision":0,"created":1547531154886,"version":0},"$loki":100},{"_id":"5c3d65bd3525a329e0c18709","address":"10740 Serenity Ln","location":{"type":"Point","coordinates":[-96.2025438,41.4725861]},"isApproved":true,"items":[],"keys":["Steakhouses","American (Traditional)","Seafood"],"lastUpdated":1547527612821,"name":"The Driftwood Inn","phone":"(402) 426-5211","price":"$$$","reviewCount":9,"reviewScore":4,"meta":{"revision":0,"created":1547531154886,"version":0},"$loki":101},{"_id":"5c3d65bd3525a329e0c04347","address":"10270 Riverside Ln","location":{"type":"Point","coordinates":[-96.110907,41.596401]},"isApproved":true,"items":[],"keys":["American (Traditional)"],"lastUpdated":1547527612321,"name":"651 Grill","phone":"(402) 426-1900","price":"$$","reviewCount":7,"reviewScore":4,"meta":{"revision":0,"created":1547531154886,"version":0},"$loki":102},{"_id":"5c3d65bd3525a329e0c05690","address":"3220 Elk Ln","location":{"type":"Point","coordinates":[-96.141204,41.54338]},"isApproved":true,"items":[],"keys":["Delis","Sandwiches","Fast Food"],"lastUpdated":1547527612348,"name":"Jimmy John’s","phone":"(402) 721-0995","price":"","reviewCount":5,"reviewScore":4,"meta":{"revision":0,"created":1547531154886,"version":0},"$loki":103},{"_id":"5c3d65bd3525a329e0c18f07","address":"327 2nd St","location":{"type":"Point","coordinates":[-96.1390713,41.5433997]},"isApproved":true,"items":[],"keys":["American (New)","Steakhouses","Breakfast & Brunch"],"lastUpdated":1547527612831,"name":"Eat","phone":"(402) 693-2292","price":"$","reviewCount":18,"reviewScore":4.5,"meta":{"revision":0,"created":1547531154886,"version":0},"$loki":104},{"_id":"5c3d65bd3525a329e0c130dd","address":"2323 Laverna St","location":{"type":"Point","coordinates":[-96.137684,41.543562]},"isApproved":true,"items":[],"keys":["Sports Bars","Burgers","American (Traditional)"],"lastUpdated":1547527612688,"name":"Big Red Restaurant and Sports Bar","phone":"(402) 721-8545","price":"$","reviewCount":22,"reviewScore":3,"meta":{"revision":0,"created":1547531154886,"version":0},"$loki":105},{"_id":"5c3d65bd3525a329e0c17d81","address":"1995 Ridge View Rd","location":{"type":"Point","coordinates":[-96.1373319,41.5434076]},"isApproved":true,"items":[],"keys":["Mexican"],"lastUpdated":1547527612801,"name":"El Vallarta","phone":"(402) 533-8008","price":"$","reviewCount":23,"reviewScore":4,"meta":{"revision":0,"created":1547531154886,"version":0},"$loki":106},{"_id":"5c3d65bd3525a329e0c132a5","address":"101 S 14th St","location":{"type":"Point","coordinates":[-96.1368043720722,41.5437102955261]},"isApproved":true,"items":[],"keys":["American (Traditional)"],"lastUpdated":1547527612689,"name":"Longhorn Bar","phone":"(402) 468-5670","price":"$","reviewCount":14,"reviewScore":4,"meta":{"revision":0,"created":1547531154886,"version":0},"$loki":107},{"_id":"5c3d65bd3525a329e0c084a0","address":"3310 E Elk Ln","location":{"type":"Point","coordinates":[-96.1332734,41.544013]},"isApproved":true,"items":[],"keys":["Mexican","Fast Food"],"lastUpdated":1547527612426,"name":"Taco John’s","phone":"(402) 620-4385","price":"","reviewCount":3,"reviewScore":3.5,"meta":{"revision":0,"created":1547531154886,"version":0},"$loki":108},{"_id":"5c3d65bd3525a329e0c165f3","address":"312 2nd St","location":{"type":"Point","coordinates":[-96.1317826,41.5433926]},"isApproved":true,"items":[],"keys":["American (Traditional)","Steakhouses"],"lastUpdated":1547527612765,"name":"Nowhere Special","phone":"(402) 666-9252","price":"$","reviewCount":3,"reviewScore":4.5,"meta":{"revision":0,"created":1547531154886,"version":0},"$loki":109},{"_id":"5c3d65bd3525a329e0c04441","address":"121 N Main St","location":{"type":"Point","coordinates":[-96.136689,41.5439628]},"isApproved":true,"items":[],"keys":["American (New)"],"lastUpdated":1547527612322,"name":"The Office Bar & Grill","phone":"(402) 654-3373","price":"$$","reviewCount":6,"reviewScore":4.5,"meta":{"revision":0,"created":1547531154886,"version":0},"$loki":110},{"_id":"5c3d65bd3525a329e0c071ee","address":"1283 S Hwy 30","location":{"type":"Point","coordinates":[-96.1364558,41.5439902]},"isApproved":true,"items":[],"keys":["Chinese"],"lastUpdated":1547527612398,"name":"Mandarin House","phone":"(402) 426-8808","price":"","reviewCount":5,"reviewScore":4,"meta":{"revision":0,"created":1547531154886,"version":0},"$loki":111},{"_id":"5c3d65bd3525a329e0c19d2a","address":"2204 N Bell St","location":{"type":"Point","coordinates":[-96.1423847,41.5320927]},"isApproved":true,"items":[],"keys":["Barbeque"],"lastUpdated":1547527612850,"name":"Huey’s Smokehouse BBQ","phone":"(402) 727-0766","price":"$$","reviewCount":53,"reviewScore":4.5,"meta":{"revision":0,"created":1547531154886,"version":0},"$loki":112},{"_id":"5c3d65bd3525a329e0c15746","address":"209 E Erie St","location":{"type":"Point","coordinates":[-96.143509,41.529157]},"isApproved":true,"items":[],"keys":["American (Traditional)","Bars"],"lastUpdated":1547527612746,"name":"Loess Moose Bar & Grill","phone":"(712) 600-6441","price":"$$","reviewCount":5,"reviewScore":4,"meta":{"revision":0,"created":1547531154886,"version":0},"$loki":113},{"_id":"5c3d65bd3525a329e0c097c9","address":"E Hwy 30","location":{"type":"Point","coordinates":[-96.143909,41.520553]},"isApproved":true,"items":[],"keys":["American (New)"],"lastUpdated":1547527612461,"name":"Blair Marina","phone":"(402) 426-9940","price":"$$","reviewCount":7,"reviewScore":4.5,"meta":{"revision":0,"created":1547531154886,"version":0},"$loki":114},{"_id":"5c3d65bd3525a329e0c162fa","address":"1201 E 23rd St","location":{"type":"Point","coordinates":[-96.1420656,41.5245248]},"isApproved":true,"items":[],"keys":["Burgers"],"lastUpdated":1547527612763,"name":"Runza","phone":"(402) 727-8766","price":"$","reviewCount":10,"reviewScore":3.5,"meta":{"revision":0,"created":1547531154886,"version":0},"$loki":115},{"_id":"5c3d65bd3525a329e0c104c8","address":"243 N 3rd St","location":{"type":"Point","coordinates":[-96.1235632,41.5426834]},"isApproved":true,"items":[],"keys":["Lounges","American (Traditional)"],"lastUpdated":1547527612618,"name":"Our Place Restaurant & Lounge","phone":"(402) 478-4782","price":"","reviewCount":2,"reviewScore":2.5,"meta":{"revision":0,"created":1547531154886,"version":0},"$loki":116},{"_id":"5c3d65bd3525a329e0c0fd27","address":"1680 E 23rd St","location":{"type":"Point","coordinates":[-96.1269792,41.5440375]},"isApproved":true,"items":[],"keys":["Caterers","Italian","Pizza"],"lastUpdated":1547527612608,"name":"Valentino’s","phone":"(402) 727-7889","price":"$$","reviewCount":9,"reviewScore":2.5,"meta":{"revision":0,"created":1547531154886,"version":0},"$loki":117},{"_id":"5c3d65bd3525a329e0c05eec","address":"1653 Washington St","location":{"type":"Point","coordinates":[-96.1307267,41.5430794]},"isApproved":true,"items":[],"keys":["American (Traditional)"],"lastUpdated":1547527612367,"name":"Rivers Restaurant","phone":"(402) 426-2530","price":"","reviewCount":2,"reviewScore":4.5,"meta":{"revision":0,"created":1547531154886,"version":0},"$loki":118},{"_id":"5c3d65bd3525a329e0c030f7","address":"8608 N 30th St","location":{"type":"Point","coordinates":[-96.1260475,41.5440288]},"isApproved":true,"items":[],"keys":["Ice Cream & Frozen Yogurt","Fast Food"],"lastUpdated":1547527612295,"name":"Zesto Shoppe","phone":"(402) 451-0581","price":"$","reviewCount":15,"reviewScore":4,"meta":{"revision":0,"created":1547531154886,"version":0},"$loki":119},{"_id":"5c3d65bd3525a329e0c0098e","address":"1038 Washington St","location":{"type":"Point","coordinates":[-96.1252648383379,41.5432796353103]},"isApproved":true,"items":[],"keys":["Fast Food","Ice Cream & Frozen Yogurt"],"lastUpdated":1547527612229,"name":"Dairy Queen","phone":"(402) 426-4131","price":"$","reviewCount":6,"reviewScore":2,"meta":{"revision":0,"created":1547531154886,"version":0},"$loki":120},{"_id":"5c3d65bd3525a329e0c1b38a","address":"107 N Main St","location":{"type":"Point","coordinates":[-96.0975655,41.5880777]},"isApproved":true,"items":[],"keys":["Lounges","American (Traditional)","Mexican"],"lastUpdated":1547527612884,"name":"Iron Horse Food & Spirits","phone":"(402) 654-2111","price":"$","reviewCount":2,"reviewScore":4,"meta":{"revision":0,"created":1547531154886,"version":0},"$loki":121},{"_id":"5c3d65bd3525a329e0c07d1d","address":"255 N 3rd St","location":{"type":"Point","coordinates":[-96.3511122392521,41.4522798449769]},"isApproved":true,"items":[],"keys":["Breakfast & Brunch","Cafes","Coffee & Tea"],"lastUpdated":1547527612411,"name":"The Village Spoon Cafe & Catering","phone":"(402) 478-4410","price":"","reviewCount":3,"reviewScore":4.5,"meta":{"revision":0,"created":1547531154886,"version":0},"$loki":122},{"_id":"5c3d65bd3525a329e0c04a26","address":"105 W 2nd St","location":{"type":"Point","coordinates":[-96.3512892346675,41.4524640863772]},"isApproved":true,"items":[],"keys":["American (Traditional)"],"lastUpdated":1547527612331,"name":"Dew Drop Inn","phone":"(402) 427-7421","price":"$","reviewCount":5,"reviewScore":3.5,"meta":{"revision":0,"created":1547531154886,"version":0},"$loki":123},{"_id":"5c3d65bd3525a329e0c07852","address":"207 W Howard St","location":{"type":"Point","coordinates":[-96.1560868,41.3630389]},"isApproved":true,"items":[],"keys":["Burgers","Pizza","Hot Dogs"],"lastUpdated":1547527612408,"name":"Sweet & Saucy","phone":"(402) 654-2733","price":"","reviewCount":1,"reviewScore":4,"meta":{"revision":0,"created":1547531154886,"version":0},"$loki":124},{"_id":"5c3d65bd3525a329e0c0c078","address":"549 E 23rd St","location":{"type":"Point","coordinates":[-96.1599276,41.3716306]},"isApproved":true,"items":[],"keys":["Sandwiches","Fast Food"],"lastUpdated":1547527612516,"name":"Subway","phone":"(402) 727-7827","price":"","reviewCount":3,"reviewScore":2.5,"meta":{"revision":0,"created":1547531154886,"version":0},"$loki":125},{"_id":"5c3d65bd3525a329e0c08456","address":"15625 C W Hadan Dr","location":{"type":"Point","coordinates":[-96.1609426,41.3718688]},"isApproved":true,"items":[],"keys":["Pizza"],"lastUpdated":1547527612426,"name":"Godfather’s Pizza","phone":"(402) 575-5512","price":"$","reviewCount":3,"reviewScore":2.5,"meta":{"revision":0,"created":1547531154886,"version":0},"$loki":126},{"_id":"5c3d65bd3525a329e0c0cd3e","address":"7456 N 30th St","location":{"type":"Point","coordinates":[-96.1618338,41.3720744]},"isApproved":true,"items":[],"keys":["Chinese"],"lastUpdated":1547527612534,"name":"JH China","phone":"(402) 455-5555","price":"$$","reviewCount":2,"reviewScore":1,"meta":{"revision":0,"created":1547531154886,"version":0},"$loki":127},{"_id":"5c3d65bd3525a329e0c19c2e","address":"1658 Washington St","location":{"type":"Point","coordinates":[-96.1623926847356,41.3722273809995]},"isApproved":true,"items":[],"keys":["American (New)","Breakfast & Brunch"],"lastUpdated":1547527612850,"name":"Billy’s Blair Maple Cafe","phone":"(402) 426-7122","price":"$","reviewCount":8,"reviewScore":3,"meta":{"revision":0,"created":1547531154886,"version":0},"$loki":128}],"idIndex":[1,2,3,4,5,6,7,8,9,10,11,12,13,14,15,16,17,18,19,20,21,22,23,24,25,26,27,28,29,30,31,32,33,34,35,36,37,38,39,40,41,42,43,44,45,46,47,48,49,50,51,52,53,54,55,56,57,58,59,60,61,62,63,64,65,66,67,68,69,70,71,72,73,74,75,76,77,78,79,80,81,82,83,84,85,86,87,88,89,90,91,92,93,94,95,96,97,98,99,100,101,102,103,104,105,106,107,108,109,110,111,112,113,114,115,116,117,118,119,120,121,122,123,124,125,126,127,128],"binaryIndices":{},"constraints":null,"uniqueNames":[],"transforms":{},"objType":"restaurants","dirty":true,"cachedIndex":null,"cachedBinaryIndex":null,"cachedData":null,"adaptiveBinaryIndices":true,"transactional":false,"cloneObjects":false,"cloneMethod":"parse-stringify","asyncListeners":false,"disableMeta":false,"disableChangesApi":true,"disableDeltaChangesApi":true,"autoupdate":false,"serializableIndices":true,"ttl":null,"maxId":128,"DynamicViews":[],"events":{"insert":[],"update":[],"pre-insert":[],"pre-update":[],"close":[],"flushbuffer":[],"error":[],"delete":[null],"warning":[null]},"changes":[]}],"databaseVersion":1.5,"engineVersion":1.5,"autosave":false,"autosaveInterval":5000,"autosaveHandle":null,"throttledSaves":true,"options":{"serializationMethod":"normal","destructureDelimiter":"$<\n"},"persistenceMethod":"fs","persistenceAdapter":null,"verbose":false,"events":{"init":[null],"loaded":[],"flushChanges":[],"close":[],"changes":[],"warning":[]},"ENV":"NODEJS"}