{"filename":"-96.75-29.75","collections":[{"name":"restaurants","data":[{"_id":"5c3d65bd3525a329e0c18c66","address":"124 E S Main","location":{"type":"Point","coordinates":[-97.1072832,29.6865647]},"isApproved":true,"items":[],"keys":["French","Sushi Bars"],"lastUpdated":1547527612824,"name":"The Red Vault Bistro","phone":"(361) 865-3663","price":"$$$","reviewCount":56,"reviewScore":5,"meta":{"revision":0,"created":1547531148739,"version":0},"$loki":1},{"_id":"5c3d65bd3525a329e0c1aa75","address":"82 N Kessler Ave","location":{"type":"Point","coordinates":[-97.1072919666767,29.6878488634208]},"isApproved":true,"items":[],"keys":["Barbeque"],"lastUpdated":1547527612868,"name":"Oakridge Restaurant","phone":"(979) 743-6119","price":"$$","reviewCount":17,"reviewScore":2.5,"meta":{"revision":0,"created":1547531148739,"version":0},"$loki":2},{"_id":"5c3d65bd3525a329e0c08def","address":"110 W N Main St","location":{"type":"Point","coordinates":[-97.1089153,29.6879949]},"isApproved":true,"items":[],"keys":["Wine Bars","American (Traditional)"],"lastUpdated":1547527612437,"name":"Wine Haus","phone":"(361) 865-5050","price":"$$","reviewCount":15,"reviewScore":4.5,"meta":{"revision":0,"created":1547531148739,"version":0},"$loki":3},{"_id":"5c3d65bd3525a329e0c0a14f","address":"1500 E US Hwy 90","location":{"type":"Point","coordinates":[-97.103145,29.688501]},"isApproved":true,"items":[],"keys":["Cafes"],"lastUpdated":1547527612473,"name":"Jamie’s Cafe","phone":"(361) 772-4216","price":"$","reviewCount":7,"reviewScore":5,"meta":{"revision":0,"created":1547531148739,"version":0},"$loki":4},{"_id":"5c3d65bd3525a329e0c0b9e6","address":"1143 E Old Hwy 90","location":{"type":"Point","coordinates":[-97.093896,29.687611]},"isApproved":true,"items":[],"keys":["Mexican","Breakfast & Brunch"],"lastUpdated":1547527612507,"name":"El Gallo Tapatio Mexican Grill","phone":"(979) 505-0860","price":"$","reviewCount":7,"reviewScore":4.5,"meta":{"revision":0,"created":1547531148739,"version":0},"$loki":5},{"_id":"5c3d65bd3525a329e0c04402","address":"216 Middlebuster Rd","location":{"type":"Point","coordinates":[-97.102264,29.6978935]},"isApproved":true,"items":[],"keys":["Steakhouses"],"lastUpdated":1547527612321,"name":"GG Steaks & Spirits","phone":"(830) 519-0002","price":"$$","reviewCount":23,"reviewScore":3.5,"meta":{"revision":0,"created":1547531148739,"version":0},"$loki":6},{"_id":"5c3d65bd3525a329e0c06518","address":"1001 Hwy 90 E","location":{"type":"Point","coordinates":[-97.1018233411045,29.6979634020405]},"isApproved":true,"items":[],"keys":["Tacos"],"lastUpdated":1547527612377,"name":"Alvarado’s Tacos","phone":"(830) 788-6200","price":"","reviewCount":4,"reviewScore":4,"meta":{"revision":0,"created":1547531148739,"version":0},"$loki":7},{"_id":"5c3d65bd3525a329e0c18dc4","address":"1140 Invasion St","location":{"type":"Point","coordinates":[-97.103587,29.692816]},"isApproved":true,"items":[],"keys":["Hot Dogs"],"lastUpdated":1547527612831,"name":"Chili Dog Stand","phone":"(512) 396-0900","price":"$","reviewCount":31,"reviewScore":4.5,"meta":{"revision":0,"created":1547531148739,"version":0},"$loki":8},{"_id":"5c3d65bd3525a329e0c181e6","address":"119 E Hutchison St","location":{"type":"Point","coordinates":[-97.1038055902181,29.6951991714223]},"isApproved":true,"items":[],"keys":["Live/Raw Food","Seafood","Beer, Wine & Spirits"],"lastUpdated":1547527612809,"name":"Louie’s Oyster House & Beer Garden","phone":"(512) 878-8862","price":"$$","reviewCount":98,"reviewScore":3,"meta":{"revision":0,"created":1547531148739,"version":0},"$loki":9},{"_id":"5c3d65bd3525a329e0c0c489","address":"1709 St Joseph St","location":{"type":"Point","coordinates":[-97.1062293797515,29.6958884683835]},"isApproved":true,"items":[],"keys":["Burgers","Fast Food"],"lastUpdated":1547527612524,"name":"Whataburger","phone":"(830) 672-2881","price":"$","reviewCount":10,"reviewScore":2.5,"meta":{"revision":0,"created":1547531148739,"version":0},"$loki":10},{"_id":"5c3d65bd3525a329e0c17196","address":"1241 N State Hwy 95","location":{"type":"Point","coordinates":[-97.108023,29.700199]},"isApproved":true,"items":[],"keys":["Steakhouses"],"lastUpdated":1547527612782,"name":"Robert’s Steakhouse","phone":"(361) 865-3099","price":"$$","reviewCount":82,"reviewScore":4,"meta":{"revision":0,"created":1547531148739,"version":0},"$loki":11},{"_id":"5c3d65bd3525a329e0c16be8","address":"1338 E Court St","location":{"type":"Point","coordinates":[-96.900032,29.9115461]},"isApproved":true,"items":[],"keys":["Seafood","American (Traditional)"],"lastUpdated":1547527612773,"name":"1838 Grill","phone":"(830) 401-0980","price":"$$","reviewCount":25,"reviewScore":3.5,"meta":{"revision":0,"created":1547531148739,"version":0},"$loki":12},{"_id":"5c3d65bd3525a329e0c01b0c","address":"1425 E Court St","location":{"type":"Point","coordinates":[-96.9103936851025,29.9047892522297]},"isApproved":true,"items":[],"keys":["Pizza"],"lastUpdated":1547527612258,"name":"Papa John’s","phone":"(830) 549-5045","price":"","reviewCount":9,"reviewScore":2,"meta":{"revision":0,"created":1547531148739,"version":0},"$loki":13},{"_id":"5c3d65bd3525a329e0c11621","address":"1575 Ih 10 W","location":{"type":"Point","coordinates":[-96.9120186878553,29.9041630533772]},"isApproved":true,"items":[],"keys":["Southern","Seafood","Steakhouses"],"lastUpdated":1547527612649,"name":"Dixie Grille","phone":"(830) 379-6325","price":"$$","reviewCount":118,"reviewScore":3.5,"meta":{"revision":0,"created":1547531148739,"version":0},"$loki":14},{"_id":"5c3d65bd3525a329e0c11302","address":"322 Cheatham St","location":{"type":"Point","coordinates":[-96.9056116,29.9026916]},"isApproved":true,"items":[],"keys":["Wine Bars","Beer Gardens","Tapas/Small Plates"],"lastUpdated":1547527612642,"name":"Patio Dolcetto","phone":"(512) 366-3605","price":"$$","reviewCount":50,"reviewScore":4.5,"meta":{"revision":0,"created":1547531148739,"version":0},"$loki":15},{"_id":"5c3d65bd3525a329e0c11956","address":"427 W Kingsbury St","location":{"type":"Point","coordinates":[-96.9090179314763,29.9036134317207]},"isApproved":true,"items":[],"keys":["Italian","Pizza"],"lastUpdated":1547527612651,"name":"Rosie’s Pizza To Go","phone":"(830) 372-9998","price":"$","reviewCount":23,"reviewScore":3.5,"meta":{"revision":0,"created":1547531148739,"version":0},"$loki":16},{"_id":"5c3d65bd3525a329e0c06e83","address":"909 Hwy 80","location":{"type":"Point","coordinates":[-96.9091535,29.9044232]},"isApproved":true,"items":[],"keys":["Mexican","Tex-Mex"],"lastUpdated":1547527612387,"name":"Freebirds World Burrito","phone":"(512) 392-2072","price":"$","reviewCount":45,"reviewScore":3,"meta":{"revision":0,"created":1547531148739,"version":0},"$loki":17},{"_id":"5c3d65bd3525a329e0c0b6ba","address":"110 E Mlk","location":{"type":"Point","coordinates":[-96.8933049,29.9004901]},"isApproved":true,"items":[],"keys":["American (New)","Bars"],"lastUpdated":1547527612500,"name":"Industry","phone":"(512) 392-8686","price":"","reviewCount":50,"reviewScore":4,"meta":{"revision":0,"created":1547531148739,"version":0},"$loki":18},{"_id":"5c3d65bd3525a329e0c02eed","address":"202 W Kingsbury St","location":{"type":"Point","coordinates":[-96.897839,29.901799]},"isApproved":true,"items":[],"keys":["Mexican"],"lastUpdated":1547527612294,"name":"El Taco Tejano Cafe","phone":"(830) 379-1070","price":"$","reviewCount":11,"reviewScore":4.5,"meta":{"revision":0,"created":1547531148739,"version":0},"$loki":19},{"_id":"5c3d65bd3525a329e0c01dd0","address":"6623 Hwy 304","location":{"type":"Point","coordinates":[-96.878868,29.904253]},"isApproved":true,"items":[],"keys":["Burgers","Bars"],"lastUpdated":1547527612260,"name":"5R Bar & Grill","phone":"(830) 540-4409","price":"","reviewCount":1,"reviewScore":5,"meta":{"revision":0,"created":1547531148739,"version":0},"$loki":20},{"_id":"5c3d65bd3525a329e0c01d8b","address":"311 N Jefferson (Hwy 77N)","location":{"type":"Point","coordinates":[-96.87845,29.9076]},"isApproved":true,"items":[],"keys":["Fast Food","Ice Cream & Frozen Yogurt","Burgers"],"lastUpdated":1547527612259,"name":"Dairy Queen","phone":"(979) 968-5861","price":"$","reviewCount":8,"reviewScore":2.5,"meta":{"revision":0,"created":1547531148739,"version":0},"$loki":21},{"_id":"5c3d65bd3525a329e0c0dfe9","address":"700 E Pierce St","location":{"type":"Point","coordinates":[-96.878746,29.908624]},"isApproved":true,"items":[],"keys":["Pizza","Italian","Chicken Wings"],"lastUpdated":1547527612564,"name":"Pizza Hut","phone":"(830) 875-2451","price":"","reviewCount":9,"reviewScore":2,"meta":{"revision":0,"created":1547531148739,"version":0},"$loki":22},{"_id":"5c3d65bd3525a329e0c0de5d","address":"714 E Hopkins St","location":{"type":"Point","coordinates":[-96.8655642,29.9117777]},"isApproved":true,"items":[],"keys":["Chicken Shop","Fish & Chips"],"lastUpdated":1547527612563,"name":"Gill’s Fried Chicken","phone":"(512) 353-3911","price":"$","reviewCount":58,"reviewScore":3.5,"meta":{"revision":0,"created":1547531148739,"version":0},"$loki":23},{"_id":"5c3d65bd3525a329e0c060d7","address":"1100 State Park Rd","location":{"type":"Point","coordinates":[-96.877764,29.904877]},"isApproved":true,"items":[],"keys":["Cafes","Bakeries"],"lastUpdated":1547527612368,"name":"Delish Deliveries","phone":"(512) 359-0360","price":"","reviewCount":3,"reviewScore":4.5,"meta":{"revision":0,"created":1547531148739,"version":0},"$loki":24},{"_id":"5c3d65bd3525a329e0c102f0","address":"2315 S Interstate Hwy 35","location":{"type":"Point","coordinates":[-96.8758347,29.9049544]},"isApproved":true,"items":[],"keys":["Salad","Soup","Sandwiches"],"lastUpdated":1547527612617,"name":"Panera Bread","phone":"(512) 392-9909","price":"$$","reviewCount":56,"reviewScore":2.5,"meta":{"revision":0,"created":1547531148739,"version":0},"$loki":25},{"_id":"5c3d65bd3525a329e0c0a44e","address":"2041 S Interstate 35","location":{"type":"Point","coordinates":[-96.8739493,29.9066623]},"isApproved":true,"items":[],"keys":["Mexican"],"lastUpdated":1547527612480,"name":"Mexicana tacos","phone":"","price":"","reviewCount":2,"reviewScore":4,"meta":{"revision":0,"created":1547531148739,"version":0},"$loki":26},{"_id":"5c3d65bd3525a329e0c12e8d","address":"1134 S Colorado St","location":{"type":"Point","coordinates":[-96.8724409,29.9092681]},"isApproved":true,"items":[],"keys":["Food Trucks","Barbeque"],"lastUpdated":1547527612687,"name":"Thumper’s BBQ","phone":"(512) 466-0432","price":"$","reviewCount":10,"reviewScore":4,"meta":{"revision":0,"created":1547531148739,"version":0},"$loki":27},{"_id":"5c3d65bd3525a329e0c0c734","address":"1007 S Guadalupe St","location":{"type":"Point","coordinates":[-96.8704012819034,29.9092196918978]},"isApproved":true,"items":[],"keys":["Pizza","Chicken Wings","Sandwiches"],"lastUpdated":1547527612525,"name":"Domino’s Pizza","phone":"(830) 372-3070","price":"$","reviewCount":9,"reviewScore":2.5,"meta":{"revision":0,"created":1547531148739,"version":0},"$loki":28},{"_id":"5c3d65bd3525a329e0c0b16c","address":"2001 W State Hwy 71","location":{"type":"Point","coordinates":[-96.8735482349607,29.9006465153673]},"isApproved":true,"items":[],"keys":["Sports Bars","American (Traditional)"],"lastUpdated":1547527612497,"name":"Sammy’s Sports Grill","phone":"(979) 206-2211","price":"$$","reviewCount":26,"reviewScore":3.5,"meta":{"revision":0,"created":1547531148739,"version":0},"$loki":29},{"_id":"5c3d65bd3525a329e0c0c1be","address":"1300 HWY 123","location":{"type":"Point","coordinates":[-96.8763794,29.9046562]},"isApproved":true,"items":[],"keys":["Soul Food","Barbeque"],"lastUpdated":1547527612517,"name":"Keme’s BBQ and Soul Food","phone":"(512) 749-8898","price":"","reviewCount":1,"reviewScore":4,"meta":{"revision":0,"created":1547531148739,"version":0},"$loki":30},{"_id":"5c3d65bd3525a329e0c0f598","address":"1303 W Hopkins St","location":{"type":"Point","coordinates":[-96.839617,29.9099055]},"isApproved":true,"items":[],"keys":["Mexican"],"lastUpdated":1547527612593,"name":"M & M Taco Corner","phone":"(512) 392-9308","price":"$","reviewCount":11,"reviewScore":3.5,"meta":{"revision":0,"created":1547531148739,"version":0},"$loki":31},{"_id":"5c3d65bd3525a329e0c051be","address":"1005 E Kingsbury St","location":{"type":"Point","coordinates":[-96.8400857,29.9097203]},"isApproved":true,"items":[],"keys":["Mexican"],"lastUpdated":1547527612340,"name":"Taqueria Tequila Jalisco","phone":"(830) 372-4132","price":"$","reviewCount":14,"reviewScore":3.5,"meta":{"revision":0,"created":1547531148739,"version":0},"$loki":32},{"_id":"5c3d65bd3525a329e0c16c16","address":"1912 N Austin St","location":{"type":"Point","coordinates":[-96.8272336,29.9037473]},"isApproved":true,"items":[],"keys":["Mexican"],"lastUpdated":1547527612774,"name":"Noe’s Tacos","phone":"(830) 491-5319","price":"$","reviewCount":32,"reviewScore":5,"meta":{"revision":0,"created":1547531148739,"version":0},"$loki":33},{"_id":"5c3d65bd3525a329e0c17409","address":"405 Summit St","location":{"type":"Point","coordinates":[-96.8115992099047,29.850935296525]},"isApproved":true,"items":[],"keys":["Cafes","Burgers","Tacos"],"lastUpdated":1547527612789,"name":"Sirilo’s Cafe","phone":"(979) 743-3555","price":"","reviewCount":16,"reviewScore":4.5,"meta":{"revision":0,"created":1547531148739,"version":0},"$loki":34},{"_id":"5c3d65bd3525a329e0c11462","address":"510 W 5th St","location":{"type":"Point","coordinates":[-96.886438,29.68172]},"isApproved":true,"items":[],"keys":["Mexican"],"lastUpdated":1547527612643,"name":"Mari’s Tacos","phone":"(361) 594-8123","price":"$","reviewCount":5,"reviewScore":4,"meta":{"revision":0,"created":1547531148739,"version":0},"$loki":35},{"_id":"5c3d65bd3525a329e0c1359f","address":"7408 Mullins Prairie Lp","location":{"type":"Point","coordinates":[-96.8864572,29.6814777]},"isApproved":true,"items":[],"keys":["American (Traditional)","Pubs"],"lastUpdated":1547527612696,"name":"Mullins Prarie Store","phone":"(979) 247-4220","price":"","reviewCount":1,"reviewScore":5,"meta":{"revision":0,"created":1547531148739,"version":0},"$loki":36},{"_id":"5c3d65bd3525a329e0c171cf","address":"217 Kessler Ave","location":{"type":"Point","coordinates":[-96.9030753,29.6842838]},"isApproved":true,"items":[],"keys":["Desserts","Salad","Sandwiches"],"lastUpdated":1547527612783,"name":"The Garden Company","phone":"(979) 743-4677","price":"$$","reviewCount":138,"reviewScore":4.5,"meta":{"revision":0,"created":1547531148739,"version":0},"$loki":37},{"_id":"5c3d65bd3525a329e0c16edb","address":"641 E Hopkins","location":{"type":"Point","coordinates":[-96.9036090373993,29.6822971680761]},"isApproved":true,"items":[],"keys":["Restaurants"],"lastUpdated":1547527612781,"name":"Flaming Bird","phone":"","price":"$","reviewCount":10,"reviewScore":4,"meta":{"revision":0,"created":1547531148739,"version":0},"$loki":38},{"_id":"5c3d65bd3525a329e0c17f97","address":"317 N Ave E","location":{"type":"Point","coordinates":[-96.9060305,29.6800589]},"isApproved":true,"items":[],"keys":["Seafood","Pizza","Mexican"],"lastUpdated":1547527612802,"name":"Werner’s Restaurant and Catering","phone":"(361) 594-2928","price":"$$","reviewCount":50,"reviewScore":3,"meta":{"revision":0,"created":1547531148739,"version":0},"$loki":39},{"_id":"5c3d65bd3525a329e0c052e5","address":"50 N Kessler Ave","location":{"type":"Point","coordinates":[-96.9061143,29.681761]},"isApproved":true,"items":[],"keys":["Mexican"],"lastUpdated":1547527612346,"name":"Lucy Tequilas Mexican Bar & Grill","phone":"(979) 743-2474","price":"$$","reviewCount":49,"reviewScore":4,"meta":{"revision":0,"created":1547531148739,"version":0},"$loki":40},{"_id":"5c3d65bd3525a329e0c12fcc","address":"302 University Dr","location":{"type":"Point","coordinates":[-96.903087,29.689481]},"isApproved":true,"items":[],"keys":["Sandwiches"],"lastUpdated":1547527612688,"name":"Which Wich","phone":"(512) 396-4924","price":"$","reviewCount":32,"reviewScore":4.5,"meta":{"revision":0,"created":1547531148739,"version":0},"$loki":41},{"_id":"5c3d65bd3525a329e0c0d4cd","address":"106 N Main St","location":{"type":"Point","coordinates":[-96.902776187078,29.6846482981856]},"isApproved":true,"items":[],"keys":["Cafes","Women's Clothing"],"lastUpdated":1547527612547,"name":"LuLu’s Lunch Box","phone":"(512) 995-1470","price":"","reviewCount":8,"reviewScore":4.5,"meta":{"revision":0,"created":1547531148739,"version":0},"$loki":42},{"_id":"5c3d65bd3525a329e0c12c53","address":"1417 E Walnut St","location":{"type":"Point","coordinates":[-96.9022797,29.6855943]},"isApproved":true,"items":[],"keys":["Japanese","Salad","Sushi Bars"],"lastUpdated":1547527612680,"name":"Sakura","phone":"(830) 491-5383","price":"$$","reviewCount":33,"reviewScore":4.5,"meta":{"revision":0,"created":1547531148739,"version":0},"$loki":43},{"_id":"5c3d65bd3525a329e0c09da8","address":"1801 S Colorado St","location":{"type":"Point","coordinates":[-96.9023182243109,29.6855574427006]},"isApproved":true,"items":[],"keys":["Asian Fusion","Chinese","Vietnamese"],"lastUpdated":1547527612471,"name":"Kaze Grill House","phone":"(512) 668-3179","price":"","reviewCount":3,"reviewScore":4,"meta":{"revision":0,"created":1547531148739,"version":0},"$loki":44},{"_id":"5c3d65bd3525a329e0c157ae","address":"606 N Hwy 123 Byp","location":{"type":"Point","coordinates":[-96.9021056009741,29.6905439911429]},"isApproved":true,"items":[],"keys":["Burgers","American (Traditional)"],"lastUpdated":1547527612746,"name":"Kirby’s Korner Restaurant","phone":"(830) 379-6031","price":"$","reviewCount":84,"reviewScore":4,"meta":{"revision":0,"created":1547531148739,"version":0},"$loki":45},{"_id":"5c3d65bd3525a329e0c045b7","address":"4206 I-35","location":{"type":"Point","coordinates":[-96.902290329333,29.6911986068774]},"isApproved":true,"items":[],"keys":["Burgers","Fast Food"],"lastUpdated":1547527612328,"name":"Hat Creek Burger Company","phone":"(512) 667-9723","price":"$$","reviewCount":26,"reviewScore":4,"meta":{"revision":0,"created":1547531148739,"version":0},"$loki":46},{"_id":"5c3d65bd3525a329e0c10ce8","address":"202 E Market St","location":{"type":"Point","coordinates":[-96.9022742966706,29.6912268778314]},"isApproved":true,"items":[],"keys":["Chicken Wings","Beer Bar","Burgers"],"lastUpdated":1547527612633,"name":"Load Off Fanny’s","phone":"(512) 668-3131","price":"$","reviewCount":20,"reviewScore":5,"meta":{"revision":0,"created":1547531148739,"version":0},"$loki":47},{"_id":"5c3d65bd3525a329e0c017ce","address":"7902 Hwy 59 Business","location":{"type":"Point","coordinates":[-96.6744776,29.4940746]},"isApproved":true,"items":[],"keys":["Cafes"],"lastUpdated":1547527612250,"name":"Reyna’s Cafe","phone":"(979) 531-0880","price":"$","reviewCount":8,"reviewScore":4.5,"meta":{"revision":0,"created":1547531148739,"version":0},"$loki":48}],"idIndex":[1,2,3,4,5,6,7,8,9,10,11,12,13,14,15,16,17,18,19,20,21,22,23,24,25,26,27,28,29,30,31,32,33,34,35,36,37,38,39,40,41,42,43,44,45,46,47,48],"binaryIndices":{},"constraints":null,"uniqueNames":[],"transforms":{},"objType":"restaurants","dirty":true,"cachedIndex":null,"cachedBinaryIndex":null,"cachedData":null,"adaptiveBinaryIndices":true,"transactional":false,"cloneObjects":false,"cloneMethod":"parse-stringify","asyncListeners":false,"disableMeta":false,"disableChangesApi":true,"disableDeltaChangesApi":true,"autoupdate":false,"serializableIndices":true,"ttl":null,"maxId":48,"DynamicViews":[],"events":{"insert":[],"update":[],"pre-insert":[],"pre-update":[],"close":[],"flushbuffer":[],"error":[],"delete":[null],"warning":[null]},"changes":[]}],"databaseVersion":1.5,"engineVersion":1.5,"autosave":false,"autosaveInterval":5000,"autosaveHandle":null,"throttledSaves":true,"options":{"serializationMethod":"normal","destructureDelimiter":"$<\n"},"persistenceMethod":"fs","persistenceAdapter":null,"verbose":false,"events":{"init":[null],"loaded":[],"flushChanges":[],"close":[],"changes":[],"warning":[]},"ENV":"NODEJS"}