{"filename":"-97.5-30.75","collections":[{"name":"restaurants","data":[{"_id":"5c3d65bd3525a329e0c10bb5","address":"239 N Main St","location":{"type":"Point","coordinates":[-97.4364031,30.6378522]},"isApproved":true,"items":[],"keys":["Bakeries","Breakfast & Brunch"],"lastUpdated":1547527612632,"name":"Oak Leaf Bakery & Diner","phone":"(512) 543-5070","price":"","reviewCount":6,"reviewScore":5,"meta":{"revision":0,"created":1547531156372,"version":0},"$loki":1},{"_id":"5c3d65bd3525a329e0c10982","address":"9112 N Fm 908","location":{"type":"Point","coordinates":[-97.1389782,30.6916015]},"isApproved":true,"items":[],"keys":["Sports Bars","American (Traditional)","Venues & Event Spaces"],"lastUpdated":1547527612626,"name":"Apache Pass","phone":"(512) 862-3330","price":"","reviewCount":5,"reviewScore":3,"meta":{"revision":0,"created":1547531156372,"version":0},"$loki":2},{"_id":"5c3d65bd3525a329e0c1058a","address":"9132 N Fm 908","location":{"type":"Point","coordinates":[-97.1413196257178,30.6886615270235]},"isApproved":true,"items":[],"keys":["Bars","American (New)"],"lastUpdated":1547527612618,"name":"Apache Pass Icehouse","phone":"(512) 862-3330","price":"$$","reviewCount":19,"reviewScore":4,"meta":{"revision":0,"created":1547531156372,"version":0},"$loki":3},{"_id":"5c3d65bd3525a329e0c0cefd","address":"306 East Rancier Ave","location":{"type":"Point","coordinates":[-97.342194,30.980167]},"isApproved":true,"items":[],"keys":["Food","Mexican"],"lastUpdated":1547527612535,"name":"Antojitos La Pasadita Tx","phone":"(254) 432-1487","price":"","reviewCount":1,"reviewScore":5,"meta":{"revision":0,"created":1547531156372,"version":0},"$loki":4},{"_id":"5c3d65bd3525a329e0c0ba7e","address":"2904 S General Bruce Dr","location":{"type":"Point","coordinates":[-97.4206209182739,31.043540015096]},"isApproved":true,"items":[],"keys":["Mexican","Imported Food"],"lastUpdated":1547527612508,"name":"El Puerto de Jalisco","phone":"","price":"","reviewCount":2,"reviewScore":5,"meta":{"revision":0,"created":1547531156372,"version":0},"$loki":5},{"_id":"5c3d65bd3525a329e0c1a75b","address":"227 N Main St","location":{"type":"Point","coordinates":[-97.401363,30.880137]},"isApproved":true,"items":[],"keys":["American (Traditional)","Shaved Ice","Barbeque"],"lastUpdated":1547527612866,"name":"Coffield’s Shaved Ice Bistro","phone":"(512) 429-0910","price":"$$","reviewCount":7,"reviewScore":4,"meta":{"revision":0,"created":1547531156372,"version":0},"$loki":6},{"_id":"5c3d65bd3525a329e0c0cd1d","address":"125 E Clark St","location":{"type":"Point","coordinates":[-97.4275835540764,30.79529401482]},"isApproved":true,"items":[],"keys":["German"],"lastUpdated":1547527612534,"name":"Hausgarten Edelweiss","phone":"(512) 859-2323","price":"$$","reviewCount":27,"reviewScore":5,"meta":{"revision":0,"created":1547531156372,"version":0},"$loki":7},{"_id":"5c3d65bd3525a329e0bff4fc","address":"1607 N Travis Ave","location":{"type":"Point","coordinates":[-97.4273211,30.7949521]},"isApproved":true,"items":[],"keys":["Sushi Bars","Japanese","Chinese"],"lastUpdated":1547527612216,"name":"Hayashi Chinese - Japanese Restaurant","phone":"(254) 697-6869","price":"$","reviewCount":8,"reviewScore":4.5,"meta":{"revision":0,"created":1547531156372,"version":0},"$loki":8},{"_id":"5c3d65bd3525a329e0c19d2d","address":"1207 S Market St","location":{"type":"Point","coordinates":[-97.4276789874815,30.7923847230249]},"isApproved":true,"items":[],"keys":["Mexican"],"lastUpdated":1547527612850,"name":"Amigos Mexican Restaurant","phone":"(979) 279-2204","price":"$","reviewCount":22,"reviewScore":3,"meta":{"revision":0,"created":1547531156372,"version":0},"$loki":9},{"_id":"5c3d65bd3525a329e0c15438","address":"109 Royal St","location":{"type":"Point","coordinates":[-97.4410813,30.7172123]},"isApproved":true,"items":[],"keys":["American (Traditional)"],"lastUpdated":1547527612739,"name":"Ramble Garden and Farmhouse Grill","phone":"(254) 308-2006","price":"","reviewCount":24,"reviewScore":4.5,"meta":{"revision":0,"created":1547531156372,"version":0},"$loki":10},{"_id":"5c3d65bd3525a329e0c03b1d","address":"400 N Commerce St","location":{"type":"Point","coordinates":[-97.4425976933813,30.7178281360782]},"isApproved":true,"items":[],"keys":["Mexican"],"lastUpdated":1547527612312,"name":"Sonora Mexican Restaurant","phone":"(512) 859-3371","price":"","reviewCount":3,"reviewScore":4,"meta":{"revision":0,"created":1547531156372,"version":0},"$loki":11},{"_id":"5c3d65bd3525a329e0c11249","address":"1051 N Market St","location":{"type":"Point","coordinates":[-97.5145398,30.815336]},"isApproved":true,"items":[],"keys":["Diners","Breakfast & Brunch"],"lastUpdated":1547527612642,"name":"Penny’s Diner","phone":"(979) 279-5599","price":"$","reviewCount":57,"reviewScore":3,"meta":{"revision":0,"created":1547531156372,"version":0},"$loki":12},{"_id":"5c3d65bd3525a329e0c1a6d1","address":"9502 E Trimmer Rd","location":{"type":"Point","coordinates":[-97.691991,31.0238466]},"isApproved":true,"items":[],"keys":["Barbeque"],"lastUpdated":1547527612866,"name":"Big Hoss Bar-B-Que","phone":"(254) 699-4677","price":"$$","reviewCount":42,"reviewScore":3,"meta":{"revision":0,"created":1547531156372,"version":0},"$loki":13},{"_id":"5c3d65bd3525a329e0c07bbc","address":"8774 W Adams Ave","location":{"type":"Point","coordinates":[-97.5348151,30.9585803]},"isApproved":true,"items":[],"keys":["Steakhouses","Mexican"],"lastUpdated":1547527612410,"name":"Sol de Jalisco","phone":"(254) 780-2639","price":"$","reviewCount":13,"reviewScore":3.5,"meta":{"revision":0,"created":1547531156372,"version":0},"$loki":14},{"_id":"5c3d65bd3525a329e0c00a5a","address":"710 Hewitt Dr","location":{"type":"Point","coordinates":[-97.5335576,30.9594821]},"isApproved":true,"items":[],"keys":["Tex-Mex"],"lastUpdated":1547527612230,"name":"Taco Casa","phone":"(254) 420-2855","price":"$","reviewCount":21,"reviewScore":4,"meta":{"revision":0,"created":1547531156372,"version":0},"$loki":15},{"_id":"5c3d65bd3525a329e0c06f9e","address":"","location":{"type":"Point","coordinates":[-97.53410029696,30.9545505771432]},"isApproved":true,"items":[],"keys":["Food Trucks","Pizza"],"lastUpdated":1547527612388,"name":"900° Pizzeria mobile","phone":"","price":"$","reviewCount":13,"reviewScore":5,"meta":{"revision":0,"created":1547531156372,"version":0},"$loki":16},{"_id":"5c3d65bd3525a329e0c0d5bd","address":"613 E Central","location":{"type":"Point","coordinates":[-97.5347306717118,30.9550561744344]},"isApproved":true,"items":[],"keys":["American (Traditional)","Barbeque","Burgers"],"lastUpdated":1547527612548,"name":"Kerley’s BBQ By Angel","phone":"(254) 773-7373","price":"$","reviewCount":1,"reviewScore":3,"meta":{"revision":0,"created":1547531156372,"version":0},"$loki":17},{"_id":"5c3d65bd3525a329e0c072d4","address":"170 E Central Texas Expressway","location":{"type":"Point","coordinates":[-97.5348156,30.9549831]},"isApproved":true,"items":[],"keys":["American (Traditional)","Breakfast & Brunch","Burgers"],"lastUpdated":1547527612399,"name":"IHOP","phone":"(254) 526-7702","price":"$$","reviewCount":95,"reviewScore":2,"meta":{"revision":0,"created":1547531156372,"version":0},"$loki":18},{"_id":"5c3d65bd3525a329e0c113bb","address":"1000 Spring St","location":{"type":"Point","coordinates":[-97.5348156,30.9549831]},"isApproved":true,"items":[],"keys":["Fast Food"],"lastUpdated":1547527612642,"name":"Taco Bell","phone":"(254) 613-4787","price":"$","reviewCount":9,"reviewScore":3,"meta":{"revision":0,"created":1547531156372,"version":0},"$loki":19},{"_id":"5c3d65bd3525a329e0c0078f","address":"9301 N Hwy 317","location":{"type":"Point","coordinates":[-97.535917,30.952453]},"isApproved":true,"items":[],"keys":["Mexican","Breakfast & Brunch","Tapas/Small Plates"],"lastUpdated":1547527612228,"name":"Tapa Tapas","phone":"(254) 780-1920","price":"$","reviewCount":8,"reviewScore":5,"meta":{"revision":0,"created":1547531156372,"version":0},"$loki":20},{"_id":"5c3d65bd3525a329e0c0dbc1","address":"102 W 4th St","location":{"type":"Point","coordinates":[-97.535917,30.952453]},"isApproved":true,"items":[],"keys":["Burgers","Fast Food"],"lastUpdated":1547527612556,"name":"TX Burger - Cameron","phone":"(254) 697-4977","price":"$$","reviewCount":12,"reviewScore":3,"meta":{"revision":0,"created":1547531156372,"version":0},"$loki":21},{"_id":"5c3d65bd3525a329e0c15cb0","address":"106 E Fm 2410 Rd","location":{"type":"Point","coordinates":[-97.5371778,30.9543727]},"isApproved":true,"items":[],"keys":["Pizza"],"lastUpdated":1547527612755,"name":"Papa John’s Pizza","phone":"(254) 680-4111","price":"$$","reviewCount":7,"reviewScore":3,"meta":{"revision":0,"created":1547531156372,"version":0},"$loki":22},{"_id":"5c3d65bd3525a329e0c16d04","address":"203 Hewitt Dr","location":{"type":"Point","coordinates":[-97.5371778,30.9543727]},"isApproved":true,"items":[],"keys":["Pizza","Italian","Chicken Wings"],"lastUpdated":1547527612774,"name":"Pizza Hut","phone":"(254) 666-9999","price":"$","reviewCount":11,"reviewScore":2,"meta":{"revision":0,"created":1547531156372,"version":0},"$loki":23},{"_id":"5c3d65bd3525a329e0c00744","address":"7150 W Adams","location":{"type":"Point","coordinates":[-97.5358133259146,30.9573057838488]},"isApproved":true,"items":[],"keys":["Pizza","Italian","Chicken Wings"],"lastUpdated":1547527612227,"name":"Pizza Hut","phone":"(254) 295-0570","price":"$","reviewCount":11,"reviewScore":2.5,"meta":{"revision":0,"created":1547531156372,"version":0},"$loki":24},{"_id":"5c3d65bd3525a329e0c0e29d","address":"3213 E Central Texas Expy","location":{"type":"Point","coordinates":[-97.5358133259146,30.9573057838488]},"isApproved":true,"items":[],"keys":["Sandwiches","Delis","Salad"],"lastUpdated":1547527612566,"name":"Jason’s Deli","phone":"(254) 690-7888","price":"$","reviewCount":81,"reviewScore":4,"meta":{"revision":0,"created":1547531156372,"version":0},"$loki":25},{"_id":"5c3d65bd3525a329e0c0fdf0","address":"1501 E Hwy 190","location":{"type":"Point","coordinates":[-97.5364864313698,30.9497892414862]},"isApproved":true,"items":[],"keys":["American (New)"],"lastUpdated":1547527612608,"name":"Egg Town","phone":"(254) 518-8192","price":"","reviewCount":1,"reviewScore":1,"meta":{"revision":0,"created":1547531156372,"version":0},"$loki":26},{"_id":"5c3d65bd3525a329e0c0d29b","address":"100 N Church St","location":{"type":"Point","coordinates":[-97.5379603,30.9477352]},"isApproved":true,"items":[],"keys":["Bakeries","Salad","Sandwiches"],"lastUpdated":1547527612545,"name":"Lynette’s Church Street Bake Shoppe","phone":"(254) 947-4006","price":"","reviewCount":4,"reviewScore":5,"meta":{"revision":0,"created":1547531156372,"version":0},"$loki":27},{"_id":"5c3d65bd3525a329e0c18a9b","address":"4402 E Central Texas Expy","location":{"type":"Point","coordinates":[-97.5365499,30.9475217]},"isApproved":true,"items":[],"keys":["American (Traditional)"],"lastUpdated":1547527612823,"name":"Hallmark Restaurant","phone":"(254) 526-6050","price":"$","reviewCount":93,"reviewScore":3.5,"meta":{"revision":0,"created":1547531156372,"version":0},"$loki":28},{"_id":"5c3d65bd3525a329e0c036c6","address":"4110 S Clear Creek Rd","location":{"type":"Point","coordinates":[-97.5401466,30.9473162]},"isApproved":true,"items":[],"keys":["Caribbean"],"lastUpdated":1547527612303,"name":"Royal Caribbean Restaurant","phone":"(254) 616-1697","price":"$","reviewCount":40,"reviewScore":3.5,"meta":{"revision":0,"created":1547531156372,"version":0},"$loki":29},{"_id":"5c3d65bd3525a329e0c0e797","address":"4310 Zephyr Rd","location":{"type":"Point","coordinates":[-97.5360390543938,30.943100473799]},"isApproved":true,"items":[],"keys":["Asian Fusion","Burgers","Chicken Wings"],"lastUpdated":1547527612574,"name":"KMB Homemade Hamburgers","phone":"(254) 415-7927","price":"$$","reviewCount":30,"reviewScore":4.5,"meta":{"revision":0,"created":1547531156372,"version":0},"$loki":30},{"_id":"5c3d65bd3525a329e0c0a88a","address":"713 W Rancier Ave","location":{"type":"Point","coordinates":[-97.5371423,30.9424514]},"isApproved":true,"items":[],"keys":["Korean","Japanese"],"lastUpdated":1547527612482,"name":"Kimchi Hana","phone":"(254) 501-4900","price":"$$","reviewCount":31,"reviewScore":3.5,"meta":{"revision":0,"created":1547531156372,"version":0},"$loki":31},{"_id":"5c3d65bd3525a329e0c075a7","address":"2148 S US Hwy 77","location":{"type":"Point","coordinates":[-97.5343285,30.9425042]},"isApproved":true,"items":[],"keys":["Sandwiches"],"lastUpdated":1547527612401,"name":"Becky’s Sandwiches & More","phone":"(512) 446-6474","price":"","reviewCount":2,"reviewScore":4,"meta":{"revision":0,"created":1547531156372,"version":0},"$loki":32},{"_id":"5c3d65bd3525a329e0c07e98","address":"12492 E Highway 190","location":{"type":"Point","coordinates":[-97.5328687,30.9452409]},"isApproved":true,"items":[],"keys":["Mexican"],"lastUpdated":1547527612417,"name":"Taqueria Express Mexican Food","phone":"(512) 932-2488","price":"$","reviewCount":5,"reviewScore":5,"meta":{"revision":0,"created":1547531156372,"version":0},"$loki":33},{"_id":"5c3d65bd3525a329e0c12183","address":"Hwy 908 And 77","location":{"type":"Point","coordinates":[-97.5328687,30.9452409]},"isApproved":true,"items":[],"keys":["American (Traditional)","Sandwiches"],"lastUpdated":1547527612663,"name":"Beckys Sandwich","phone":"","price":"","reviewCount":2,"reviewScore":4.5,"meta":{"revision":0,"created":1547531156372,"version":0},"$loki":34},{"_id":"5c3d65bd3525a329e0c0ce5d","address":"205 West Rancier Ave St J","location":{"type":"Point","coordinates":[-97.5353921,30.9477136]},"isApproved":true,"items":[],"keys":["Barbeque","Soul Food","Comfort Food"],"lastUpdated":1547527612534,"name":"Butler’s BBQ","phone":"(254) 616-1816","price":"$","reviewCount":97,"reviewScore":4.5,"meta":{"revision":0,"created":1547531156372,"version":0},"$loki":35},{"_id":"5c3d65bd3525a329e0c1923f","address":"620 N Hwy 95","location":{"type":"Point","coordinates":[-97.5353921,30.9477136]},"isApproved":true,"items":[],"keys":["Bars","American (Traditional)","Sandwiches"],"lastUpdated":1547527612833,"name":"Lisa Lu’s Bar & Grill","phone":"(512) 808-8188","price":"$$","reviewCount":6,"reviewScore":5,"meta":{"revision":0,"created":1547531156372,"version":0},"$loki":36},{"_id":"5c3d65bd3525a329e0c08ae7","address":"417 N Main St","location":{"type":"Point","coordinates":[-97.5354309082031,30.9510955810547]},"isApproved":true,"items":[],"keys":["Bakeries","Cafes"],"lastUpdated":1547527612435,"name":"McCain’s Bakery & Cafe","phone":"(254) 947-3354","price":"$","reviewCount":64,"reviewScore":4,"meta":{"revision":0,"created":1547531156372,"version":0},"$loki":37},{"_id":"5c3d65bd3525a329e0c05941","address":"925 West Mcgregor Dr","location":{"type":"Point","coordinates":[-97.5153752,30.9551949]},"isApproved":true,"items":[],"keys":["Barbeque"],"lastUpdated":1547527612355,"name":"Coach’s Smoke - McGregor","phone":"(254) 236-0045","price":"$","reviewCount":34,"reviewScore":3.5,"meta":{"revision":0,"created":1547531156372,"version":0},"$loki":38},{"_id":"5c3d65bd3525a329e0c13cc7","address":"921 W Brown St","location":{"type":"Point","coordinates":[-97.5153752,30.9551949]},"isApproved":true,"items":[],"keys":["Breakfast & Brunch","Mexican"],"lastUpdated":1547527612705,"name":"Becky’s Taqueria and Catering","phone":"(979) 279-5131","price":"","reviewCount":5,"reviewScore":5,"meta":{"revision":0,"created":1547531156372,"version":0},"$loki":39},{"_id":"5c3d65bd3525a329e0c1a2e6","address":"90 Cove Terrace Shopping Ctr","location":{"type":"Point","coordinates":[-97.5153752,30.9551949]},"isApproved":true,"items":[],"keys":["Mexican"],"lastUpdated":1547527612858,"name":"El Tapatio","phone":"(254) 518-5994","price":"","reviewCount":3,"reviewScore":4,"meta":{"revision":0,"created":1547531156372,"version":0},"$loki":40},{"_id":"5c3d65bd3525a329e0bff496","address":"1524 Hewitt Dr","location":{"type":"Point","coordinates":[-97.4697058,31.0452473]},"isApproved":true,"items":[],"keys":["Fast Food"],"lastUpdated":1547527612216,"name":"Golden Chick","phone":"(254) 230-0266","price":"","reviewCount":15,"reviewScore":3,"meta":{"revision":0,"created":1547531156372,"version":0},"$loki":41},{"_id":"5c3d65bd3525a329e0c01cf8","address":"902 W Central Tx Expy","location":{"type":"Point","coordinates":[-97.4697058,31.0452473]},"isApproved":true,"items":[],"keys":["Chicken Wings"],"lastUpdated":1547527612259,"name":"Wingstop","phone":"(254) 501-3278","price":"$$","reviewCount":30,"reviewScore":3,"meta":{"revision":0,"created":1547531156372,"version":0},"$loki":42},{"_id":"5c3d65bd3525a329e0c02bc9","address":"3111 S 31st St","location":{"type":"Point","coordinates":[-97.4751091353499,31.0316494681766]},"isApproved":true,"items":[],"keys":["Mexican","Tex-Mex"],"lastUpdated":1547527612287,"name":"Casa Olé","phone":"(254) 778-5399","price":"$","reviewCount":40,"reviewScore":2.5,"meta":{"revision":0,"created":1547531156372,"version":0},"$loki":43},{"_id":"5c3d65bd3525a329e0c160c0","address":"1414 E 6th Ave","location":{"type":"Point","coordinates":[-97.476386,31.029971]},"isApproved":true,"items":[],"keys":["Burgers","Tex-Mex","Breakfast & Brunch"],"lastUpdated":1547527612756,"name":"Pablo’s Tex-Mex Restaurant","phone":"(254) 870-0005","price":"$$","reviewCount":22,"reviewScore":4.5,"meta":{"revision":0,"created":1547531156372,"version":0},"$loki":44},{"_id":"5c3d65bd3525a329e0c176f6","address":"102 W 4th St","location":{"type":"Point","coordinates":[-97.476386,31.029971]},"isApproved":true,"items":[],"keys":["Sandwiches","Fast Food","Delis"],"lastUpdated":1547527612791,"name":"Subway - Cameron","phone":"(254) 697-4977","price":"","reviewCount":1,"reviewScore":5,"meta":{"revision":0,"created":1547531156372,"version":0},"$loki":45},{"_id":"5c3d65bd3525a329e0c154be","address":"14 E Avenue A","location":{"type":"Point","coordinates":[-97.4460796,31.0576012]},"isApproved":true,"items":[],"keys":["Steakhouses","Seafood","Wine Bars"],"lastUpdated":1547527612745,"name":"Cheeves Bros Steak House","phone":"(254) 742-2300","price":"$$$","reviewCount":110,"reviewScore":4,"meta":{"revision":0,"created":1547531156372,"version":0},"$loki":46},{"_id":"5c3d65bd3525a329e0c0819e","address":"Neil St &amp; Hwy 35","location":{"type":"Point","coordinates":[-97.4466363787198,31.0578420839322]},"isApproved":true,"items":[],"keys":["Pizza","Italian","Chicken Wings"],"lastUpdated":1547527612419,"name":"Pizza Hut","phone":"(254) 933-3333","price":"$$","reviewCount":20,"reviewScore":2.5,"meta":{"revision":0,"created":1547531156372,"version":0},"$loki":47},{"_id":"5c3d65bd3525a329e0c0a965","address":"2012 S 57th","location":{"type":"Point","coordinates":[-97.4467549426572,31.0554247391427]},"isApproved":true,"items":[],"keys":["Fast Food","Burgers","Ice Cream & Frozen Yogurt"],"lastUpdated":1547527612482,"name":"Sonic Drive-In","phone":"(254) 778-0414","price":"$","reviewCount":7,"reviewScore":2.5,"meta":{"revision":0,"created":1547531156372,"version":0},"$loki":48},{"_id":"5c3d65bd3525a329e0c1b651","address":"510 Indian Trl","location":{"type":"Point","coordinates":[-97.4467549426572,31.0554247391427]},"isApproved":true,"items":[],"keys":["Sandwiches","Fast Food"],"lastUpdated":1547527612886,"name":"Subway","phone":"(254) 680-4228","price":"","reviewCount":5,"reviewScore":2.5,"meta":{"revision":0,"created":1547531156372,"version":0},"$loki":49},{"_id":"5c3d65bd3525a329e0c157c3","address":"201 N General Bruce Dr","location":{"type":"Point","coordinates":[-97.4541724,31.0527147]},"isApproved":true,"items":[],"keys":["Seafood","Fast Food"],"lastUpdated":1547527612747,"name":"Long John Silver’s","phone":"(254) 778-8553","price":"$","reviewCount":6,"reviewScore":2,"meta":{"revision":0,"created":1547531156372,"version":0},"$loki":50},{"_id":"5c3d65bd3525a329e0c0dcee","address":"5510 W Adams","location":{"type":"Point","coordinates":[-97.4550883066687,31.0517681389999]},"isApproved":true,"items":[],"keys":["Sandwiches","Fast Food"],"lastUpdated":1547527612563,"name":"Subway","phone":"(254) 773-2332","price":"$","reviewCount":3,"reviewScore":3,"meta":{"revision":0,"created":1547531156372,"version":0},"$loki":51},{"_id":"5c3d65bd3525a329e0c17e89","address":"5301 W Stan Schlueter Lp","location":{"type":"Point","coordinates":[-97.4550883066687,31.0517681389999]},"isApproved":true,"items":[],"keys":["Fast Food"],"lastUpdated":1547527612802,"name":"Jack In the Box","phone":"(254) 634-0924","price":"$","reviewCount":25,"reviewScore":2,"meta":{"revision":0,"created":1547531156372,"version":0},"$loki":52},{"_id":"5c3d65bd3525a329e0c0a5d2","address":"","location":{"type":"Point","coordinates":[-97.4546987190842,31.0523253474661]},"isApproved":true,"items":[],"keys":["Pizza"],"lastUpdated":1547527612481,"name":"Chuck E Cheese’s","phone":"","price":"$$","reviewCount":5,"reviewScore":3,"meta":{"revision":0,"created":1547531156372,"version":0},"$loki":53},{"_id":"5c3d65bd3525a329e0c18c17","address":"3113 S 31st St","location":{"type":"Point","coordinates":[-97.4546987190842,31.0523253474661]},"isApproved":true,"items":[],"keys":["Fast Food","Ice Cream & Frozen Yogurt","Burgers"],"lastUpdated":1547527612824,"name":"Dairy Queen","phone":"(254) 774-8740","price":"$","reviewCount":21,"reviewScore":2.5,"meta":{"revision":0,"created":1547531156372,"version":0},"$loki":54},{"_id":"5c3d65bd3525a329e0c0c156","address":"1601 W Adams","location":{"type":"Point","coordinates":[-97.4555312097072,31.0544034331946]},"isApproved":true,"items":[],"keys":["Fast Food","Burgers","Coffee & Tea"],"lastUpdated":1547527612517,"name":"McDonald’s","phone":"(254) 778-0314","price":"$","reviewCount":8,"reviewScore":1.5,"meta":{"revision":0,"created":1547531156372,"version":0},"$loki":55},{"_id":"5c3d65bd3525a329e0c152b8","address":"2902 Clear Creek Rd","location":{"type":"Point","coordinates":[-97.4555312097072,31.0544034331946]},"isApproved":true,"items":[],"keys":["Burgers","Fast Food"],"lastUpdated":1547527612737,"name":"Burger King","phone":"(866) 394-2493","price":"$","reviewCount":16,"reviewScore":2.5,"meta":{"revision":0,"created":1547531156372,"version":0},"$loki":56},{"_id":"5c3d65bd3525a329e0bffb97","address":"3111 S 31st St","location":{"type":"Point","coordinates":[-97.4570345878601,31.0548641387982]},"isApproved":true,"items":[],"keys":["American (Traditional)","Southern","Comfort Food"],"lastUpdated":1547527612220,"name":"Cotton Patch Cafe","phone":"(254) 771-3899","price":"$$","reviewCount":57,"reviewScore":3.5,"meta":{"revision":0,"created":1547531156372,"version":0},"$loki":57},{"_id":"5c3d65bd3525a329e0c02681","address":"1310 S Fort Hood St","location":{"type":"Point","coordinates":[-97.4558418,31.0538081]},"isApproved":true,"items":[],"keys":["Sports Bars","American (Traditional)","Dance Clubs"],"lastUpdated":1547527612284,"name":"MJ’s Bar & Grill","phone":"(254) 554-7008","price":"$","reviewCount":8,"reviewScore":3.5,"meta":{"revision":0,"created":1547531156372,"version":0},"$loki":58},{"_id":"5c3d65bd3525a329e0c02e50","address":"637 N Robinson","location":{"type":"Point","coordinates":[-97.4558418,31.0538081]},"isApproved":true,"items":[],"keys":["Restaurants"],"lastUpdated":1547527612294,"name":"Bushs Chicken","phone":"(254) 662-5749","price":"","reviewCount":7,"reviewScore":2,"meta":{"revision":0,"created":1547531156372,"version":0},"$loki":59},{"_id":"5c3d65bd3525a329e0c18826","address":"3111 S 31st St","location":{"type":"Point","coordinates":[-97.4593075,31.0546664]},"isApproved":true,"items":[],"keys":["Coffee & Tea","Sandwiches"],"lastUpdated":1547527612822,"name":"Peggy’s Coffee House","phone":"(254) 899-5305","price":"$","reviewCount":31,"reviewScore":4.5,"meta":{"revision":0,"created":1547531156372,"version":0},"$loki":60},{"_id":"5c3d65bd3525a329e0c140f8","address":"1708 E Veterans Memorial Blvd","location":{"type":"Point","coordinates":[-97.4592200150982,31.0552783495693]},"isApproved":true,"items":[],"keys":["Chinese"],"lastUpdated":1547527612707,"name":"Wok On Fire","phone":"(254) 690-0788","price":"$$","reviewCount":85,"reviewScore":3,"meta":{"revision":0,"created":1547531156372,"version":0},"$loki":61},{"_id":"5c3d65bd3525a329e0c1a437","address":"231 N Hewitt Dr","location":{"type":"Point","coordinates":[-97.4592200150982,31.0552783495693]},"isApproved":true,"items":[],"keys":["Barbeque"],"lastUpdated":1547527612859,"name":"Uncle Dan’s Rib House & Catering","phone":"(254) 666-3839","price":"$","reviewCount":20,"reviewScore":3.5,"meta":{"revision":0,"created":1547531156372,"version":0},"$loki":62},{"_id":"5c3d65bd3525a329e0c0f9e7","address":"5537 Farm To Market 439","location":{"type":"Point","coordinates":[-97.45765,31.05483]},"isApproved":true,"items":[],"keys":["Sandwiches","Fast Food"],"lastUpdated":1547527612601,"name":"Subway","phone":"(254) 939-9301","price":"$","reviewCount":4,"reviewScore":2,"meta":{"revision":0,"created":1547531156372,"version":0},"$loki":63},{"_id":"5c3d65bd3525a329e0c04ae4","address":"3608 SW Hk Dodgen Lp","location":{"type":"Point","coordinates":[-97.4535076745263,31.0548366989765]},"isApproved":true,"items":[],"keys":["Burgers"],"lastUpdated":1547527612331,"name":"Jack In the Box","phone":"(254) 742-0195","price":"$","reviewCount":8,"reviewScore":2.5,"meta":{"revision":0,"created":1547531156372,"version":0},"$loki":64},{"_id":"5c3d65bd3525a329e0c03aab","address":"608 East Central","location":{"type":"Point","coordinates":[-97.4527697335492,31.0549959298311]},"isApproved":true,"items":[],"keys":["Mexican","Tex-Mex","Fast Food"],"lastUpdated":1547527612311,"name":"Taco Bell","phone":"(254) 939-7465","price":"$","reviewCount":1,"reviewScore":1,"meta":{"revision":0,"created":1547531156372,"version":0},"$loki":65},{"_id":"5c3d65bd3525a329e0c0641a","address":"1001 E Highway 190","location":{"type":"Point","coordinates":[-97.451279,31.0558432]},"isApproved":true,"items":[],"keys":["Burgers","Fast Food"],"lastUpdated":1547527612371,"name":"Burger King","phone":"","price":"$","reviewCount":23,"reviewScore":1.5,"meta":{"revision":0,"created":1547531156372,"version":0},"$loki":66},{"_id":"5c3d65bd3525a329e0c0b8a1","address":"1401 Marlandwood Rd","location":{"type":"Point","coordinates":[-97.451279,31.0558432]},"isApproved":true,"items":[],"keys":["Burgers","Fast Food","Ice Cream & Frozen Yogurt"],"lastUpdated":1547527612507,"name":"Sonic Drive-In","phone":"(254) 742-1777","price":"$","reviewCount":12,"reviewScore":2.5,"meta":{"revision":0,"created":1547531156372,"version":0},"$loki":67},{"_id":"5c3d65bd3525a329e0c18671","address":"911 N Hewitt Dr","location":{"type":"Point","coordinates":[-97.4509145499973,31.0559683938596]},"isApproved":true,"items":[],"keys":["Pizza"],"lastUpdated":1547527612815,"name":"Pappa Johns Pizza","phone":"(254) 420-0177","price":"","reviewCount":5,"reviewScore":2,"meta":{"revision":0,"created":1547531156372,"version":0},"$loki":68},{"_id":"5c3d65bd3525a329e0c099c7","address":"2222 Sh 22","location":{"type":"Point","coordinates":[-97.4502786067459,31.0558627730505]},"isApproved":true,"items":[],"keys":["Food Trucks","Barbeque"],"lastUpdated":1547527612463,"name":"Flores Barbecue","phone":"(254) 580-3576","price":"$$","reviewCount":28,"reviewScore":4.5,"meta":{"revision":0,"created":1547531156372,"version":0},"$loki":69},{"_id":"5c3d65bd3525a329e0c0b9c6","address":"3700 Clear Creek Rd","location":{"type":"Point","coordinates":[-97.4502786067459,31.0558627730505]},"isApproved":true,"items":[],"keys":["Burgers","Fast Food","Coffee & Tea"],"lastUpdated":1547527612507,"name":"McDonald’s","phone":"(254) 501-9165","price":"$","reviewCount":25,"reviewScore":2,"meta":{"revision":0,"created":1547531156372,"version":0},"$loki":70},{"_id":"5c3d65bd3525a329e0c19a23","address":"1515 Hewitt Dr","location":{"type":"Point","coordinates":[-97.455273,31.0607553]},"isApproved":true,"items":[],"keys":["Ice Cream & Frozen Yogurt","Burgers","Fast Food"],"lastUpdated":1547527612848,"name":"Freddy’s Frozen Custard & Steakburgers","phone":"(254) 732-0354","price":"$","reviewCount":39,"reviewScore":3.5,"meta":{"revision":0,"created":1547531156372,"version":0},"$loki":71},{"_id":"5c3d65bd3525a329e0c0458f","address":"201 E Central Texas Expy","location":{"type":"Point","coordinates":[-97.4562017,31.0607558]},"isApproved":true,"items":[],"keys":["Mexican","Fast Food"],"lastUpdated":1547527612328,"name":"Chipotle Mexican Grill","phone":"(254) 690-1676","price":"$","reviewCount":43,"reviewScore":3.5,"meta":{"revision":0,"created":1547531156372,"version":0},"$loki":72},{"_id":"5c3d65bd3525a329e0c07738","address":"2102 SW Hk Dodgen Lp","location":{"type":"Point","coordinates":[-97.4562017,31.0607558]},"isApproved":true,"items":[],"keys":["Sandwiches","Salad","Delis"],"lastUpdated":1547527612402,"name":"McAlister’s Deli","phone":"(254) 742-1720","price":"$","reviewCount":35,"reviewScore":3.5,"meta":{"revision":0,"created":1547531156372,"version":0},"$loki":73},{"_id":"5c3d65bd3525a329e0c0383d","address":"2501 Airport Rd","location":{"type":"Point","coordinates":[-97.4566889113179,31.0607994287439]},"isApproved":true,"items":[],"keys":["Chinese","Sushi Bars"],"lastUpdated":1547527612304,"name":"Dynasty Chinese Restaurant","phone":"(254) 778-4434","price":"$$","reviewCount":149,"reviewScore":3.5,"meta":{"revision":0,"created":1547531156372,"version":0},"$loki":74},{"_id":"5c3d65bd3525a329e0c1404d","address":"102 E Ave D","location":{"type":"Point","coordinates":[-97.4566889113179,31.0607994287439]},"isApproved":true,"items":[],"keys":["International Grocery","Puerto Rican"],"lastUpdated":1547527612707,"name":"Killeen Nutritional Center","phone":"(254) 634-0022","price":"$","reviewCount":13,"reviewScore":4.5,"meta":{"revision":0,"created":1547531156372,"version":0},"$loki":75},{"_id":"5c3d65bd3525a329e0c0022e","address":"6934 FM2305","location":{"type":"Point","coordinates":[-97.456666,31.0600067]},"isApproved":true,"items":[],"keys":["Fast Food"],"lastUpdated":1547527612225,"name":"Burger King","phone":"(254) 742-2018","price":"","reviewCount":4,"reviewScore":2,"meta":{"revision":0,"created":1547531156372,"version":0},"$loki":76},{"_id":"5c3d65bd3525a329e0c15c5b","address":"2509 Trimmier Rd","location":{"type":"Point","coordinates":[-97.456666,31.0600067]},"isApproved":true,"items":[],"keys":["Burgers","Fast Food"],"lastUpdated":1547527612754,"name":"Whataburger","phone":"(254) 526-0225","price":"$","reviewCount":45,"reviewScore":3,"meta":{"revision":0,"created":1547531156372,"version":0},"$loki":77},{"_id":"5c3d65bd3525a329e0c02a06","address":"413 N 10th St","location":{"type":"Point","coordinates":[-97.4595108032227,31.0686664581299]},"isApproved":true,"items":[],"keys":["Mediterranean"],"lastUpdated":1547527612286,"name":"Gyro Stop","phone":"(254) 628-7734","price":"$","reviewCount":33,"reviewScore":4.5,"meta":{"revision":0,"created":1547531156372,"version":0},"$loki":78},{"_id":"5c3d65bd3525a329e0c18ab8","address":"1421 Live Oak","location":{"type":"Point","coordinates":[-97.4595108032227,31.0686664581299]},"isApproved":true,"items":[],"keys":["Burgers","Fast Food","Ice Cream & Frozen Yogurt"],"lastUpdated":1547527612823,"name":"Dairy Queen","phone":"(254) 883-3221","price":"","reviewCount":1,"reviewScore":1,"meta":{"revision":0,"created":1547531156372,"version":0},"$loki":79},{"_id":"5c3d65bd3525a329e0c0b6a8","address":"212 W Adams Ave","location":{"type":"Point","coordinates":[-97.4625821,31.0589019]},"isApproved":true,"items":[],"keys":["Fast Food"],"lastUpdated":1547527612500,"name":"Jack in The Box","phone":"(254) 774-1400","price":"$","reviewCount":6,"reviewScore":2,"meta":{"revision":0,"created":1547531156372,"version":0},"$loki":80},{"_id":"5c3d65bd3525a329e0c0c7e0","address":"201 E Central Texas","location":{"type":"Point","coordinates":[-97.4625821,31.0589019]},"isApproved":true,"items":[],"keys":["Chinese","Fast Food"],"lastUpdated":1547527612526,"name":"Panda Express","phone":"(254) 690-3120","price":"$","reviewCount":62,"reviewScore":2,"meta":{"revision":0,"created":1547531156372,"version":0},"$loki":81},{"_id":"5c3d65bd3525a329e0c0458b","address":"2102 S 31st St","location":{"type":"Point","coordinates":[-97.4651916068911,31.0530124284543]},"isApproved":true,"items":[],"keys":["Fast Food","Pizza"],"lastUpdated":1547527612328,"name":"MOD Pizza","phone":"(254) 598-2054","price":"$","reviewCount":81,"reviewScore":4,"meta":{"revision":0,"created":1547531156372,"version":0},"$loki":82},{"_id":"5c3d65bd3525a329e0c0a6d4","address":"219 Craik St","location":{"type":"Point","coordinates":[-97.463646492035,31.0561264741723]},"isApproved":true,"items":[],"keys":["Pizza","Italian","Chicken Wings"],"lastUpdated":1547527612481,"name":"Pizza Hut","phone":"(254) 883-9262","price":"","reviewCount":2,"reviewScore":3,"meta":{"revision":0,"created":1547531156372,"version":0},"$loki":83},{"_id":"5c3d65bd3525a329e0c0e4b5","address":"1504 E 190th Hwy","location":{"type":"Point","coordinates":[-97.463646492035,31.0561264741723]},"isApproved":true,"items":[],"keys":["Sandwiches","Burgers","American (Traditional)"],"lastUpdated":1547527612572,"name":"Black Meg 43","phone":"(254) 542-2643","price":"$","reviewCount":105,"reviewScore":3.5,"meta":{"revision":0,"created":1547531156372,"version":0},"$loki":84},{"_id":"5c3d65bd3525a329e0c0c89c","address":"31707 US-84","location":{"type":"Point","coordinates":[-97.4633282017516,31.0554182098682]},"isApproved":true,"items":[],"keys":["Salad","Soup","Sandwiches"],"lastUpdated":1547527612526,"name":"Fox’s Treats and Eats","phone":"(254) 840-7080","price":"","reviewCount":1,"reviewScore":5,"meta":{"revision":0,"created":1547531156372,"version":0},"$loki":85},{"_id":"5c3d65bd3525a329e0c0eb0d","address":"905 Farm To Market 2410","location":{"type":"Point","coordinates":[-97.4633282017516,31.0554182098682]},"isApproved":true,"items":[],"keys":["Hawaiian"],"lastUpdated":1547527612581,"name":"Keoni’s Hawaiian Kaukau Truck","phone":"(254) 251-5205","price":"","reviewCount":1,"reviewScore":5,"meta":{"revision":0,"created":1547531156372,"version":0},"$loki":86},{"_id":"5c3d65bd3525a329e0c1a936","address":"601 Webster Ave","location":{"type":"Point","coordinates":[-97.462504,31.056983]},"isApproved":true,"items":[],"keys":["Creperies","Food Trucks"],"lastUpdated":1547527612867,"name":"Co-Town Crêpes","phone":"(254) 709-2113","price":"$","reviewCount":29,"reviewScore":4,"meta":{"revision":0,"created":1547531156372,"version":0},"$loki":87},{"_id":"5c3d65bd3525a329e0c1ae95","address":"2150 S Clear Creek Rd","location":{"type":"Point","coordinates":[-97.462504,31.056983]},"isApproved":true,"items":[],"keys":["Chicken Wings","Fast Food","Salad"],"lastUpdated":1547527612876,"name":"Zaxby’s Chicken Fingers & Buffalo Wings","phone":"(254) 213-6242","price":"$$","reviewCount":31,"reviewScore":3,"meta":{"revision":0,"created":1547531156372,"version":0},"$loki":88},{"_id":"5c3d65bd3525a329e0c0453a","address":"2904 E Stan Schlueter Lp","location":{"type":"Point","coordinates":[-97.4610827,31.0558105]},"isApproved":true,"items":[],"keys":["Southern","Soul Food"],"lastUpdated":1547527612323,"name":"Geechie’s Southern Style Restaurant","phone":"(254) 616-2444","price":"$$","reviewCount":36,"reviewScore":4,"meta":{"revision":0,"created":1547531156372,"version":0},"$loki":89},{"_id":"5c3d65bd3525a329e0c0a247","address":"221 SW H K Dodgen Lp","location":{"type":"Point","coordinates":[-97.4610827,31.0558105]},"isApproved":true,"items":[],"keys":["Vietnamese"],"lastUpdated":1547527612473,"name":"Pho 7","phone":"(254) 295-0225","price":"$","reviewCount":62,"reviewScore":4,"meta":{"revision":0,"created":1547531156372,"version":0},"$loki":90},{"_id":"5c3d65bd3525a329e0c0853e","address":"109 W Central Ave","location":{"type":"Point","coordinates":[-97.461617,31.056115]},"isApproved":true,"items":[],"keys":["Thai"],"lastUpdated":1547527612427,"name":"Thai Cafe","phone":"(254) 598-2799","price":"$$","reviewCount":54,"reviewScore":4.5,"meta":{"revision":0,"created":1547531156372,"version":0},"$loki":91},{"_id":"5c3d65bd3525a329e0c0bed4","address":"716 Indian Trl","location":{"type":"Point","coordinates":[-97.461617,31.056115]},"isApproved":true,"items":[],"keys":["Thai"],"lastUpdated":1547527612515,"name":"Little Thai","phone":"(254) 393-1301","price":"$$","reviewCount":82,"reviewScore":4.5,"meta":{"revision":0,"created":1547531156372,"version":0},"$loki":92},{"_id":"5c3d65bd3525a329e0c0c79e","address":"5304 W Elms Rd","location":{"type":"Point","coordinates":[-97.4623301,31.0555827]},"isApproved":true,"items":[],"keys":["Steakhouses","American (Traditional)"],"lastUpdated":1547527612526,"name":"Texas Steak Express","phone":"(254) 554-5577","price":"$$","reviewCount":39,"reviewScore":3,"meta":{"revision":0,"created":1547531156372,"version":0},"$loki":93},{"_id":"5c3d65bd3525a329e0c0a8ad","address":"841 N Main St","location":{"type":"Point","coordinates":[-97.4632778,31.0548244]},"isApproved":true,"items":[],"keys":["Food Trucks","Tacos"],"lastUpdated":1547527612482,"name":"Sylvia’s Tacos","phone":"(254) 421-7995","price":"$","reviewCount":10,"reviewScore":5,"meta":{"revision":0,"created":1547531156372,"version":0},"$loki":94},{"_id":"5c3d65bd3525a329e0c15eb4","address":"","location":{"type":"Point","coordinates":[-97.4632778,31.0548244]},"isApproved":true,"items":[],"keys":["German","Food Trucks"],"lastUpdated":1547527612755,"name":"The German Food Trailer","phone":"(719) 287-9830","price":"$","reviewCount":3,"reviewScore":5,"meta":{"revision":0,"created":1547531156372,"version":0},"$loki":95},{"_id":"5c3d65bd3525a329e0c08d06","address":"480 E Fm 2410 Rd","location":{"type":"Point","coordinates":[-97.463639,31.054917]},"isApproved":true,"items":[],"keys":["Bagels","Coffee & Tea","Delis"],"lastUpdated":1547527612436,"name":"Bite the Bagel","phone":"(254) 699-1502","price":"$","reviewCount":181,"reviewScore":4.5,"meta":{"revision":0,"created":1547531156372,"version":0},"$loki":96},{"_id":"5c3d65bd3525a329e0c11e24","address":"502 E Central Ave","location":{"type":"Point","coordinates":[-97.463639,31.054917]},"isApproved":true,"items":[],"keys":["Food Trucks","Cuban","Sandwiches"],"lastUpdated":1547527612661,"name":"The Cuban Corner","phone":"(254) 226-5726","price":"","reviewCount":5,"reviewScore":4,"meta":{"revision":0,"created":1547531156372,"version":0},"$loki":97},{"_id":"5c3d65bd3525a329e0c0b5e5","address":"51 Bright Ln","location":{"type":"Point","coordinates":[-97.4661761,31.0494818]},"isApproved":true,"items":[],"keys":["Chicken Wings","Fast Food"],"lastUpdated":1547527612499,"name":"Bush’s Chicken","phone":"","price":"$","reviewCount":4,"reviewScore":4.5,"meta":{"revision":0,"created":1547531156372,"version":0},"$loki":98},{"_id":"5c3d65bd3525a329e0c0d5f8","address":"126 E Beeline Ln","location":{"type":"Point","coordinates":[-97.466673,31.049713]},"isApproved":true,"items":[],"keys":["Turkish","Mediterranean","Food Trucks"],"lastUpdated":1547527612548,"name":"Instanbul Grill Food Truck","phone":"","price":"","reviewCount":3,"reviewScore":4,"meta":{"revision":0,"created":1547531156372,"version":0},"$loki":99},{"_id":"5c3d65bd3525a329e0c18b4a","address":"617 South 22nd St","location":{"type":"Point","coordinates":[-97.466673,31.049713]},"isApproved":true,"items":[],"keys":["Barbeque"],"lastUpdated":1547527612824,"name":"Its all good BBQ and More","phone":"(254) 228-5256","price":"$$","reviewCount":4,"reviewScore":4,"meta":{"revision":0,"created":1547531156372,"version":0},"$loki":100},{"_id":"5c3d65bd3525a329e0c051ba","address":"2608 N Main St","location":{"type":"Point","coordinates":[-97.4852514,31.0511464]},"isApproved":true,"items":[],"keys":["Pizza"],"lastUpdated":1547527612340,"name":"Papa John’s Pizza","phone":"(254) 933-3434","price":"$$","reviewCount":7,"reviewScore":3,"meta":{"revision":0,"created":1547531156372,"version":0},"$loki":101},{"_id":"5c3d65bd3525a329e0c19b90","address":"1046 S Fort Hood St","location":{"type":"Point","coordinates":[-97.5632661581039,31.0515061642286]},"isApproved":true,"items":[],"keys":["Thai","Seafood"],"lastUpdated":1547527612849,"name":"Tham Rab Thai","phone":"(254) 213-4744","price":"$$","reviewCount":144,"reviewScore":4,"meta":{"revision":0,"created":1547531156372,"version":0},"$loki":102}],"idIndex":[1,2,3,4,5,6,7,8,9,10,11,12,13,14,15,16,17,18,19,20,21,22,23,24,25,26,27,28,29,30,31,32,33,34,35,36,37,38,39,40,41,42,43,44,45,46,47,48,49,50,51,52,53,54,55,56,57,58,59,60,61,62,63,64,65,66,67,68,69,70,71,72,73,74,75,76,77,78,79,80,81,82,83,84,85,86,87,88,89,90,91,92,93,94,95,96,97,98,99,100,101,102],"binaryIndices":{},"constraints":null,"uniqueNames":[],"transforms":{},"objType":"restaurants","dirty":true,"cachedIndex":null,"cachedBinaryIndex":null,"cachedData":null,"adaptiveBinaryIndices":true,"transactional":false,"cloneObjects":false,"cloneMethod":"parse-stringify","asyncListeners":false,"disableMeta":false,"disableChangesApi":true,"disableDeltaChangesApi":true,"autoupdate":false,"serializableIndices":true,"ttl":null,"maxId":102,"DynamicViews":[],"events":{"insert":[],"update":[],"pre-insert":[],"pre-update":[],"close":[],"flushbuffer":[],"error":[],"delete":[null],"warning":[null]},"changes":[]}],"databaseVersion":1.5,"engineVersion":1.5,"autosave":false,"autosaveInterval":5000,"autosaveHandle":null,"throttledSaves":true,"options":{"serializationMethod":"normal","destructureDelimiter":"$<\n"},"persistenceMethod":"fs","persistenceAdapter":null,"verbose":false,"events":{"init":[null],"loaded":[],"flushChanges":[],"close":[],"changes":[],"warning":[]},"ENV":"NODEJS"}