{"filename":"-97.75-34.5","collections":[{"name":"restaurants","data":[{"_id":"5c3d65bd3525a329e0c0f231","address":"1003 W Hwy 7 Rd","location":{"type":"Point","coordinates":[-97.9688819287382,34.5948135070648]},"isApproved":true,"items":[],"keys":["Coffee & Tea","Food Stands"],"lastUpdated":1547527612591,"name":"The Bad Beaver","phone":"(580) 658-3739","price":"","reviewCount":1,"reviewScore":5,"meta":{"revision":0,"created":1547531149726,"version":0},"$loki":1},{"_id":"5c3d65bd3525a329e0c1994e","address":"130 SE Lee Blvd","location":{"type":"Point","coordinates":[-97.9688819287382,34.5948135070648]},"isApproved":true,"items":[],"keys":["American (Traditional)","Coffee & Tea","Breakfast & Brunch"],"lastUpdated":1547527612843,"name":"Wrights Family Diner","phone":"(580) 699-2900","price":"","reviewCount":2,"reviewScore":3,"meta":{"revision":0,"created":1547531149726,"version":0},"$loki":2},{"_id":"5c3d65bd3525a329e0c10919","address":"835 W Main St","location":{"type":"Point","coordinates":[-97.9689914845065,34.5848317474373]},"isApproved":true,"items":[],"keys":["American (Traditional)","Breakfast & Brunch","Southern"],"lastUpdated":1547527612625,"name":"Boomarang Diner","phone":"(580) 606-6990","price":"$","reviewCount":18,"reviewScore":4,"meta":{"revision":0,"created":1547531149726,"version":0},"$loki":3},{"_id":"5c3d65bd3525a329e0c1a99d","address":"1010 S Broadway St","location":{"type":"Point","coordinates":[-97.9689914845065,34.5848317474373]},"isApproved":true,"items":[],"keys":["Mexican"],"lastUpdated":1547527612868,"name":"El Campesino Mexican Restaurant","phone":"(580) 658-7000","price":"","reviewCount":2,"reviewScore":4,"meta":{"revision":0,"created":1547531149726,"version":0},"$loki":4},{"_id":"5c3d65bd3525a329e0c06bc6","address":"1209 W Bois D Arc Ave","location":{"type":"Point","coordinates":[-97.9661245,34.5451309]},"isApproved":true,"items":[],"keys":["Mexican"],"lastUpdated":1547527612385,"name":"El Palacio Mexican Restaurant","phone":"(580) 252-1314","price":"$$","reviewCount":10,"reviewScore":2.5,"meta":{"revision":0,"created":1547531149726,"version":0},"$loki":5},{"_id":"5c3d65bd3525a329e0c07330","address":"2002 N US Hwy 81","location":{"type":"Point","coordinates":[-97.9667284,34.5447286]},"isApproved":true,"items":[],"keys":["Sports Bars","Burgers","American (Traditional)"],"lastUpdated":1547527612399,"name":"Applebee’s Grill + Bar","phone":"(580) 475-0031","price":"$$","reviewCount":18,"reviewScore":2,"meta":{"revision":0,"created":1547531149726,"version":0},"$loki":6},{"_id":"5c3d65bd3525a329e0c0039e","address":"601 E Gore Blvd","location":{"type":"Point","coordinates":[-97.9675197350571,34.5336569958618]},"isApproved":true,"items":[],"keys":["American (Traditional)","Southern","Breakfast & Brunch"],"lastUpdated":1547527612226,"name":"Cracker Barrel Old Country Store","phone":"(580) 248-1477","price":"$$","reviewCount":69,"reviewScore":3.5,"meta":{"revision":0,"created":1547531149726,"version":0},"$loki":7},{"_id":"5c3d65bd3525a329e0c10d72","address":"1206 N Hwy 81","location":{"type":"Point","coordinates":[-97.9675197350571,34.5336569958618]},"isApproved":true,"items":[],"keys":["Mexican"],"lastUpdated":1547527612633,"name":"La Fiesta","phone":"(580) 470-8267","price":"$","reviewCount":21,"reviewScore":3.5,"meta":{"revision":0,"created":1547531149726,"version":0},"$loki":8},{"_id":"5c3d65bd3525a329e0c0f210","address":"1225 N Hwy 81","location":{"type":"Point","coordinates":[-97.9675387629186,34.5318619554797]},"isApproved":true,"items":[],"keys":["Sandwiches","Fast Food"],"lastUpdated":1547527612591,"name":"Subway","phone":"(580) 255-2225","price":"$","reviewCount":3,"reviewScore":3,"meta":{"revision":0,"created":1547531149726,"version":0},"$loki":9},{"_id":"5c3d65bd3525a329e0c0da47","address":"3401 NW Cache Rd","location":{"type":"Point","coordinates":[-97.9605774641869,34.5285521746504]},"isApproved":true,"items":[],"keys":["Sandwiches"],"lastUpdated":1547527612556,"name":"Jimmy John’s","phone":"(580) 699-7155","price":"$","reviewCount":13,"reviewScore":4,"meta":{"revision":0,"created":1547531149726,"version":0},"$loki":10},{"_id":"5c3d65bd3525a329e0c073ba","address":"7807 US 81","location":{"type":"Point","coordinates":[-97.9669862240553,34.5271864343071]},"isApproved":true,"items":[],"keys":["American (Traditional)","Bars","Burgers"],"lastUpdated":1547527612399,"name":"Aces Sports Grill","phone":"(580) 470-2199","price":"$$","reviewCount":3,"reviewScore":3,"meta":{"revision":0,"created":1547531149726,"version":0},"$loki":11},{"_id":"5c3d65bd3525a329e0c0776c","address":"3140 NW Cache Rd","location":{"type":"Point","coordinates":[-97.9669862240553,34.5271864343071]},"isApproved":true,"items":[],"keys":["Bowling","American (New)","Sports Bars"],"lastUpdated":1547527612402,"name":"Hog Pin Bowl & Sports Grill","phone":"(580) 699-8333","price":"$$","reviewCount":9,"reviewScore":2,"meta":{"revision":0,"created":1547531149726,"version":0},"$loki":12},{"_id":"5c3d65bd3525a329e0c18c34","address":"12672 State Hwy 53","location":{"type":"Point","coordinates":[-97.966454,34.529105]},"isApproved":true,"items":[],"keys":["Fast Food","Sandwiches"],"lastUpdated":1547527612824,"name":"Subway","phone":"(580) 653-2428","price":"$","reviewCount":3,"reviewScore":2.5,"meta":{"revision":0,"created":1547531149726,"version":0},"$loki":13},{"_id":"5c3d65bd3525a329e0c0910f","address":"510 N Hwy 81","location":{"type":"Point","coordinates":[-97.9674971886789,34.5283596126996]},"isApproved":true,"items":[],"keys":["Pizza"],"lastUpdated":1547527612446,"name":"Little Caesar’s Pizza","phone":"(580) 255-8888","price":"","reviewCount":1,"reviewScore":1,"meta":{"revision":0,"created":1547531149726,"version":0},"$loki":14},{"_id":"5c3d65bd3525a329e0c1504a","address":"116 S Highway 81","location":{"type":"Point","coordinates":[-97.9663317,34.5209678]},"isApproved":true,"items":[],"keys":["Restaurants"],"lastUpdated":1547527612736,"name":"Daybreak Diner","phone":"(580) 252-4545","price":"","reviewCount":2,"reviewScore":2.5,"meta":{"revision":0,"created":1547531149726,"version":0},"$loki":15},{"_id":"5c3d65bd3525a329e0c13303","address":"1206 N Hwy 81","location":{"type":"Point","coordinates":[-97.965442313368,34.5146902386367]},"isApproved":true,"items":[],"keys":["Mexican"],"lastUpdated":1547527612689,"name":"Cali Burrito","phone":"(580) 786-5072","price":"$","reviewCount":9,"reviewScore":4.5,"meta":{"revision":0,"created":1547531149726,"version":0},"$loki":16},{"_id":"5c3d65bd3525a329e0c07d67","address":"806 N Highway 81","location":{"type":"Point","coordinates":[-97.9672,34.5144]},"isApproved":true,"items":[],"keys":["Pizza","Chicken Wings","Sandwiches"],"lastUpdated":1547527612411,"name":"Domino’s Pizza","phone":"(580) 255-2555","price":"","reviewCount":4,"reviewScore":3,"meta":{"revision":0,"created":1547531149726,"version":0},"$loki":17},{"_id":"5c3d65bd3525a329e0c06296","address":"2111 N Highway 81","location":{"type":"Point","coordinates":[-97.967,34.51616]},"isApproved":true,"items":[],"keys":["Fast Food","Burgers","Ice Cream & Frozen Yogurt"],"lastUpdated":1547527612369,"name":"Sonic Drive-In","phone":"(580) 252-5900","price":"$","reviewCount":3,"reviewScore":2.5,"meta":{"revision":0,"created":1547531149726,"version":0},"$loki":18},{"_id":"5c3d65bd3525a329e0c16f7f","address":"1302 W Bois D Arc Ave","location":{"type":"Point","coordinates":[-97.9664699545971,34.5166392836734]},"isApproved":true,"items":[],"keys":["Delis","Ice Cream & Frozen Yogurt","Sandwiches"],"lastUpdated":1547527612781,"name":"Ron’s Ice Cream & Deli","phone":"(580) 475-8297","price":"","reviewCount":1,"reviewScore":5,"meta":{"revision":0,"created":1547531149726,"version":0},"$loki":19},{"_id":"5c3d65bd3525a329e0c0c1b3","address":"1210 N Hwy 81","location":{"type":"Point","coordinates":[-97.9666014741803,34.5176802449525]},"isApproved":true,"items":[],"keys":["Italian"],"lastUpdated":1547527612517,"name":"Napoli’s Italian Restaurant","phone":"(580) 475-0345","price":"$$","reviewCount":23,"reviewScore":3.5,"meta":{"revision":0,"created":1547531149726,"version":0},"$loki":20},{"_id":"5c3d65bd3525a329e0c14071","address":"1800 Country Club Rd","location":{"type":"Point","coordinates":[-97.9683400190066,34.5177036768455]},"isApproved":true,"items":[],"keys":["American (New)","Breakfast & Brunch"],"lastUpdated":1547527612707,"name":"Wishbone Scratch Kitchen","phone":"(580) 606-6034","price":"","reviewCount":3,"reviewScore":4,"meta":{"revision":0,"created":1547531149726,"version":0},"$loki":21},{"_id":"5c3d65bd3525a329e0c0cacd","address":"1209 N Hwy 81","location":{"type":"Point","coordinates":[-97.968494,34.517636]},"isApproved":true,"items":[],"keys":["Japanese"],"lastUpdated":1547527612533,"name":"Kyoto","phone":"(580) 470-8811","price":"$$","reviewCount":20,"reviewScore":4,"meta":{"revision":0,"created":1547531149726,"version":0},"$loki":22},{"_id":"5c3d65bd3525a329e0bff6ad","address":"1015 N Hwy 81","location":{"type":"Point","coordinates":[-97.9677153,34.5152582]},"isApproved":true,"items":[],"keys":["Sports Bars","American (Traditional)"],"lastUpdated":1547527612217,"name":"Driller’s Sports Bar and Grill","phone":"(580) 252-8080","price":"$$","reviewCount":5,"reviewScore":4,"meta":{"revision":0,"created":1547531149726,"version":0},"$loki":23},{"_id":"5c3d65bd3525a329e0c00302","address":"1235 N Hwy 81","location":{"type":"Point","coordinates":[-97.97321,34.52411]},"isApproved":true,"items":[],"keys":["Breakfast & Brunch"],"lastUpdated":1547527612225,"name":"Carl’s Jr.","phone":"(580) 255-4445","price":"","reviewCount":2,"reviewScore":3,"meta":{"revision":0,"created":1547531149726,"version":0},"$loki":24},{"_id":"5c3d65bd3525a329e0c0b691","address":"2024 N Hwy 81","location":{"type":"Point","coordinates":[-97.975989,34.52019]},"isApproved":true,"items":[],"keys":["Diners","Breakfast & Brunch"],"lastUpdated":1547527612500,"name":"Jimmy’s Egg","phone":"(580) 606-6942","price":"$$","reviewCount":16,"reviewScore":4,"meta":{"revision":0,"created":1547531149726,"version":0},"$loki":25},{"_id":"5c3d65bd3525a329e0c175f9","address":"1910 Hwy 81 N","location":{"type":"Point","coordinates":[-97.960735,34.5102776788289]},"isApproved":true,"items":[],"keys":["Pizza","Italian","Chicken Wings"],"lastUpdated":1547527612791,"name":"Pizza Hut","phone":"(580) 252-7011","price":"$","reviewCount":3,"reviewScore":2.5,"meta":{"revision":0,"created":1547531149726,"version":0},"$loki":26},{"_id":"5c3d65bd3525a329e0c0b38e","address":"101 Old US Hwy 81","location":{"type":"Point","coordinates":[-97.9685236583368,34.503771041979]},"isApproved":true,"items":[],"keys":["American (Traditional)"],"lastUpdated":1547527612498,"name":"Tastee’s","phone":"(580) 252-2558","price":"$","reviewCount":5,"reviewScore":4,"meta":{"revision":0,"created":1547531149726,"version":0},"$loki":27},{"_id":"5c3d65bd3525a329e0c0078a","address":"1314 N Hwy 81","location":{"type":"Point","coordinates":[-97.967533,34.504054]},"isApproved":true,"items":[],"keys":["Chinese","Buffets"],"lastUpdated":1547527612228,"name":"Buffet King Chinese Restaurant","phone":"(580) 255-5000","price":"$","reviewCount":3,"reviewScore":4,"meta":{"revision":0,"created":1547531149726,"version":0},"$loki":28},{"_id":"5c3d65bd3525a329e0c08152","address":"102 S Hwy 81","location":{"type":"Point","coordinates":[-97.9680133,34.5007441]},"isApproved":true,"items":[],"keys":["Pizza","Salad","Sandwiches"],"lastUpdated":1547527612419,"name":"Pizza-N-Stuff","phone":"(580) 255-5535","price":"$","reviewCount":3,"reviewScore":3,"meta":{"revision":0,"created":1547531149726,"version":0},"$loki":29},{"_id":"5c3d65bd3525a329e0c14041","address":"926 W Main St","location":{"type":"Point","coordinates":[-97.9594131,34.5018735]},"isApproved":true,"items":[],"keys":["Cafes"],"lastUpdated":1547527612707,"name":"The Merchant","phone":"(580) 786-4717","price":"$$","reviewCount":2,"reviewScore":5,"meta":{"revision":0,"created":1547531149726,"version":0},"$loki":30},{"_id":"5c3d65bd3525a329e0c0568b","address":"1306 N Highway 81","location":{"type":"Point","coordinates":[-97.96503,34.49236]},"isApproved":true,"items":[],"keys":["Mexican"],"lastUpdated":1547527612348,"name":"Eduardo’s Mexican Restaurant","phone":"(580) 255-0781","price":"$$","reviewCount":11,"reviewScore":2.5,"meta":{"revision":0,"created":1547531149726,"version":0},"$loki":31},{"_id":"5c3d65bd3525a329e0c05ec8","address":"1404 SE 135th St","location":{"type":"Point","coordinates":[-97.96478,34.493056]},"isApproved":true,"items":[],"keys":["Steakhouses"],"lastUpdated":1547527612367,"name":"Dry Beaver Supper Club","phone":"(580) 250-1500","price":"$$","reviewCount":9,"reviewScore":4,"meta":{"revision":0,"created":1547531149726,"version":0},"$loki":32},{"_id":"5c3d65bd3525a329e0c185d4","address":"1501 N Hwy 81","location":{"type":"Point","coordinates":[-97.9688254,34.4965551]},"isApproved":true,"items":[],"keys":["Burgers","Fast Food"],"lastUpdated":1547527612815,"name":"Burger King","phone":"(580) 255-9593","price":"","reviewCount":2,"reviewScore":1,"meta":{"revision":0,"created":1547531149726,"version":0},"$loki":33},{"_id":"5c3d65bd3525a329e0c0cd38","address":"1414 US 81","location":{"type":"Point","coordinates":[-97.967825,34.485123]},"isApproved":true,"items":[],"keys":["Pizza"],"lastUpdated":1547527612534,"name":"Mazzio’s Italian Eatery","phone":"(580) 252-6222","price":"","reviewCount":3,"reviewScore":3.5,"meta":{"revision":0,"created":1547531149726,"version":0},"$loki":34},{"_id":"5c3d65bd3525a329e0c1aafd","address":"501 N Rodeo Dr","location":{"type":"Point","coordinates":[-97.9643154144287,34.3727569615814]},"isApproved":true,"items":[],"keys":["Mexican"],"lastUpdated":1547527612868,"name":"El Ranchito","phone":"(580) 439-5802","price":"$","reviewCount":1,"reviewScore":5,"meta":{"revision":0,"created":1547531149726,"version":0},"$loki":35},{"_id":"5c3d65bd3525a329e0c1a4a7","address":"906 Oak Main Ave","location":{"type":"Point","coordinates":[-97.972536,34.368344]},"isApproved":true,"items":[],"keys":["Pizza"],"lastUpdated":1547527612859,"name":"Tribe Pride Pizza","phone":"(580) 439-6367","price":"$","reviewCount":2,"reviewScore":5,"meta":{"revision":0,"created":1547531149726,"version":0},"$loki":36},{"_id":"5c3d65bd3525a329e0c066e0","address":"Old Hwy 81","location":{"type":"Point","coordinates":[-97.964965,34.3896779]},"isApproved":true,"items":[],"keys":["American (Traditional)"],"lastUpdated":1547527612378,"name":"Bob’s Restaurant","phone":"(580) 439-5639","price":"","reviewCount":1,"reviewScore":5,"meta":{"revision":0,"created":1547531149726,"version":0},"$loki":37},{"_id":"5c3d65bd3525a329e0c19d01","address":"1401 E Bois D Arc Ave","location":{"type":"Point","coordinates":[-97.9297132,34.4928466]},"isApproved":true,"items":[],"keys":["Breakfast & Brunch","Burgers"],"lastUpdated":1547527612850,"name":"Eastland Grill","phone":"(580) 255-2761","price":"$","reviewCount":8,"reviewScore":4.5,"meta":{"revision":0,"created":1547531149726,"version":0},"$loki":38},{"_id":"5c3d65bd3525a329e0bffb46","address":"905 E Bois D Arc Ave","location":{"type":"Point","coordinates":[-97.9359122,34.4929426]},"isApproved":true,"items":[],"keys":["Steakhouses"],"lastUpdated":1547527612220,"name":"Wright’s Family Steak House","phone":"(580) 252-4363","price":"$$","reviewCount":20,"reviewScore":4,"meta":{"revision":0,"created":1547531149726,"version":0},"$loki":39},{"_id":"5c3d65bd3525a329e0c0ce59","address":"102 N Hwy 81","location":{"type":"Point","coordinates":[-97.9446977,34.5004416]},"isApproved":true,"items":[],"keys":["Barbeque","Steakhouses"],"lastUpdated":1547527612534,"name":"La Fortuna","phone":"(580) 252-4245","price":"","reviewCount":4,"reviewScore":3,"meta":{"revision":0,"created":1547531149726,"version":0},"$loki":40},{"_id":"5c3d65bd3525a329e0c1b42a","address":"116 W Main St","location":{"type":"Point","coordinates":[-97.9467512,34.500575]},"isApproved":true,"items":[],"keys":["Barbeque"],"lastUpdated":1547527612885,"name":"Phipp’s Bar-B-Q","phone":"(580) 255-2020","price":"$","reviewCount":3,"reviewScore":5,"meta":{"revision":0,"created":1547531149726,"version":0},"$loki":41},{"_id":"5c3d65bd3525a329e0c08a91","address":"1215 N Highway 81","location":{"type":"Point","coordinates":[-97.9516671,34.5147146]},"isApproved":true,"items":[],"keys":["Burgers"],"lastUpdated":1547527612430,"name":"Jonny’s At Oak Tree","phone":"(580) 255-7010","price":"$","reviewCount":9,"reviewScore":3.5,"meta":{"revision":0,"created":1547531149726,"version":0},"$loki":42},{"_id":"5c3d65bd3525a329e0c031c8","address":"1204 N Broadway St","location":{"type":"Point","coordinates":[-97.957772,34.661541]},"isApproved":true,"items":[],"keys":["American (Traditional)"],"lastUpdated":1547527612296,"name":"Wright’s Family Diner","phone":"(580) 658-1150","price":"$","reviewCount":4,"reviewScore":5,"meta":{"revision":0,"created":1547531149726,"version":0},"$loki":43},{"_id":"5c3d65bd3525a329e0c0ecf6","address":"224 W Main St","location":{"type":"Point","coordinates":[-97.956968,34.647326]},"isApproved":true,"items":[],"keys":["Pizza","Salad","Gelato"],"lastUpdated":1547527612582,"name":"DiCintio’s Pizza Cucina","phone":"(580) 756-4104","price":"$","reviewCount":11,"reviewScore":5,"meta":{"revision":0,"created":1547531149726,"version":0},"$loki":44},{"_id":"5c3d65bd3525a329e0c0a6ba","address":"119 SW 2nd St","location":{"type":"Point","coordinates":[-97.956786,34.64787]},"isApproved":true,"items":[],"keys":["Mexican"],"lastUpdated":1547527612481,"name":"La Posada","phone":"","price":"","reviewCount":3,"reviewScore":5,"meta":{"revision":0,"created":1547531149726,"version":0},"$loki":45},{"_id":"5c3d65bd3525a329e0c00a1f","address":"4102 NW Cache Rd","location":{"type":"Point","coordinates":[-97.957007,34.647809]},"isApproved":true,"items":[],"keys":["Chinese","Buffets","Korean"],"lastUpdated":1547527612229,"name":"Hong Kong Buffet","phone":"(580) 354-9991","price":"$$","reviewCount":49,"reviewScore":3.5,"meta":{"revision":0,"created":1547531149726,"version":0},"$loki":46},{"_id":"5c3d65bd3525a329e0c0db00","address":"1219 S Mission St","location":{"type":"Point","coordinates":[-97.957007,34.647809]},"isApproved":true,"items":[],"keys":["Mexican"],"lastUpdated":1547527612556,"name":"Los Tapatios","phone":"(405) 648-7034","price":"","reviewCount":1,"reviewScore":5,"meta":{"revision":0,"created":1547531149726,"version":0},"$loki":47},{"_id":"5c3d65bd3525a329e0c0b244","address":"2306 E Gore","location":{"type":"Point","coordinates":[-97.958484,34.635978]},"isApproved":true,"items":[],"keys":["Pizza"],"lastUpdated":1547527612498,"name":"Marco’s Pizza","phone":"(580) 699-3993","price":"$$","reviewCount":12,"reviewScore":4,"meta":{"revision":0,"created":1547531149726,"version":0},"$loki":48},{"_id":"5c3d65bd3525a329e0c138c0","address":"1707 NW Sheridan Rd","location":{"type":"Point","coordinates":[-97.9608349129558,34.6351753756467]},"isApproved":true,"items":[],"keys":["Cajun/Creole","Soul Food"],"lastUpdated":1547527612698,"name":"Good 2 Geaux Catering And Cafe","phone":"(580) 917-3410","price":"","reviewCount":2,"reviewScore":3.5,"meta":{"revision":0,"created":1547531149726,"version":0},"$loki":49},{"_id":"5c3d65bd3525a329e0c08123","address":"1013 S Broadway","location":{"type":"Point","coordinates":[-97.960927,34.634856]},"isApproved":true,"items":[],"keys":["Chinese","Buffets"],"lastUpdated":1547527612419,"name":"Great Wall","phone":"(580) 658-9955","price":"$$","reviewCount":5,"reviewScore":3.5,"meta":{"revision":0,"created":1547531149726,"version":0},"$loki":50},{"_id":"5c3d65bd3525a329e0c11422","address":"101 Hargrove St","location":{"type":"Point","coordinates":[-97.671068,34.449695]},"isApproved":true,"items":[],"keys":["American (Traditional)","Barbeque","Mexican"],"lastUpdated":1547527612643,"name":"Chuckwagon Bar-B-Que & Grill","phone":"(580) 444-2729","price":"$$","reviewCount":7,"reviewScore":4.5,"meta":{"revision":0,"created":1547531149726,"version":0},"$loki":51},{"_id":"5c3d65bd3525a329e0c0ca5d","address":"","location":{"type":"Point","coordinates":[-97.6739188,34.4600839]},"isApproved":true,"items":[],"keys":["Burgers"],"lastUpdated":1547527612532,"name":"Nichols Dairy Queen","phone":"(580) 444-2547","price":"$","reviewCount":2,"reviewScore":4.5,"meta":{"revision":0,"created":1547531149726,"version":0},"$loki":52},{"_id":"5c3d65bd3525a329e0c0d9f8","address":"Highway 76 S","location":{"type":"Point","coordinates":[-97.4925387,34.3404735]},"isApproved":true,"items":[],"keys":["Grocery","Barbeque"],"lastUpdated":1547527612555,"name":"Fox Deli-Que","phone":"(580) 673-2516","price":"$","reviewCount":1,"reviewScore":4,"meta":{"revision":0,"created":1547531149726,"version":0},"$loki":53}],"idIndex":[1,2,3,4,5,6,7,8,9,10,11,12,13,14,15,16,17,18,19,20,21,22,23,24,25,26,27,28,29,30,31,32,33,34,35,36,37,38,39,40,41,42,43,44,45,46,47,48,49,50,51,52,53],"binaryIndices":{},"constraints":null,"uniqueNames":[],"transforms":{},"objType":"restaurants","dirty":true,"cachedIndex":null,"cachedBinaryIndex":null,"cachedData":null,"adaptiveBinaryIndices":true,"transactional":false,"cloneObjects":false,"cloneMethod":"parse-stringify","asyncListeners":false,"disableMeta":false,"disableChangesApi":true,"disableDeltaChangesApi":true,"autoupdate":false,"serializableIndices":true,"ttl":null,"maxId":53,"DynamicViews":[],"events":{"insert":[],"update":[],"pre-insert":[],"pre-update":[],"close":[],"flushbuffer":[],"error":[],"delete":[null],"warning":[null]},"changes":[]}],"databaseVersion":1.5,"engineVersion":1.5,"autosave":false,"autosaveInterval":5000,"autosaveHandle":null,"throttledSaves":true,"options":{"serializationMethod":"normal","destructureDelimiter":"$<\n"},"persistenceMethod":"fs","persistenceAdapter":null,"verbose":false,"events":{"init":[null],"loaded":[],"flushChanges":[],"close":[],"changes":[],"warning":[]},"ENV":"NODEJS"}