{"filename":"-97.5-42","collections":[{"name":"restaurants","data":[{"_id":"5c3d65bd3525a329e0c0b4dd","address":"406 E Hwy 275","location":{"type":"Point","coordinates":[-97.746969,42.032635]},"isApproved":true,"items":[],"keys":["American (New)"],"lastUpdated":1547527612499,"name":"The Branding Iron","phone":"(402) 368-5392","price":"","reviewCount":1,"reviewScore":3,"meta":{"revision":0,"created":1547531151786,"version":0},"$loki":1},{"_id":"5c3d65bd3525a329e0c09bbe","address":"107 W Norfolk Ave","location":{"type":"Point","coordinates":[-97.597904,41.998938]},"isApproved":true,"items":[],"keys":["Mexican"],"lastUpdated":1547527612464,"name":"El Rodeo","phone":"(402) 379-4771","price":"$","reviewCount":5,"reviewScore":5,"meta":{"revision":0,"created":1547531151786,"version":0},"$loki":2},{"_id":"5c3d65bd3525a329e0c0d0f6","address":"2610 W Norfolk Ave","location":{"type":"Point","coordinates":[-97.44093,42.024568]},"isApproved":true,"items":[],"keys":["Barbeque","Pubs"],"lastUpdated":1547527612545,"name":"Uncle Jarrol’s Pub-B-Que","phone":"(402) 379-2438","price":"$$","reviewCount":4,"reviewScore":4.5,"meta":{"revision":0,"created":1547531151786,"version":0},"$loki":3},{"_id":"5c3d65bd3525a329e0c0e410","address":"104 Pine St","location":{"type":"Point","coordinates":[-97.4492817,42.0334916]},"isApproved":true,"items":[],"keys":["Bars","American (Traditional)"],"lastUpdated":1547527612572,"name":"Lindsay Bar & Grill","phone":"(402) 428-9925","price":"","reviewCount":1,"reviewScore":5,"meta":{"revision":0,"created":1547531151786,"version":0},"$loki":4},{"_id":"5c3d65bd3525a329e0c0e423","address":"2101 W Pasewalk Ave","location":{"type":"Point","coordinates":[-97.4466256,42.0272799]},"isApproved":true,"items":[],"keys":["American (Traditional)","Sports Bars"],"lastUpdated":1547527612572,"name":"Big Red Restaurant and Sports Bar","phone":"(402) 371-3068","price":"$$","reviewCount":15,"reviewScore":3.5,"meta":{"revision":0,"created":1547531151786,"version":0},"$loki":5},{"_id":"5c3d65bd3525a329e0c00169","address":"305 S 2nd St","location":{"type":"Point","coordinates":[-97.4470250519847,42.0266766592832]},"isApproved":true,"items":[],"keys":["Sandwiches"],"lastUpdated":1547527612224,"name":"Runza","phone":"(402) 395-2511","price":"$","reviewCount":5,"reviewScore":3,"meta":{"revision":0,"created":1547531151786,"version":0},"$loki":6},{"_id":"5c3d65bd3525a329e0c04e63","address":"714 Benjamin Ave","location":{"type":"Point","coordinates":[-97.4742291,42.0334447]},"isApproved":true,"items":[],"keys":["Pizza"],"lastUpdated":1547527612339,"name":"Godfather’s Pizza Delivery Unit","phone":"(402) 371-2000","price":"","reviewCount":1,"reviewScore":5,"meta":{"revision":0,"created":1547531151786,"version":0},"$loki":7},{"_id":"5c3d65bd3525a329e0c07554","address":"1021 S 13th St","location":{"type":"Point","coordinates":[-97.4742291,42.0334447]},"isApproved":true,"items":[],"keys":["Steakhouses","Barbeque","American (Traditional)"],"lastUpdated":1547527612400,"name":"Whiskey Creek® Wood Fire Grill","phone":"(402) 379-7896","price":"$$","reviewCount":22,"reviewScore":3.5,"meta":{"revision":0,"created":1547531151786,"version":0},"$loki":8},{"_id":"5c3d65bd3525a329e0c124d0","address":"701 S 13th St","location":{"type":"Point","coordinates":[-97.4169759359484,42.0462829741564]},"isApproved":true,"items":[],"keys":["Burgers"],"lastUpdated":1547527612670,"name":"Burger King","phone":"(402) 371-9492","price":"","reviewCount":1,"reviewScore":1,"meta":{"revision":0,"created":1547531151786,"version":0},"$loki":9},{"_id":"5c3d65bd3525a329e0c0c14c","address":"1205 Riverside Blvd","location":{"type":"Point","coordinates":[-97.4203492,42.0475288]},"isApproved":true,"items":[],"keys":["Fast Food","Burgers","Coffee & Tea"],"lastUpdated":1547527612517,"name":"McDonald’s","phone":"(402) 371-4048","price":"$","reviewCount":2,"reviewScore":1.5,"meta":{"revision":0,"created":1547531151786,"version":0},"$loki":10},{"_id":"5c3d65bd3525a329e0c1a861","address":"1910 Market Ln","location":{"type":"Point","coordinates":[-97.4222557,42.0474753]},"isApproved":true,"items":[],"keys":["Burgers","Fast Food","Ice Cream & Frozen Yogurt"],"lastUpdated":1547527612867,"name":"Sonic Drive-In","phone":"(402) 844-4010","price":"$","reviewCount":2,"reviewScore":2.5,"meta":{"revision":0,"created":1547531151786,"version":0},"$loki":11},{"_id":"5c3d65bd3525a329e0c0c971","address":"2019 Krenzien Dr.","location":{"type":"Point","coordinates":[-97.4264233227539,42.0490496690347]},"isApproved":true,"items":[],"keys":["American (Traditional)","Chicken Wings","Sports Bars"],"lastUpdated":1547527612526,"name":"Buffalo Wild Wings","phone":"(402) 370-3910","price":"$$","reviewCount":5,"reviewScore":2,"meta":{"revision":0,"created":1547531151786,"version":0},"$loki":12},{"_id":"5c3d65bd3525a329e0c185ee","address":"1402 Omaha Avenue","location":{"type":"Point","coordinates":[-97.4164208,42.0476649]},"isApproved":true,"items":[],"keys":["Mexican","Tex-Mex","Fast Food"],"lastUpdated":1547527612815,"name":"Taco Bell","phone":"(402) 371-4907","price":"$","reviewCount":3,"reviewScore":3,"meta":{"revision":0,"created":1547531151786,"version":0},"$loki":13},{"_id":"5c3d65bd3525a329e0c14a43","address":"601 S 25th St","location":{"type":"Point","coordinates":[-97.4164621104514,42.0470208854865]},"isApproved":true,"items":[],"keys":["Mexican"],"lastUpdated":1547527612728,"name":"El Mezcal Mexican Restaurant","phone":"(402) 371-3698","price":"$$","reviewCount":27,"reviewScore":4,"meta":{"revision":0,"created":1547531151786,"version":0},"$loki":14},{"_id":"5c3d65bd3525a329e0c0a708","address":"4200 W Norfolk Ave","location":{"type":"Point","coordinates":[-97.4163280427456,42.0465069012891]},"isApproved":true,"items":[],"keys":["Sports Bars","American (Traditional)","Breweries"],"lastUpdated":1547527612481,"name":"SandBar & Grill","phone":"(402) 844-2985","price":"$$","reviewCount":13,"reviewScore":3,"meta":{"revision":0,"created":1547531151786,"version":0},"$loki":15},{"_id":"5c3d65bd3525a329e0bffca0","address":"710 S 13th St","location":{"type":"Point","coordinates":[-97.413443,42.0432933]},"isApproved":true,"items":[],"keys":["Fast Food"],"lastUpdated":1547527612221,"name":"Dairy Queen","phone":"(402) 379-4883","price":"$$","reviewCount":3,"reviewScore":1,"meta":{"revision":0,"created":1547531151786,"version":0},"$loki":16},{"_id":"5c3d65bd3525a329e0c02034","address":"114 W Madison Ave","location":{"type":"Point","coordinates":[-97.4121547,42.0413633]},"isApproved":true,"items":[],"keys":["Barbeque","Sandwiches"],"lastUpdated":1547527612274,"name":"Smokin Stan’s BBQ","phone":"(402) 316-3459","price":"$$","reviewCount":32,"reviewScore":5,"meta":{"revision":0,"created":1547531151786,"version":0},"$loki":17},{"_id":"5c3d65bd3525a329e0c1a42f","address":"1700 Market Ln","location":{"type":"Point","coordinates":[-97.4119980064831,42.0410562346438]},"isApproved":true,"items":[],"keys":["Chinese","Asian Fusion"],"lastUpdated":1547527612859,"name":"Imperial Palace Express","phone":"(402) 379-1681","price":"","reviewCount":2,"reviewScore":3,"meta":{"revision":0,"created":1547531151786,"version":0},"$loki":18},{"_id":"5c3d65bd3525a329e0c00a88","address":"510 N 2nd St","location":{"type":"Point","coordinates":[-97.40158,42.04729]},"isApproved":true,"items":[],"keys":["Burgers","Cafes","Ice Cream & Frozen Yogurt"],"lastUpdated":1547527612230,"name":"Coffeehouse Cafe","phone":"(402) 843-2333","price":"","reviewCount":1,"reviewScore":5,"meta":{"revision":0,"created":1547531151786,"version":0},"$loki":19},{"_id":"5c3d65bd3525a329e0c0b0d8","address":"1700 Market Ln","location":{"type":"Point","coordinates":[-97.4072343,42.0300051]},"isApproved":true,"items":[],"keys":["Pizza"],"lastUpdated":1547527612497,"name":"Pizza Ranch","phone":"(402) 316-4015","price":"$$","reviewCount":6,"reviewScore":4,"meta":{"revision":0,"created":1547531151786,"version":0},"$loki":20},{"_id":"5c3d65bd3525a329e0c0064b","address":"Hwy 81/91 Jct","location":{"type":"Point","coordinates":[-97.4074245,42.032436]},"isApproved":true,"items":[],"keys":["Burgers","American (Traditional)","Sandwiches"],"lastUpdated":1547527612227,"name":"Klub 81","phone":"(402) 923-1588","price":"","reviewCount":6,"reviewScore":4,"meta":{"revision":0,"created":1547531151786,"version":0},"$loki":21},{"_id":"5c3d65bd3525a329e0c02330","address":"116 W Norfolk Ave","location":{"type":"Point","coordinates":[-97.4073188,42.0239585]},"isApproved":true,"items":[],"keys":["Mexican","Grocery"],"lastUpdated":1547527612276,"name":"Tienda Leon Grocery Store & Mexican Restaurant","phone":"(402) 281-9633","price":"$","reviewCount":17,"reviewScore":3.5,"meta":{"revision":0,"created":1547531151786,"version":0},"$loki":22},{"_id":"5c3d65bd3525a329e0c045ff","address":"1006 S 13th St","location":{"type":"Point","coordinates":[-97.4247079380257,42.0175908262326]},"isApproved":true,"items":[],"keys":["Fast Food","Chicken Wings","Chicken Shop"],"lastUpdated":1547527612328,"name":"KFC","phone":"(402) 371-0530","price":"","reviewCount":1,"reviewScore":4,"meta":{"revision":0,"created":1547531151786,"version":0},"$loki":23},{"_id":"5c3d65bd3525a329e0c124d9","address":"1226 Riverside Blvd","location":{"type":"Point","coordinates":[-97.4253285303712,42.0190824435639]},"isApproved":true,"items":[],"keys":["Mexican"],"lastUpdated":1547527612670,"name":"Tu Casa Restaurant","phone":"(402) 379-6719","price":"$","reviewCount":5,"reviewScore":4.5,"meta":{"revision":0,"created":1547531151786,"version":0},"$loki":24},{"_id":"5c3d65bd3525a329e0c09392","address":"1025 S 13th St","location":{"type":"Point","coordinates":[-97.4270027,42.0199904]},"isApproved":true,"items":[],"keys":["Pizza"],"lastUpdated":1547527612452,"name":"Valentino’s","phone":"(402) 379-2500","price":"$$","reviewCount":4,"reviewScore":2.5,"meta":{"revision":0,"created":1547531151786,"version":0},"$loki":25},{"_id":"5c3d65bd3525a329e0c0d330","address":"817 10th St","location":{"type":"Point","coordinates":[-97.4261479,42.0206101]},"isApproved":true,"items":[],"keys":["Restaurants"],"lastUpdated":1547527612546,"name":"Wolf’s Den","phone":"(402) 439-5320","price":"","reviewCount":1,"reviewScore":4,"meta":{"revision":0,"created":1547531151786,"version":0},"$loki":26},{"_id":"5c3d65bd3525a329e0c1afcc","address":"801 S 13th St","location":{"type":"Point","coordinates":[-97.4256719,42.0202498]},"isApproved":true,"items":[],"keys":["Mexican","Fast Food"],"lastUpdated":1547527612876,"name":"Taco John’s","phone":"(402) 316-7832","price":"$$","reviewCount":1,"reviewScore":2,"meta":{"revision":0,"created":1547531151786,"version":0},"$loki":27},{"_id":"5c3d65bd3525a329e0c18e78","address":"","location":{"type":"Point","coordinates":[-97.4267,42.0218]},"isApproved":true,"items":[],"keys":["Restaurants"],"lastUpdated":1547527612831,"name":"Coachmens Steakhouse & Lounge","phone":"(402) 529-3215","price":"","reviewCount":3,"reviewScore":1.5,"meta":{"revision":0,"created":1547531151786,"version":0},"$loki":28},{"_id":"5c3d65bd3525a329e0c17ea5","address":"120 Saddle Ln","location":{"type":"Point","coordinates":[-97.426855,42.022263]},"isApproved":true,"items":[],"keys":["Pizza","Italian","Chicken Wings"],"lastUpdated":1547527612802,"name":"Pizza Hut","phone":"(402) 454-6696","price":"","reviewCount":3,"reviewScore":1,"meta":{"revision":0,"created":1547531151786,"version":0},"$loki":29},{"_id":"5c3d65bd3525a329e0c17c21","address":"910 W Benjamin","location":{"type":"Point","coordinates":[-97.4258766276852,42.0231697320058]},"isApproved":true,"items":[],"keys":["Italian","Pizza","Chicken Wings"],"lastUpdated":1547527612800,"name":"Pizza Hut","phone":"(402) 379-4470","price":"$$","reviewCount":2,"reviewScore":1,"meta":{"revision":0,"created":1547531151786,"version":0},"$loki":30},{"_id":"5c3d65bd3525a329e0c0e9db","address":"1229 W Omaha Ave","location":{"type":"Point","coordinates":[-97.4269469,42.0241796]},"isApproved":true,"items":[],"keys":["Bakeries","Breakfast & Brunch","American (Traditional)"],"lastUpdated":1547527612581,"name":"Perkins Restaurant & Bakery","phone":"(402) 371-0777","price":"$$","reviewCount":10,"reviewScore":2.5,"meta":{"revision":0,"created":1547531151786,"version":0},"$loki":31},{"_id":"5c3d65bd3525a329e0c0a2da","address":"904 Riverside Blvd","location":{"type":"Point","coordinates":[-97.4260041117668,42.0248554501422]},"isApproved":true,"items":[],"keys":["Pizza","Chicken Wings","Sandwiches"],"lastUpdated":1547527612473,"name":"Domino’s Pizza","phone":"(402) 371-0107","price":"$","reviewCount":5,"reviewScore":3,"meta":{"revision":0,"created":1547531151786,"version":0},"$loki":32},{"_id":"5c3d65bd3525a329e0c0277f","address":"816 Ave E","location":{"type":"Point","coordinates":[-97.4269393,42.0247084]},"isApproved":true,"items":[],"keys":["Restaurants","Bars","Venues & Event Spaces"],"lastUpdated":1547527612284,"name":"529 Social","phone":"(402) 529-3365","price":"","reviewCount":2,"reviewScore":3.5,"meta":{"revision":0,"created":1547531151786,"version":0},"$loki":33},{"_id":"5c3d65bd3525a329e0c163b4","address":"924 S 20th St","location":{"type":"Point","coordinates":[-97.427063,42.0254529]},"isApproved":true,"items":[],"keys":["Fast Food","Burgers","Ice Cream & Frozen Yogurt"],"lastUpdated":1547527612764,"name":"Culver’s","phone":"(402) 371-8710","price":"$","reviewCount":12,"reviewScore":4,"meta":{"revision":0,"created":1547531151786,"version":0},"$loki":34},{"_id":"5c3d65bd3525a329e0c0dbc4","address":"53875 Hwy 275","location":{"type":"Point","coordinates":[-97.4271089,42.0254671]},"isApproved":true,"items":[],"keys":["American (New)","Burgers","Sandwiches"],"lastUpdated":1547527612556,"name":"Sportsman’s Family Grill","phone":"(402) 634-2293","price":"$","reviewCount":1,"reviewScore":4,"meta":{"revision":0,"created":1547531151786,"version":0},"$loki":35},{"_id":"5c3d65bd3525a329e0c11fd3","address":"1700 Market Ln","location":{"type":"Point","coordinates":[-97.4173007,42.0329235]},"isApproved":true,"items":[],"keys":["Fast Food","Sandwiches"],"lastUpdated":1547527612662,"name":"Subway","phone":"(402) 379-8163","price":"","reviewCount":1,"reviewScore":1,"meta":{"revision":0,"created":1547531151786,"version":0},"$loki":36},{"_id":"5c3d65bd3525a329e0c15958","address":"702 W Norfolk Ave","location":{"type":"Point","coordinates":[-97.4173007,42.0329235]},"isApproved":true,"items":[],"keys":["Steakhouses","Pubs"],"lastUpdated":1547527612747,"name":"Black Cow Fat Pig Pub and Steak","phone":"(402) 316-4315","price":"$$","reviewCount":75,"reviewScore":4.5,"meta":{"revision":0,"created":1547531151786,"version":0},"$loki":37},{"_id":"5c3d65bd3525a329e0c06775","address":"1030 S 13th St","location":{"type":"Point","coordinates":[-97.427103,42.027156]},"isApproved":true,"items":[],"keys":["Fast Food","Burgers"],"lastUpdated":1547527612378,"name":"Wendy’s","phone":"(402) 371-5100","price":"","reviewCount":2,"reviewScore":3,"meta":{"revision":0,"created":1547531151786,"version":0},"$loki":38},{"_id":"5c3d65bd3525a329e0c05ff3","address":"700 South 13th St","location":{"type":"Point","coordinates":[-97.4377552,42.0209283]},"isApproved":true,"items":[],"keys":["Mexican"],"lastUpdated":1547527612368,"name":"Taqueria","phone":"","price":"","reviewCount":1,"reviewScore":5,"meta":{"revision":0,"created":1547531151786,"version":0},"$loki":39},{"_id":"5c3d65bd3525a329e0c17bb1","address":"1008 Riverside Blvd","location":{"type":"Point","coordinates":[-97.4359923,42.021409]},"isApproved":true,"items":[],"keys":["Sandwiches","Fast Food"],"lastUpdated":1547527612800,"name":"Subway","phone":"(402) 379-9944","price":"","reviewCount":1,"reviewScore":1,"meta":{"revision":0,"created":1547531151786,"version":0},"$loki":40},{"_id":"5c3d65bd3525a329e0c16b20","address":"333 S 1st St","location":{"type":"Point","coordinates":[-97.436739,42.022475]},"isApproved":true,"items":[],"keys":["Sports Bars","American (Traditional)"],"lastUpdated":1547527612773,"name":"The J Sports Bar & Grill","phone":"(402) 395-6408","price":"$","reviewCount":4,"reviewScore":3,"meta":{"revision":0,"created":1547531151786,"version":0},"$loki":41},{"_id":"5c3d65bd3525a329e0c09204","address":"813 S 13th St","location":{"type":"Point","coordinates":[-97.427911,42.0250687]},"isApproved":true,"items":[],"keys":["Fast Food","Burgers","Coffee & Tea"],"lastUpdated":1547527612451,"name":"McDonald’s","phone":"(402) 379-1800","price":"$","reviewCount":3,"reviewScore":2.5,"meta":{"revision":0,"created":1547531151786,"version":0},"$loki":42},{"_id":"5c3d65bd3525a329e0c047ac","address":"814 S 13th St","location":{"type":"Point","coordinates":[-97.429416,42.021873]},"isApproved":true,"items":[],"keys":["Sandwiches"],"lastUpdated":1547527612330,"name":"Runza","phone":"(402) 379-4523","price":"","reviewCount":1,"reviewScore":3,"meta":{"revision":0,"created":1547531151786,"version":0},"$loki":43},{"_id":"5c3d65bd3525a329e0c00f51","address":"1204 W Omaha Ave","location":{"type":"Point","coordinates":[-97.430649,42.020516]},"isApproved":true,"items":[],"keys":["Fast Food","Sandwiches"],"lastUpdated":1547527612237,"name":"Arby’s","phone":"(402) 379-0271","price":"$","reviewCount":4,"reviewScore":1.5,"meta":{"revision":0,"created":1547531151786,"version":0},"$loki":44},{"_id":"5c3d65bd3525a329e0c0b08c","address":"506 S 25th St","location":{"type":"Point","coordinates":[-97.4310373,42.020787]},"isApproved":true,"items":[],"keys":["Pizza","Italian","Chicken Wings"],"lastUpdated":1547527612497,"name":"Pizza Hut","phone":"(402) 371-7750","price":"","reviewCount":1,"reviewScore":2,"meta":{"revision":0,"created":1547531151786,"version":0},"$loki":45},{"_id":"5c3d65bd3525a329e0c13a76","address":"1399 W Michigan Ave","location":{"type":"Point","coordinates":[-97.431795,42.020139]},"isApproved":true,"items":[],"keys":["Chinese"],"lastUpdated":1547527612698,"name":"China Gate Restaurant","phone":"(402) 379-3177","price":"$","reviewCount":3,"reviewScore":2.5,"meta":{"revision":0,"created":1547531151786,"version":0},"$loki":46},{"_id":"5c3d65bd3525a329e0c088fc","address":"701 S 25th St","location":{"type":"Point","coordinates":[-97.428151,42.018032]},"isApproved":true,"items":[],"keys":["Buffets","Chinese"],"lastUpdated":1547527612429,"name":"China Buffet","phone":"(402) 379-9000","price":"$$","reviewCount":3,"reviewScore":2,"meta":{"revision":0,"created":1547531151786,"version":0},"$loki":47},{"_id":"5c3d65bd3525a329e0c0e1a3","address":"300 S 1st St","location":{"type":"Point","coordinates":[-97.42761993,42.01130295]},"isApproved":true,"items":[],"keys":["Restaurants"],"lastUpdated":1547527612565,"name":"Tastee Treet","phone":"(402) 371-3303","price":"","reviewCount":2,"reviewScore":3.5,"meta":{"revision":0,"created":1547531151786,"version":0},"$loki":48},{"_id":"5c3d65bd3525a329e0c11806","address":"212 S Main St","location":{"type":"Point","coordinates":[-97.4298594508178,41.9845776701371]},"isApproved":true,"items":[],"keys":["Mexican"],"lastUpdated":1547527612650,"name":"Burrito King","phone":"(402) 454-2950","price":"$","reviewCount":1,"reviewScore":5,"meta":{"revision":0,"created":1547531151786,"version":0},"$loki":49},{"_id":"5c3d65bd3525a329e0c14ae5","address":"1226 Riverside Blvd","location":{"type":"Point","coordinates":[-97.2239493,41.9499775]},"isApproved":true,"items":[],"keys":["Japanese","Sushi Bars"],"lastUpdated":1547527612728,"name":"Sakura Sushi & Steakhouse","phone":"(402) 379-9898","price":"$$","reviewCount":19,"reviewScore":4.5,"meta":{"revision":0,"created":1547531151786,"version":0},"$loki":50},{"_id":"5c3d65bd3525a329e0c1a9f4","address":"4100 S 13th St","location":{"type":"Point","coordinates":[-97.464445,41.7001881]},"isApproved":true,"items":[],"keys":["American (Traditional)"],"lastUpdated":1547527612868,"name":"Barnstormers Family Bar & Grill","phone":"(402) 316-4099","price":"$$","reviewCount":8,"reviewScore":4.5,"meta":{"revision":0,"created":1547531151786,"version":0},"$loki":51},{"_id":"5c3d65bd3525a329e0c0cc26","address":"904 Riverside Blvd","location":{"type":"Point","coordinates":[-97.4546162,41.8284331]},"isApproved":true,"items":[],"keys":["American (Traditional)"],"lastUpdated":1547527612533,"name":"Franklins Bistro","phone":"(402) 316-3308","price":"$$","reviewCount":21,"reviewScore":4,"meta":{"revision":0,"created":1547531151786,"version":0},"$loki":52},{"_id":"5c3d65bd3525a329e0c16622","address":"912 W Omaha Ave","location":{"type":"Point","coordinates":[-97.4440089,41.8291609]},"isApproved":true,"items":[],"keys":["Mexican"],"lastUpdated":1547527612765,"name":"Michaels’s Cantina","phone":"(402) 371-6707","price":"$$","reviewCount":19,"reviewScore":3.5,"meta":{"revision":0,"created":1547531151786,"version":0},"$loki":53},{"_id":"5c3d65bd3525a329e0c01804","address":"1018 Ave E","location":{"type":"Point","coordinates":[-97.826373,42.047792]},"isApproved":true,"items":[],"keys":["Steakhouses"],"lastUpdated":1547527612251,"name":"Lantz’s Steakhouse","phone":"(402) 529-6100","price":"$$","reviewCount":5,"reviewScore":4,"meta":{"revision":0,"created":1547531151786,"version":0},"$loki":54}],"idIndex":[1,2,3,4,5,6,7,8,9,10,11,12,13,14,15,16,17,18,19,20,21,22,23,24,25,26,27,28,29,30,31,32,33,34,35,36,37,38,39,40,41,42,43,44,45,46,47,48,49,50,51,52,53,54],"binaryIndices":{},"constraints":null,"uniqueNames":[],"transforms":{},"objType":"restaurants","dirty":true,"cachedIndex":null,"cachedBinaryIndex":null,"cachedData":null,"adaptiveBinaryIndices":true,"transactional":false,"cloneObjects":false,"cloneMethod":"parse-stringify","asyncListeners":false,"disableMeta":false,"disableChangesApi":true,"disableDeltaChangesApi":true,"autoupdate":false,"serializableIndices":true,"ttl":null,"maxId":54,"DynamicViews":[],"events":{"insert":[],"update":[],"pre-insert":[],"pre-update":[],"close":[],"flushbuffer":[],"error":[],"delete":[null],"warning":[null]},"changes":[]}],"databaseVersion":1.5,"engineVersion":1.5,"autosave":false,"autosaveInterval":5000,"autosaveHandle":null,"throttledSaves":true,"options":{"serializationMethod":"normal","destructureDelimiter":"$<\n"},"persistenceMethod":"fs","persistenceAdapter":null,"verbose":false,"events":{"init":[null],"loaded":[],"flushChanges":[],"close":[],"changes":[],"warning":[]},"ENV":"NODEJS"}