{"filename":"-97.25-32.25","collections":[{"name":"restaurants","data":[{"_id":"5c3d65bd3525a329e0bffddc","address":"2201 N Commerce St","location":{"type":"Point","coordinates":[-97.52813,32.4464974]},"isApproved":true,"items":[],"keys":["Mexican","Tex-Mex"],"lastUpdated":1547527612222,"name":"Joe T Garcia’s","phone":"(817) 626-4356","price":"$$","reviewCount":1466,"reviewScore":3.5,"meta":{"revision":0,"created":1547531151691,"version":0},"$loki":1},{"_id":"5c3d65bd3525a329e0c1556a","address":"101 E Hwy 171","location":{"type":"Point","coordinates":[-97.5296538893226,32.445423303764]},"isApproved":true,"items":[],"keys":["Mexican"],"lastUpdated":1547527612745,"name":"Del Norte Tacos","phone":"(817) 389-2451","price":"$$","reviewCount":158,"reviewScore":4.5,"meta":{"revision":0,"created":1547531151691,"version":0},"$loki":2},{"_id":"5c3d65bd3525a329e0c0aae2","address":"1801 W Polo Rd","location":{"type":"Point","coordinates":[-97.5378828,32.4512125]},"isApproved":true,"items":[],"keys":["Pizza","Italian"],"lastUpdated":1547527612489,"name":"Brother’s Pizza","phone":"(469) 610-5055","price":"$$","reviewCount":36,"reviewScore":4,"meta":{"revision":0,"created":1547531151691,"version":0},"$loki":3},{"_id":"5c3d65bd3525a329e0c18093","address":"2880 Hwy 157 N","location":{"type":"Point","coordinates":[-97.3887959,32.461569]},"isApproved":true,"items":[],"keys":["Mexican"],"lastUpdated":1547527612803,"name":"Mama Cuca’s Mexican Cuisine","phone":"(817) 473-9857","price":"$$","reviewCount":163,"reviewScore":4,"meta":{"revision":0,"created":1547531151691,"version":0},"$loki":4},{"_id":"5c3d65bd3525a329e0c03412","address":"1505 SW Wilshire Blvd","location":{"type":"Point","coordinates":[-97.383925,32.468829]},"isApproved":true,"items":[],"keys":["Cajun/Creole","Seafood","American (Traditional)"],"lastUpdated":1547527612302,"name":"The Catch - Burleson","phone":"(817) 447-4302","price":"$$","reviewCount":104,"reviewScore":4,"meta":{"revision":0,"created":1547531151691,"version":0},"$loki":5},{"_id":"5c3d65bd3525a329e0c02865","address":"2650 SW Wilshire Blvd","location":{"type":"Point","coordinates":[-97.367980889976,32.4989941332011]},"isApproved":true,"items":[],"keys":["Breakfast & Brunch"],"lastUpdated":1547527612285,"name":"Burleson Brunch House","phone":"(682) 730-1391","price":"","reviewCount":59,"reviewScore":4.5,"meta":{"revision":0,"created":1547531151691,"version":0},"$loki":6},{"_id":"5c3d65bd3525a329e0c0a886","address":"1405 S Cherry Ln","location":{"type":"Point","coordinates":[-97.3015535,32.4536905]},"isApproved":true,"items":[],"keys":["Southern"],"lastUpdated":1547527612482,"name":"Sam’s Southern Eatery","phone":"(682) 708-5850","price":"","reviewCount":9,"reviewScore":4,"meta":{"revision":0,"created":1547531151691,"version":0},"$loki":7},{"_id":"5c3d65bd3525a329e0c1af11","address":"324 E Belt Line Rd","location":{"type":"Point","coordinates":[-97.3245726351777,32.4105972653925]},"isApproved":true,"items":[],"keys":["Juice Bars & Smoothies","Acai Bowls","Tacos"],"lastUpdated":1547527612876,"name":"Peace Love & Eatz Smoothie bar","phone":"(469) 567-7009","price":"","reviewCount":7,"reviewScore":4.5,"meta":{"revision":0,"created":1547531151691,"version":0},"$loki":8},{"_id":"5c3d65bd3525a329e0c19b93","address":"3701 Cooper St","location":{"type":"Point","coordinates":[-97.270682,32.40502]},"isApproved":true,"items":[],"keys":["Cuban"],"lastUpdated":1547527612849,"name":"Havana Bar & Grill Cuban Cuisine","phone":"(682) 323-5697","price":"$$","reviewCount":116,"reviewScore":4.5,"meta":{"revision":0,"created":1547531151691,"version":0},"$loki":9},{"_id":"5c3d65bd3525a329e0c09135","address":"5300 E Highway 67","location":{"type":"Point","coordinates":[-97.093016,32.423234]},"isApproved":true,"items":[],"keys":["American (New)","Breakfast & Brunch"],"lastUpdated":1547527612446,"name":"Savala’s","phone":"(817) 783-5556","price":"$","reviewCount":7,"reviewScore":4.5,"meta":{"revision":0,"created":1547531151691,"version":0},"$loki":10},{"_id":"5c3d65bd3525a329e0c14f2a","address":"9505 E Hwy 377 S","location":{"type":"Point","coordinates":[-97.2228670120239,32.4176459709601]},"isApproved":true,"items":[],"keys":["Burgers","Breakfast & Brunch","American (Traditional)"],"lastUpdated":1547527612736,"name":"Hole In The Wall","phone":"(682) 307-6880","price":"","reviewCount":1,"reviewScore":5,"meta":{"revision":0,"created":1547531151691,"version":0},"$loki":11},{"_id":"5c3d65bd3525a329e0c079c0","address":"510 E Ave K","location":{"type":"Point","coordinates":[-97.2216577,32.41672]},"isApproved":true,"items":[],"keys":["Burgers","Hot Dogs","Sports Bars"],"lastUpdated":1547527612409,"name":"Mixed Up Burgers","phone":"(972) 606-6700","price":"$","reviewCount":453,"reviewScore":4,"meta":{"revision":0,"created":1547531151691,"version":0},"$loki":12},{"_id":"5c3d65bd3525a329e0c121a8","address":"1621 River Run","location":{"type":"Point","coordinates":[-97.211776,32.41554]},"isApproved":true,"items":[],"keys":["American (New)","Bars"],"lastUpdated":1547527612663,"name":"HG Sply","phone":"(682) 730-6070","price":"$$","reviewCount":320,"reviewScore":4,"meta":{"revision":0,"created":1547531151691,"version":0},"$loki":13},{"_id":"5c3d65bd3525a329e0c058e0","address":"921 N Cummings Dr","location":{"type":"Point","coordinates":[-97.2148663,32.4170264]},"isApproved":true,"items":[],"keys":["Mexican"],"lastUpdated":1547527612355,"name":"Don Chano","phone":"(817) 783-3663","price":"$","reviewCount":9,"reviewScore":3.5,"meta":{"revision":0,"created":1547531151691,"version":0},"$loki":14},{"_id":"5c3d65bd3525a329e0c0b54d","address":"6901 McCart Ave","location":{"type":"Point","coordinates":[-97.2107970714569,32.4153228500634]},"isApproved":true,"items":[],"keys":["Mexican"],"lastUpdated":1547527612499,"name":"Juan’s Burrito Express","phone":"(817) 292-3048","price":"$","reviewCount":113,"reviewScore":4.5,"meta":{"revision":0,"created":1547531151691,"version":0},"$loki":15},{"_id":"5c3d65bd3525a329e0c0c982","address":"1067 W Magnolia Ave","location":{"type":"Point","coordinates":[-97.21868,32.40845]},"isApproved":true,"items":[],"keys":["Southern","Chicken Shop","Comfort Food"],"lastUpdated":1547527612526,"name":"Gus’s World Famous Fried Chicken","phone":"(817) 927-4693","price":"$$","reviewCount":458,"reviewScore":4.5,"meta":{"revision":0,"created":1547531151691,"version":0},"$loki":16},{"_id":"5c3d65bd3525a329e0c04d2e","address":"2150 W 7th St","location":{"type":"Point","coordinates":[-97.193723,32.415509]},"isApproved":true,"items":[],"keys":["Breakfast & Brunch"],"lastUpdated":1547527612338,"name":"Snooze an AM eatery","phone":"(682) 350-9970","price":"","reviewCount":75,"reviewScore":4,"meta":{"revision":0,"created":1547531151691,"version":0},"$loki":17},{"_id":"5c3d65bd3525a329e0c1b30e","address":"112 W Ellison St","location":{"type":"Point","coordinates":[-97.1734491,32.4747394]},"isApproved":true,"items":[],"keys":["Breweries","American (Traditional)"],"lastUpdated":1547527612883,"name":"Old Texas Brewing","phone":"(817) 447-2337","price":"$$","reviewCount":124,"reviewScore":3.5,"meta":{"revision":0,"created":1547531151691,"version":0},"$loki":18},{"_id":"5c3d65bd3525a329e0c02242","address":"118 W 2nd St","location":{"type":"Point","coordinates":[-97.1040682330089,32.4332932751884]},"isApproved":true,"items":[],"keys":["Mexican","Breakfast & Brunch","Vegetarian"],"lastUpdated":1547527612276,"name":"Casa Jacaranda","phone":"(817) 489-4775","price":"$","reviewCount":145,"reviewScore":5,"meta":{"revision":0,"created":1547531151691,"version":0},"$loki":19},{"_id":"5c3d65bd3525a329e0c09325","address":"1117 E Belknap St","location":{"type":"Point","coordinates":[-97.103494,32.433753]},"isApproved":true,"items":[],"keys":["Bars","Mexican"],"lastUpdated":1547527612452,"name":"Luna Azul","phone":"(817) 333-5862","price":"$$","reviewCount":12,"reviewScore":3,"meta":{"revision":0,"created":1547531151691,"version":0},"$loki":20},{"_id":"5c3d65bd3525a329e0c12933","address":"1712 Mall Cir","location":{"type":"Point","coordinates":[-97.1557503124853,32.5164076720973]},"isApproved":true,"items":[],"keys":["Vietnamese"],"lastUpdated":1547527612679,"name":"Pho Little Saigon","phone":"(817) 738-0040","price":"$$","reviewCount":39,"reviewScore":4,"meta":{"revision":0,"created":1547531151691,"version":0},"$loki":21},{"_id":"5c3d65bd3525a329e0c098c4","address":"3617 W 7th St","location":{"type":"Point","coordinates":[-97.2601021,32.5166156]},"isApproved":true,"items":[],"keys":["French"],"lastUpdated":1547527612462,"name":"Saint-Emilion Restaurant","phone":"(817) 737-2781","price":"$$$$","reviewCount":183,"reviewScore":4,"meta":{"revision":0,"created":1547531151691,"version":0},"$loki":22},{"_id":"5c3d65bd3525a329e0c0fcda","address":"300 Throckmorton St","location":{"type":"Point","coordinates":[-97.3219713730061,32.5640526404301]},"isApproved":true,"items":[],"keys":["Mexican","Cocktail Bars"],"lastUpdated":1547527612607,"name":"Wild Salsa","phone":"(682) 316-3230","price":"$$","reviewCount":180,"reviewScore":4,"meta":{"revision":0,"created":1547531151691,"version":0},"$loki":23},{"_id":"5c3d65bd3525a329e0c1533e","address":"1651 E Northside Dr","location":{"type":"Point","coordinates":[-97.3178431,32.5626561]},"isApproved":true,"items":[],"keys":["Mexican"],"lastUpdated":1547527612738,"name":"Mercado Juarez","phone":"(469) 502-7305","price":"$$","reviewCount":122,"reviewScore":3.5,"meta":{"revision":0,"created":1547531151691,"version":0},"$loki":24},{"_id":"5c3d65bd3525a329e0c01cc6","address":"1705 N Collins St","location":{"type":"Point","coordinates":[-97.336103,32.5340186]},"isApproved":true,"items":[],"keys":["Salad"],"lastUpdated":1547527612259,"name":"Salata","phone":"(682) 706-3550","price":"$$","reviewCount":53,"reviewScore":4,"meta":{"revision":0,"created":1547531151691,"version":0},"$loki":25},{"_id":"5c3d65bd3525a329e0c164dd","address":"2949 Crockett St","location":{"type":"Point","coordinates":[-97.33366,32.53673]},"isApproved":true,"items":[],"keys":["Pizza","Italian"],"lastUpdated":1547527612764,"name":"Fireside Pies","phone":"(817) 769-3590","price":"$$","reviewCount":379,"reviewScore":4.5,"meta":{"revision":0,"created":1547531151691,"version":0},"$loki":26},{"_id":"5c3d65bd3525a329e0c074e7","address":"2733 Denton Hwy","location":{"type":"Point","coordinates":[-97.334486,32.538707]},"isApproved":true,"items":[],"keys":["Pizza","Italian"],"lastUpdated":1547527612400,"name":"Big Joe’s Pizza & Pasta","phone":"(817) 831-4555","price":"$","reviewCount":58,"reviewScore":4,"meta":{"revision":0,"created":1547531151691,"version":0},"$loki":27},{"_id":"5c3d65bd3525a329e0c04a0e","address":"4880 Mountain Creek Pkwy","location":{"type":"Point","coordinates":[-97.3238203,32.5421512]},"isApproved":true,"items":[],"keys":["Barbeque","Gas Stations"],"lastUpdated":1547527612331,"name":"Texas Best Smokehouse","phone":"(972) 709-7534","price":"","reviewCount":5,"reviewScore":4,"meta":{"revision":0,"created":1547531151691,"version":0},"$loki":28},{"_id":"5c3d65bd3525a329e0c1ab91","address":"7674 McCart Ave","location":{"type":"Point","coordinates":[-97.3239998512798,32.5426151974579]},"isApproved":true,"items":[],"keys":["American (New)"],"lastUpdated":1547527612869,"name":"Tastebuds Eatery","phone":"(817) 361-5500","price":"$$","reviewCount":65,"reviewScore":4.5,"meta":{"revision":0,"created":1547531151691,"version":0},"$loki":29},{"_id":"5c3d65bd3525a329e0c01350","address":"506 E Division St","location":{"type":"Point","coordinates":[-97.3219692707062,32.5417122714905]},"isApproved":true,"items":[],"keys":["Tacos","Cocktail Bars"],"lastUpdated":1547527612248,"name":"Cartel Taco Bar","phone":"(817) 200-6364","price":"","reviewCount":5,"reviewScore":2,"meta":{"revision":0,"created":1547531151691,"version":0},"$loki":30},{"_id":"5c3d65bd3525a329e0c1946c","address":"525 S Broadway","location":{"type":"Point","coordinates":[-97.3210691,32.5423129]},"isApproved":true,"items":[],"keys":["Pizza","Italian"],"lastUpdated":1547527612840,"name":"Napoli’s Pasta & Pizza","phone":"(817) 645-5555","price":"$$","reviewCount":41,"reviewScore":4,"meta":{"revision":0,"created":1547531151691,"version":0},"$loki":31},{"_id":"5c3d65bd3525a329e0c127fa","address":"711 W Magnolia Ave","location":{"type":"Point","coordinates":[-97.3211523,32.5424478]},"isApproved":true,"items":[],"keys":["Japanese","Sushi Bars"],"lastUpdated":1547527612672,"name":"Shinjuku Station","phone":"(817) 923-2695","price":"$$","reviewCount":631,"reviewScore":4.5,"meta":{"revision":0,"created":1547531151691,"version":0},"$loki":32},{"_id":"5c3d65bd3525a329e0c08695","address":"1807 N Collins St","location":{"type":"Point","coordinates":[-97.321612,32.542235]},"isApproved":true,"items":[],"keys":["Bubble Tea","Coffee & Tea","Chicken Wings"],"lastUpdated":1547527612427,"name":"Zero Degrees","phone":"(817) 966-9376","price":"$","reviewCount":210,"reviewScore":4,"meta":{"revision":0,"created":1547531151691,"version":0},"$loki":33},{"_id":"5c3d65bd3525a329e0c029f2","address":"1011 E Arkansas Ln","location":{"type":"Point","coordinates":[-97.321104,32.542689]},"isApproved":true,"items":[],"keys":["Vietnamese","Karaoke"],"lastUpdated":1547527612286,"name":"Cafe Thanh Van","phone":"(817) 462-0379","price":"","reviewCount":5,"reviewScore":5,"meta":{"revision":0,"created":1547531151691,"version":0},"$loki":34},{"_id":"5c3d65bd3525a329e0bffdf6","address":"1211 East Debbie Ln","location":{"type":"Point","coordinates":[-97.3156168781763,32.5438164577315]},"isApproved":true,"items":[],"keys":["Italian","Desserts","Wine Bars"],"lastUpdated":1547527612222,"name":"La Gondola","phone":"(682) 518-1235","price":"$$","reviewCount":136,"reviewScore":3.5,"meta":{"revision":0,"created":1547531151691,"version":0},"$loki":35},{"_id":"5c3d65bd3525a329e0c17b16","address":"295 E Renfro St","location":{"type":"Point","coordinates":[-97.3160064,32.544066]},"isApproved":true,"items":[],"keys":["Food Trucks","American (Traditional)","Gastropubs"],"lastUpdated":1547527612799,"name":"The Rim","phone":"(817) 720-7707","price":"$$","reviewCount":68,"reviewScore":3.5,"meta":{"revision":0,"created":1547531151691,"version":0},"$loki":36},{"_id":"5c3d65bd3525a329e0c13f09","address":"","location":{"type":"Point","coordinates":[-97.3489168,32.5192021]},"isApproved":true,"items":[],"keys":["Food Trucks","Tacos","Burgers"],"lastUpdated":1547527612706,"name":"Max’s Kitchen","phone":"(817) 929-1224","price":"$","reviewCount":19,"reviewScore":5,"meta":{"revision":0,"created":1547531151691,"version":0},"$loki":37},{"_id":"5c3d65bd3525a329e0c163e3","address":"1940 SW Wilshire Blvd","location":{"type":"Point","coordinates":[-97.3557916507797,32.5128762603135]},"isApproved":true,"items":[],"keys":["Tex-Mex"],"lastUpdated":1547527612764,"name":"Rio Bravo","phone":"","price":"","reviewCount":4,"reviewScore":3,"meta":{"revision":0,"created":1547531151691,"version":0},"$loki":38},{"_id":"5c3d65bd3525a329e0c141f1","address":"405 W Moseley","location":{"type":"Point","coordinates":[-96.8878074810142,32.1838516736614]},"isApproved":true,"items":[],"keys":["Mexican"],"lastUpdated":1547527612713,"name":"Mamma’s Place","phone":"(972) 483-1819","price":"$","reviewCount":4,"reviewScore":4,"meta":{"revision":0,"created":1547531151691,"version":0},"$loki":39},{"_id":"5c3d65bd3525a329e0c1997c","address":"1417 E Tyler St","location":{"type":"Point","coordinates":[-96.9002810998136,32.1962848185163]},"isApproved":true,"items":[],"keys":["Burgers","Fast Food"],"lastUpdated":1547527612843,"name":"Whataburger","phone":"(903) 677-3838","price":"","reviewCount":7,"reviewScore":3.5,"meta":{"revision":0,"created":1547531151691,"version":0},"$loki":40},{"_id":"5c3d65bd3525a329e0c13d8f","address":"901 W 7th Ave","location":{"type":"Point","coordinates":[-96.9006651,32.1972335]},"isApproved":true,"items":[],"keys":["Fast Food"],"lastUpdated":1547527612706,"name":"Golden Chick","phone":"(903) 872-2888","price":"$","reviewCount":3,"reviewScore":3.5,"meta":{"revision":0,"created":1547531151691,"version":0},"$loki":41},{"_id":"5c3d65bd3525a329e0c0a15f","address":"100 L R Campbell Rd","location":{"type":"Point","coordinates":[-96.9004393747792,32.1964238805659]},"isApproved":true,"items":[],"keys":["Sandwiches","Fast Food"],"lastUpdated":1547527612473,"name":"Subway","phone":"(972) 483-7292","price":"$","reviewCount":4,"reviewScore":4,"meta":{"revision":0,"created":1547531151691,"version":0},"$loki":42},{"_id":"5c3d65bd3525a329e0c07aaf","address":"507 N Hwy 77","location":{"type":"Point","coordinates":[-96.8984289,32.1960722]},"isApproved":true,"items":[],"keys":["Asian Fusion","Buffets","Mongolian"],"lastUpdated":1547527612409,"name":"Asian King Buffet","phone":"(972) 937-5888","price":"$$","reviewCount":23,"reviewScore":3,"meta":{"revision":0,"created":1547531151691,"version":0},"$loki":43},{"_id":"5c3d65bd3525a329e0c037bf","address":"1020 Dale Evans Dr","location":{"type":"Point","coordinates":[-96.897515,32.195319]},"isApproved":true,"items":[],"keys":["Fast Food","Burgers","Ice Cream & Frozen Yogurt"],"lastUpdated":1547527612304,"name":"Sonic Drive-In","phone":"(469) 257-2003","price":"$","reviewCount":6,"reviewScore":2.5,"meta":{"revision":0,"created":1547531151691,"version":0},"$loki":44},{"_id":"5c3d65bd3525a329e0c08379","address":"1021 Dale Evans Dr","location":{"type":"Point","coordinates":[-96.8987394869328,32.1942918046798]},"isApproved":true,"items":[],"keys":["Fast Food","Burgers"],"lastUpdated":1547527612420,"name":"Carl’s Jr","phone":"(972) 483-1657","price":"$","reviewCount":8,"reviewScore":2,"meta":{"revision":0,"created":1547531151691,"version":0},"$loki":45},{"_id":"5c3d65bd3525a329e0c08a8d","address":"325 W Main St","location":{"type":"Point","coordinates":[-96.9897594,32.4810075]},"isApproved":true,"items":[],"keys":["Seafood"],"lastUpdated":1547527612430,"name":"Pappy’s Catfish & More","phone":"(972) 854-6987","price":"$$","reviewCount":12,"reviewScore":4,"meta":{"revision":0,"created":1547531151691,"version":0},"$loki":46},{"_id":"5c3d65bd3525a329e0c0cfe6","address":"3001 Luisa Ln","location":{"type":"Point","coordinates":[-96.9941940307617,32.4823837280273]},"isApproved":true,"items":[],"keys":["Mexican"],"lastUpdated":1547527612539,"name":"El Rinconcito","phone":"(817) 783-3041","price":"","reviewCount":1,"reviewScore":5,"meta":{"revision":0,"created":1547531151691,"version":0},"$loki":47},{"_id":"5c3d65bd3525a329e0c063dc","address":"200 S Main St","location":{"type":"Point","coordinates":[-96.9942338,32.482586]},"isApproved":true,"items":[],"keys":["Chicken Shop"],"lastUpdated":1547527612370,"name":"Babe’s Chicken Dinner House","phone":"(469) 272-4500","price":"$$","reviewCount":161,"reviewScore":4,"meta":{"revision":0,"created":1547531151691,"version":0},"$loki":48},{"_id":"5c3d65bd3525a329e0c02453","address":"115 E Pearl St","location":{"type":"Point","coordinates":[-96.9974567,32.4818774]},"isApproved":true,"items":[],"keys":["Steakhouses","Lounges","American (Traditional)"],"lastUpdated":1547527612277,"name":"Eighteen Ninety Grille & Lounge","phone":"(817) 533-3400","price":"$$$","reviewCount":106,"reviewScore":4,"meta":{"revision":0,"created":1547531151691,"version":0},"$loki":49},{"_id":"5c3d65bd3525a329e0c0ff14","address":"295 E Renfro St","location":{"type":"Point","coordinates":[-96.9938678,32.4663468]},"isApproved":true,"items":[],"keys":["Tex-Mex"],"lastUpdated":1547527612609,"name":"Rio Mambo","phone":"(817) 295-5453","price":"$$","reviewCount":82,"reviewScore":3.5,"meta":{"revision":0,"created":1547531151691,"version":0},"$loki":50},{"_id":"5c3d65bd3525a329e0c1588c","address":"9805 Camp Bowie W","location":{"type":"Point","coordinates":[-96.983497,32.477168]},"isApproved":true,"items":[],"keys":["Italian"],"lastUpdated":1547527612747,"name":"Margie’s Original Italian Kitchen","phone":"(817) 244-4301","price":"$$","reviewCount":53,"reviewScore":3.5,"meta":{"revision":0,"created":1547531151691,"version":0},"$loki":51},{"_id":"5c3d65bd3525a329e0c0ea3f","address":"4307 Camp Bowie Blvd","location":{"type":"Point","coordinates":[-96.981969,32.474094]},"isApproved":true,"items":[],"keys":["Ethiopian"],"lastUpdated":1547527612581,"name":"Samson’s Market Bistro","phone":"(214) 966-4446","price":"$$","reviewCount":131,"reviewScore":4.5,"meta":{"revision":0,"created":1547531151691,"version":0},"$loki":52},{"_id":"5c3d65bd3525a329e0c1a603","address":"6051 SW Loop 820","location":{"type":"Point","coordinates":[-96.9997888,32.433935]},"isApproved":true,"items":[],"keys":["Sports Bars","American (Traditional)","Burgers"],"lastUpdated":1547527612860,"name":"Fox & Hound","phone":"(817) 423-3600","price":"$$","reviewCount":68,"reviewScore":3.5,"meta":{"revision":0,"created":1547531151691,"version":0},"$loki":53},{"_id":"5c3d65bd3525a329e0c0ac0f","address":"6115 Camp Bowie Blvd","location":{"type":"Point","coordinates":[-96.9990926,32.4348289]},"isApproved":true,"items":[],"keys":["Seafood","Cajun/Creole","Cocktail Bars"],"lastUpdated":1547527612490,"name":"The Blu Crab Seafood House & Bar","phone":"(817) 763-8585","price":"$$","reviewCount":395,"reviewScore":4,"meta":{"revision":0,"created":1547531151691,"version":0},"$loki":54},{"_id":"5c3d65bd3525a329e0c066f7","address":"603 N General Bruce Dr","location":{"type":"Point","coordinates":[-97.2952419031841,31.9623305890042]},"isApproved":true,"items":[],"keys":["Pizza","Italian","Chicken Wings"],"lastUpdated":1547527612378,"name":"Pizza Hut","phone":"(254) 742-2222","price":"$$","reviewCount":12,"reviewScore":2.5,"meta":{"revision":0,"created":1547531151691,"version":0},"$loki":55}],"idIndex":[1,2,3,4,5,6,7,8,9,10,11,12,13,14,15,16,17,18,19,20,21,22,23,24,25,26,27,28,29,30,31,32,33,34,35,36,37,38,39,40,41,42,43,44,45,46,47,48,49,50,51,52,53,54,55],"binaryIndices":{},"constraints":null,"uniqueNames":[],"transforms":{},"objType":"restaurants","dirty":true,"cachedIndex":null,"cachedBinaryIndex":null,"cachedData":null,"adaptiveBinaryIndices":true,"transactional":false,"cloneObjects":false,"cloneMethod":"parse-stringify","asyncListeners":false,"disableMeta":false,"disableChangesApi":true,"disableDeltaChangesApi":true,"autoupdate":false,"serializableIndices":true,"ttl":null,"maxId":55,"DynamicViews":[],"events":{"insert":[],"update":[],"pre-insert":[],"pre-update":[],"close":[],"flushbuffer":[],"error":[],"delete":[null],"warning":[null]},"changes":[]}],"databaseVersion":1.5,"engineVersion":1.5,"autosave":false,"autosaveInterval":5000,"autosaveHandle":null,"throttledSaves":true,"options":{"serializationMethod":"normal","destructureDelimiter":"$<\n"},"persistenceMethod":"fs","persistenceAdapter":null,"verbose":false,"events":{"init":[null],"loaded":[],"flushChanges":[],"close":[],"changes":[],"warning":[]},"ENV":"NODEJS"}