{"filename":"-97.25-35","collections":[{"name":"restaurants","data":[{"_id":"5c3d65bd3525a329e0c12b53","address":"508 S Green Ave","location":{"type":"Point","coordinates":[-97.418385,35.1823447]},"isApproved":true,"items":[],"keys":["Fast Food","Burgers","Ice Cream & Frozen Yogurt"],"lastUpdated":1547527612680,"name":"Sonic Drive-In","phone":"(405) 527-9424","price":"$","reviewCount":4,"reviewScore":2,"meta":{"revision":0,"created":1547531150393,"version":0},"$loki":1},{"_id":"5c3d65bd3525a329e0c0a3e5","address":"Building 3985 - Sheridan Rd","location":{"type":"Point","coordinates":[-97.4175783,35.1813902]},"isApproved":true,"items":[],"keys":["Pizza","Italian","Chicken Wings"],"lastUpdated":1547527612480,"name":"Pizza Hut","phone":"(580) 357-3780","price":"$$","reviewCount":4,"reviewScore":3.5,"meta":{"revision":0,"created":1547531150393,"version":0},"$loki":2},{"_id":"5c3d65bd3525a329e0c1433d","address":"405 Hazlett St","location":{"type":"Point","coordinates":[-97.4186596,35.1829536]},"isApproved":true,"items":[],"keys":["Pizza"],"lastUpdated":1547527612714,"name":"Simple Simon’s Pizza","phone":"(405) 643-2692","price":"","reviewCount":1,"reviewScore":5,"meta":{"revision":0,"created":1547531150393,"version":0},"$loki":3},{"_id":"5c3d65bd3525a329e0c08b21","address":"1718 Gruber Rd","location":{"type":"Point","coordinates":[-97.3253494,35.0142902]},"isApproved":true,"items":[],"keys":["Sandwiches"],"lastUpdated":1547527612436,"name":"Charley’s Grilled Subs","phone":"","price":"$$","reviewCount":4,"reviewScore":2,"meta":{"revision":0,"created":1547531150393,"version":0},"$loki":4},{"_id":"5c3d65bd3525a329e0c04aa7","address":"2211 S 9th St","location":{"type":"Point","coordinates":[-97.394198,35.145828]},"isApproved":true,"items":[],"keys":["Fast Food","Burgers","Coffee & Tea"],"lastUpdated":1547527612331,"name":"McDonald’s","phone":"(405) 527-6595","price":"","reviewCount":10,"reviewScore":2,"meta":{"revision":0,"created":1547531150393,"version":0},"$loki":5},{"_id":"5c3d65bd3525a329e0c0ade1","address":"24169 State Hwy 49","location":{"type":"Point","coordinates":[-97.394706,35.1399624]},"isApproved":true,"items":[],"keys":["Sandwiches","Fast Food"],"lastUpdated":1547527612490,"name":"Subway","phone":"(580) 529-2882","price":"$","reviewCount":1,"reviewScore":4,"meta":{"revision":0,"created":1547531150393,"version":0},"$loki":6},{"_id":"5c3d65bd3525a329e0c1286b","address":"120 David L Boren Blvd","location":{"type":"Point","coordinates":[-97.394386,35.1391927]},"isApproved":true,"items":[],"keys":["American (New)"],"lastUpdated":1547527612678,"name":"Flying Cow Cafe","phone":"(405) 325-1141","price":"$","reviewCount":6,"reviewScore":4,"meta":{"revision":0,"created":1547531150393,"version":0},"$loki":7},{"_id":"5c3d65bd3525a329e0c17ecc","address":"2234 N Green Ave","location":{"type":"Point","coordinates":[-97.3948663339268,35.1392083072049]},"isApproved":true,"items":[],"keys":["Barbeque","Burgers"],"lastUpdated":1547527612802,"name":"Van’s Pig Stand","phone":"(405) 703-3000","price":"$$","reviewCount":10,"reviewScore":4,"meta":{"revision":0,"created":1547531150393,"version":0},"$loki":8},{"_id":"5c3d65bd3525a329e0c09c54","address":"803 N Main St","location":{"type":"Point","coordinates":[-97.3963599,35.1506499]},"isApproved":true,"items":[],"keys":["Pizza","Italian","Chicken Wings"],"lastUpdated":1547527612465,"name":"Pizza Hut","phone":"(405) 872-3444","price":"$$","reviewCount":7,"reviewScore":2,"meta":{"revision":0,"created":1547531150393,"version":0},"$loki":9},{"_id":"5c3d65bd3525a329e0c1404c","address":"2995 Currie Rd","location":{"type":"Point","coordinates":[-97.3962754,35.1496296]},"isApproved":true,"items":[],"keys":["Fast Food","Burgers"],"lastUpdated":1547527612707,"name":"Burger King","phone":"(580) 248-1047","price":"$","reviewCount":6,"reviewScore":1.5,"meta":{"revision":0,"created":1547531150393,"version":0},"$loki":10},{"_id":"5c3d65bd3525a329e0c10f74","address":"510 W Grand Ave","location":{"type":"Point","coordinates":[-97.3699140921235,35.0396456553075]},"isApproved":true,"items":[],"keys":["Chinese"],"lastUpdated":1547527612640,"name":"New China","phone":"(405) 222-1010","price":"$","reviewCount":5,"reviewScore":2.5,"meta":{"revision":0,"created":1547531150393,"version":0},"$loki":11},{"_id":"5c3d65bd3525a329e0c0d3dd","address":"3010 Classen Blvd","location":{"type":"Point","coordinates":[-97.388942,35.041891]},"isApproved":true,"items":[],"keys":["American (Traditional)","Chicken Wings","Sports Bars"],"lastUpdated":1547527612546,"name":"Buffalo Wild Wings","phone":"(405) 701-8254","price":"$","reviewCount":49,"reviewScore":2.5,"meta":{"revision":0,"created":1547531150393,"version":0},"$loki":12},{"_id":"5c3d65bd3525a329e0c0fe3c","address":"1700 S 4th St","location":{"type":"Point","coordinates":[-97.3672926,35.0322479]},"isApproved":true,"items":[],"keys":["Fast Food","Chicken Wings"],"lastUpdated":1547527612609,"name":"Chicken Express","phone":"(405) 224-5800","price":"$","reviewCount":7,"reviewScore":2.5,"meta":{"revision":0,"created":1547531150393,"version":0},"$loki":13},{"_id":"5c3d65bd3525a329e0c05c37","address":"2030 Hwy 9 W","location":{"type":"Point","coordinates":[-97.3666,35.0326]},"isApproved":true,"items":[],"keys":["Burgers","Fast Food","Coffee & Tea"],"lastUpdated":1547527612356,"name":"McDonald’s","phone":"(405) 329-5900","price":"$","reviewCount":5,"reviewScore":1.5,"meta":{"revision":0,"created":1547531150393,"version":0},"$loki":14},{"_id":"5c3d65bd3525a329e0c10e9b","address":"400 W Washington St","location":{"type":"Point","coordinates":[-97.3643091,35.0137404]},"isApproved":true,"items":[],"keys":["American (Traditional)","Sports Bars"],"lastUpdated":1547527612634,"name":"The Rusty Knot","phone":"(405) 527-0465","price":"$$","reviewCount":18,"reviewScore":4.5,"meta":{"revision":0,"created":1547531150393,"version":0},"$loki":15},{"_id":"5c3d65bd3525a329e0c05738","address":"1544 W State Hwy 9","location":{"type":"Point","coordinates":[-97.3660332,35.0078367764703]},"isApproved":true,"items":[],"keys":["Chinese","Fast Food"],"lastUpdated":1547527612348,"name":"Panda Express","phone":"(405) 217-5011","price":"","reviewCount":2,"reviewScore":2,"meta":{"revision":0,"created":1547531150393,"version":0},"$loki":16},{"_id":"5c3d65bd3525a329e0c1283a","address":"180 E Lake Dr","location":{"type":"Point","coordinates":[-97.3636065423489,35.0129647915288]},"isApproved":true,"items":[],"keys":["American (New)","Coffee & Tea"],"lastUpdated":1547527612678,"name":"Riverside Cafe","phone":"(580) 529-2626","price":"$$","reviewCount":47,"reviewScore":3,"meta":{"revision":0,"created":1547531150393,"version":0},"$loki":17},{"_id":"5c3d65bd3525a329e0c0b73d","address":"1315 E Central Blvd","location":{"type":"Point","coordinates":[-97.3611394,35.0136831]},"isApproved":true,"items":[],"keys":["Barbeque"],"lastUpdated":1547527612505,"name":"K I G Bar-B-Que","phone":"(405) 247-2454","price":"","reviewCount":1,"reviewScore":4,"meta":{"revision":0,"created":1547531150393,"version":0},"$loki":18},{"_id":"5c3d65bd3525a329e0c11e29","address":"104 NW 2nd St","location":{"type":"Point","coordinates":[-97.366586,34.996944]},"isApproved":true,"items":[],"keys":["Food Trucks","Seafood","Barbeque"],"lastUpdated":1547527612661,"name":"Bailey’s Catfish & More","phone":"(580) 713-9338","price":"","reviewCount":2,"reviewScore":4,"meta":{"revision":0,"created":1547531150393,"version":0},"$loki":19},{"_id":"5c3d65bd3525a329e0c0352b","address":"502 W Cherokee St","location":{"type":"Point","coordinates":[-97.4843426011446,35.0606034450674]},"isApproved":true,"items":[],"keys":["Sandwiches","Fast Food"],"lastUpdated":1547527612303,"name":"Subway","phone":"(405) 756-4826","price":"","reviewCount":1,"reviewScore":5,"meta":{"revision":0,"created":1547531150393,"version":0},"$loki":20},{"_id":"5c3d65bd3525a329e0c019ff","address":"1737 S Green Ave","location":{"type":"Point","coordinates":[-97.4764697,35.1462406]},"isApproved":true,"items":[],"keys":["American (Traditional)"],"lastUpdated":1547527612257,"name":"Ruby’s Resturant","phone":"(405) 527-5577","price":"","reviewCount":1,"reviewScore":4,"meta":{"revision":0,"created":1547531150393,"version":0},"$loki":21},{"_id":"5c3d65bd3525a329e0c12b2f","address":"555 N Main St","location":{"type":"Point","coordinates":[-97.4511507,35.1810786]},"isApproved":true,"items":[],"keys":["Mexican"],"lastUpdated":1547527612680,"name":"Taco Mayo","phone":"(405) 872-7007","price":"","reviewCount":3,"reviewScore":2.5,"meta":{"revision":0,"created":1547531150393,"version":0},"$loki":22},{"_id":"5c3d65bd3525a329e0c049af","address":"5650 Sheridan Blvd","location":{"type":"Point","coordinates":[-97.5064592304557,35.1818630977889]},"isApproved":true,"items":[],"keys":["Sandwiches","Gas Stations","Convenience Stores"],"lastUpdated":1547527612331,"name":"Shoppette Sheridan North Express","phone":"(580) 250-1204","price":"$","reviewCount":1,"reviewScore":1,"meta":{"revision":0,"created":1547531150393,"version":0},"$loki":23},{"_id":"5c3d65bd3525a329e0c01005","address":"1415 E Central Blvd","location":{"type":"Point","coordinates":[-97.5005294,35.1811021]},"isApproved":true,"items":[],"keys":["Hotels","Restaurants"],"lastUpdated":1547527612238,"name":"Best Value Inn and Suites","phone":"(405) 247-3100","price":"","reviewCount":1,"reviewScore":1,"meta":{"revision":0,"created":1547531150393,"version":0},"$loki":24},{"_id":"5c3d65bd3525a329e0c16132","address":"1901 S Green Ave","location":{"type":"Point","coordinates":[-97.500598,35.181501]},"isApproved":true,"items":[],"keys":["Mexican"],"lastUpdated":1547527612762,"name":"Taco Mayo","phone":"(405) 691-8226","price":"","reviewCount":5,"reviewScore":2,"meta":{"revision":0,"created":1547531150393,"version":0},"$loki":25},{"_id":"5c3d65bd3525a329e0c0132a","address":"1544 W State Hwy 9","location":{"type":"Point","coordinates":[-97.4998634152857,35.1810243147093]},"isApproved":true,"items":[],"keys":["Pizza","Burgers"],"lastUpdated":1547527612241,"name":"Rick’s Cafe","phone":"","price":"$","reviewCount":2,"reviewScore":3,"meta":{"revision":0,"created":1547531150393,"version":0},"$loki":26},{"_id":"5c3d65bd3525a329e0c00d3d","address":"215 E Main St","location":{"type":"Point","coordinates":[-97.2169933,34.7380076]},"isApproved":true,"items":[],"keys":["Mexican"],"lastUpdated":1547527612236,"name":"Las Cascadas Mexican Restaurant","phone":"(580) 369-2031","price":"$$","reviewCount":33,"reviewScore":3.5,"meta":{"revision":0,"created":1547531150393,"version":0},"$loki":27},{"_id":"5c3d65bd3525a329e0c1613a","address":"200 W Charles Ave","location":{"type":"Point","coordinates":[-97.2194299,34.7388628]},"isApproved":true,"items":[],"keys":["Food Trucks","Mexican"],"lastUpdated":1547527612762,"name":"Norma’s Taco Truck","phone":"(405) 207-6726","price":"$","reviewCount":6,"reviewScore":4.5,"meta":{"revision":0,"created":1547531150393,"version":0},"$loki":28},{"_id":"5c3d65bd3525a329e0c07c0b","address":"1906 W Broadway Ave","location":{"type":"Point","coordinates":[-97.2216577,34.7386864]},"isApproved":true,"items":[],"keys":["Fast Food"],"lastUpdated":1547527612410,"name":"Golden Chick","phone":"(580) 622-6521","price":"","reviewCount":1,"reviewScore":3,"meta":{"revision":0,"created":1547531150393,"version":0},"$loki":29},{"_id":"5c3d65bd3525a329e0c081f3","address":"35886 Ok-29","location":{"type":"Point","coordinates":[-97.2204818725586,34.7402877807617]},"isApproved":true,"items":[],"keys":["Bars","Burgers"],"lastUpdated":1547527612420,"name":"Safari Bar & Restaurant","phone":"(405) 665-2722","price":"$$","reviewCount":9,"reviewScore":4,"meta":{"revision":0,"created":1547531150393,"version":0},"$loki":30},{"_id":"5c3d65bd3525a329e0c0f665","address":"4145 US-77","location":{"type":"Point","coordinates":[-97.2192826914009,34.7400329499336]},"isApproved":true,"items":[],"keys":["Bakeries","Desserts","Breakfast & Brunch"],"lastUpdated":1547527612598,"name":"Arbuckle Mountain Fried Pies","phone":"(580) 369-7830","price":"$","reviewCount":131,"reviewScore":4,"meta":{"revision":0,"created":1547531150393,"version":0},"$loki":31},{"_id":"5c3d65bd3525a329e0c033a3","address":"2503 W Grant Ave","location":{"type":"Point","coordinates":[-97.228874206543,34.7439346313477]},"isApproved":true,"items":[],"keys":["American (Traditional)","Diners","Breakfast & Brunch"],"lastUpdated":1547527612302,"name":"Happy Days Diner","phone":"(405) 238-2333","price":"$$","reviewCount":51,"reviewScore":3,"meta":{"revision":0,"created":1547531150393,"version":0},"$loki":32},{"_id":"5c3d65bd3525a329e0c13d65","address":"2609 W Grant Ave","location":{"type":"Point","coordinates":[-97.2246904,34.7384206]},"isApproved":true,"items":[],"keys":["Fast Food","Mexican"],"lastUpdated":1547527612706,"name":"Taco Bell","phone":"(405) 238-3075","price":"","reviewCount":5,"reviewScore":1.5,"meta":{"revision":0,"created":1547531150393,"version":0},"$loki":33},{"_id":"5c3d65bd3525a329e0c09069","address":"217 E Main St","location":{"type":"Point","coordinates":[-97.247233,34.738739]},"isApproved":true,"items":[],"keys":["Desserts","Salad","Sandwiches"],"lastUpdated":1547527612439,"name":"The Bistro","phone":"(580) 247-9221","price":"","reviewCount":4,"reviewScore":4,"meta":{"revision":0,"created":1547531150393,"version":0},"$loki":34},{"_id":"5c3d65bd3525a329e0c0934f","address":"230 W Washington St","location":{"type":"Point","coordinates":[-97.247233,34.738739]},"isApproved":true,"items":[],"keys":["Mexican"],"lastUpdated":1547527612452,"name":"Guadalupe’s","phone":"(405) 527-0516","price":"$$","reviewCount":11,"reviewScore":3,"meta":{"revision":0,"created":1547531150393,"version":0},"$loki":35},{"_id":"5c3d65bd3525a329e0c1113f","address":"1544 State Hwy 9","location":{"type":"Point","coordinates":[-97.2485889518328,34.7384301749829]},"isApproved":true,"items":[],"keys":["Buffets"],"lastUpdated":1547527612641,"name":"The River Buffet","phone":"(405) 322-6000","price":"$$","reviewCount":17,"reviewScore":2,"meta":{"revision":0,"created":1547531150393,"version":0},"$loki":36},{"_id":"5c3d65bd3525a329e0c12479","address":"330 N Mississippi Ave","location":{"type":"Point","coordinates":[-97.2485889518328,34.7384301749829]},"isApproved":true,"items":[],"keys":["Sandwiches","Fast Food","Delis"],"lastUpdated":1547527612670,"name":"Jimmy John’s","phone":"(580) 279-0588","price":"","reviewCount":3,"reviewScore":3.5,"meta":{"revision":0,"created":1547531150393,"version":0},"$loki":37},{"_id":"5c3d65bd3525a329e0c157c8","address":"423 W Smith St","location":{"type":"Point","coordinates":[-97.253397,34.740177]},"isApproved":true,"items":[],"keys":["Burgers","Fast Food","Ice Cream & Frozen Yogurt"],"lastUpdated":1547527612747,"name":"Sonic Drive-In","phone":"(580) 759-2173","price":"","reviewCount":1,"reviewScore":5,"meta":{"revision":0,"created":1547531150393,"version":0},"$loki":38},{"_id":"5c3d65bd3525a329e0c18902","address":"127 N Main","location":{"type":"Point","coordinates":[-97.253397,34.740177]},"isApproved":true,"items":[],"keys":["Sandwiches","Fast Food"],"lastUpdated":1547527612822,"name":"Subway","phone":"(405) 485-4333","price":"","reviewCount":2,"reviewScore":4,"meta":{"revision":0,"created":1547531150393,"version":0},"$loki":39},{"_id":"5c3d65bd3525a329e0c14153","address":"1911 W Grant Ave","location":{"type":"Point","coordinates":[-97.25099,34.7393731]},"isApproved":true,"items":[],"keys":["Barbeque","Seafood"],"lastUpdated":1547527612707,"name":"Punkin’s Bar-B-Que & Catfish","phone":"(405) 238-2320","price":"$$","reviewCount":40,"reviewScore":3.5,"meta":{"revision":0,"created":1547531150393,"version":0},"$loki":40},{"_id":"5c3d65bd3525a329e0c14d9c","address":"507 NE 1st St","location":{"type":"Point","coordinates":[-97.25099,34.7393731]},"isApproved":true,"items":[],"keys":["Steakhouses","Burgers"],"lastUpdated":1547527612730,"name":"Jo’s Burgers","phone":"(405) 247-4924","price":"$","reviewCount":4,"reviewScore":2.5,"meta":{"revision":0,"created":1547531150393,"version":0},"$loki":41},{"_id":"5c3d65bd3525a329e0c16658","address":"500 N Mississippi","location":{"type":"Point","coordinates":[-97.261131,34.740701]},"isApproved":true,"items":[],"keys":["Mexican","Tex-Mex","Fast Food"],"lastUpdated":1547527612765,"name":"Taco Bell","phone":"(580) 436-3930","price":"$","reviewCount":9,"reviewScore":1.5,"meta":{"revision":0,"created":1547531150393,"version":0},"$loki":42},{"_id":"5c3d65bd3525a329e0c063e7","address":"802 E Broadway St","location":{"type":"Point","coordinates":[-97.2573655843734,34.7402459749135]},"isApproved":true,"items":[],"keys":["Fast Food","Burgers","Ice Cream & Frozen Yogurt"],"lastUpdated":1547527612370,"name":"Sonic Drive-In","phone":"(405) 527-3619","price":"","reviewCount":2,"reviewScore":1,"meta":{"revision":0,"created":1547531150393,"version":0},"$loki":43},{"_id":"5c3d65bd3525a329e0c19879","address":"609 N Mississippi Ave","location":{"type":"Point","coordinates":[-97.2573655843734,34.7402459749135]},"isApproved":true,"items":[],"keys":["Burgers","Fast Food"],"lastUpdated":1547527612842,"name":"Burger King","phone":"(580) 436-1138","price":"","reviewCount":3,"reviewScore":2,"meta":{"revision":0,"created":1547531150393,"version":0},"$loki":44},{"_id":"5c3d65bd3525a329e0c05617","address":"2625 W Grant Ave","location":{"type":"Point","coordinates":[-97.2598342895508,34.7404479980469]},"isApproved":true,"items":[],"keys":["Italian"],"lastUpdated":1547527612348,"name":"Romas Italian Restaurant","phone":"(405) 207-9930","price":"$$","reviewCount":44,"reviewScore":4.5,"meta":{"revision":0,"created":1547531150393,"version":0},"$loki":45},{"_id":"5c3d65bd3525a329e0c0e628","address":"1517 E Veterans Memorial Hwy","location":{"type":"Point","coordinates":[-97.2598342895508,34.7404479980469]},"isApproved":true,"items":[],"keys":["Mexican"],"lastUpdated":1547527612574,"name":"El Tepeyac","phone":"(405) 485-3131","price":"","reviewCount":10,"reviewScore":3,"meta":{"revision":0,"created":1547531150393,"version":0},"$loki":46},{"_id":"5c3d65bd3525a329e0c00476","address":"2635 W Grant Ave","location":{"type":"Point","coordinates":[-97.2589,34.7396997090037]},"isApproved":true,"items":[],"keys":["Burgers","Fast Food","Coffee & Tea"],"lastUpdated":1547527612226,"name":"McDonald’s","phone":"(405) 238-2282","price":"","reviewCount":8,"reviewScore":2.5,"meta":{"revision":0,"created":1547531150393,"version":0},"$loki":47},{"_id":"5c3d65bd3525a329e0c1420b","address":"400 N Mississippi Ave","location":{"type":"Point","coordinates":[-97.2589995301176,34.7398863282788]},"isApproved":true,"items":[],"keys":["Fast Food","Sandwiches"],"lastUpdated":1547527612713,"name":"Arby’s","phone":"(580) 436-0730","price":"","reviewCount":2,"reviewScore":2,"meta":{"revision":0,"created":1547531150393,"version":0},"$loki":48},{"_id":"5c3d65bd3525a329e0c0197e","address":"101 S D","location":{"type":"Point","coordinates":[-97.2594528198242,34.7387199401855]},"isApproved":true,"items":[],"keys":["Pizza","Italian","Chicken Wings"],"lastUpdated":1547527612257,"name":"Pizza Hut","phone":"(580) 369-2302","price":"$$","reviewCount":7,"reviewScore":2.5,"meta":{"revision":0,"created":1547531150393,"version":0},"$loki":49},{"_id":"5c3d65bd3525a329e0c15fb9","address":"909 S Cob Lk","location":{"type":"Point","coordinates":[-97.2594528198242,34.7387199401855]},"isApproved":true,"items":[],"keys":["Fast Food","Burgers","Ice Cream & Frozen Yogurt"],"lastUpdated":1547527612756,"name":"Sonic Drive-In","phone":"(580) 588-5083","price":"","reviewCount":2,"reviewScore":2,"meta":{"revision":0,"created":1547531150393,"version":0},"$loki":50},{"_id":"5c3d65bd3525a329e0c0040d","address":"103 Humphrey Rd","location":{"type":"Point","coordinates":[-97.2594,34.73822]},"isApproved":true,"items":[],"keys":["Diners","Salad","Chicken Wings"],"lastUpdated":1547527612226,"name":"The Shed","phone":"(405) 926-2081","price":"","reviewCount":14,"reviewScore":4,"meta":{"revision":0,"created":1547531150393,"version":0},"$loki":51},{"_id":"5c3d65bd3525a329e0c0bf17","address":"109 W Main St","location":{"type":"Point","coordinates":[-97.2576141357422,34.7388916015625]},"isApproved":true,"items":[],"keys":["Sandwiches","Fast Food"],"lastUpdated":1547527612516,"name":"Subway","phone":"(580) 369-3024","price":"$","reviewCount":3,"reviewScore":1,"meta":{"revision":0,"created":1547531150393,"version":0},"$loki":52},{"_id":"5c3d65bd3525a329e0c01c84","address":"1544 W State Highway 9","location":{"type":"Point","coordinates":[-97.257012,34.739448]},"isApproved":true,"items":[],"keys":["Fish & Chips"],"lastUpdated":1547527612259,"name":"Chips ‘N Ales","phone":"(405) 322-6232","price":"$$","reviewCount":16,"reviewScore":3.5,"meta":{"revision":0,"created":1547531150393,"version":0},"$loki":53},{"_id":"5c3d65bd3525a329e0c1716e","address":"911 North Broadway","location":{"type":"Point","coordinates":[-97.257012,34.739448]},"isApproved":true,"items":[],"keys":["Buffets","American (Traditional)"],"lastUpdated":1547527612782,"name":"J.D.’s Cafeteria","phone":"(580) 436-3192","price":"$","reviewCount":5,"reviewScore":3,"meta":{"revision":0,"created":1547531150393,"version":0},"$loki":54},{"_id":"5c3d65bd3525a329e0c05a2f","address":"7457 US Hwy 277","location":{"type":"Point","coordinates":[-97.255749,34.739941]},"isApproved":true,"items":[],"keys":["Burgers","Fast Food","Ice Cream & Frozen Yogurt"],"lastUpdated":1547527612356,"name":"Sonic Drive-In","phone":"(580) 492-5066","price":"","reviewCount":3,"reviewScore":2.5,"meta":{"revision":0,"created":1547531150393,"version":0},"$loki":55},{"_id":"5c3d65bd3525a329e0c0bbd8","address":"1010 Lonnie Abbott Blvd","location":{"type":"Point","coordinates":[-97.255749,34.739941]},"isApproved":true,"items":[],"keys":["Mexican","Ice Cream & Frozen Yogurt"],"lastUpdated":1547527612509,"name":"Fresco’s Mexican Grill & Gourmet Frozen Yogurt","phone":"(580) 332-2959","price":"$","reviewCount":13,"reviewScore":3.5,"meta":{"revision":0,"created":1547531150393,"version":0},"$loki":56},{"_id":"5c3d65bd3525a329e0c09b5b","address":"818 N Country Club Rd","location":{"type":"Point","coordinates":[-97.256121,34.738745]},"isApproved":true,"items":[],"keys":["Fast Food","Burgers","Coffee & Tea"],"lastUpdated":1547527612464,"name":"McDonald’s","phone":"(580) 436-4216","price":"","reviewCount":4,"reviewScore":2,"meta":{"revision":0,"created":1547531150393,"version":0},"$loki":57},{"_id":"5c3d65bd3525a329e0c05717","address":"1718 N Green Ave","location":{"type":"Point","coordinates":[-97.2422540032653,34.7082673291301]},"isApproved":true,"items":[],"keys":["Fast Food","Chicken Wings","Chicken Shop"],"lastUpdated":1547527612348,"name":"KFC","phone":"(405) 527-9994","price":"","reviewCount":2,"reviewScore":1,"meta":{"revision":0,"created":1547531150393,"version":0},"$loki":58},{"_id":"5c3d65bd3525a329e0c1a40a","address":"908 Arlington Ctr","location":{"type":"Point","coordinates":[-97.2422540032653,34.7082673291301]},"isApproved":true,"items":[],"keys":["Pizza","Chicken Wings","Sandwiches"],"lastUpdated":1547527612859,"name":"Domino’s Pizza","phone":"(580) 436-5361","price":"","reviewCount":5,"reviewScore":2.5,"meta":{"revision":0,"created":1547531150393,"version":0},"$loki":59},{"_id":"5c3d65bd3525a329e0c1a4f4","address":"2514 W Grant Ave","location":{"type":"Point","coordinates":[-97.2273101806641,34.7362632751465]},"isApproved":true,"items":[],"keys":["Fast Food","Sandwiches"],"lastUpdated":1547527612859,"name":"Arby’s","phone":"","price":"$","reviewCount":6,"reviewScore":2.5,"meta":{"revision":0,"created":1547531150393,"version":0},"$loki":60},{"_id":"5c3d65bd3525a329e0c02159","address":"119 W Main St","location":{"type":"Point","coordinates":[-97.2159576416016,34.7367172241211]},"isApproved":true,"items":[],"keys":["Pizza"],"lastUpdated":1547527612275,"name":"Pizza Shack","phone":"","price":"","reviewCount":1,"reviewScore":3,"meta":{"revision":0,"created":1547531150393,"version":0},"$loki":61},{"_id":"5c3d65bd3525a329e0c05864","address":"219 W Main St","location":{"type":"Point","coordinates":[-97.4098951,34.817541]},"isApproved":true,"items":[],"keys":["Mexican"],"lastUpdated":1547527612354,"name":"Restaurante Authentic Polos Mexican","phone":"(580) 332-0333","price":"","reviewCount":1,"reviewScore":5,"meta":{"revision":0,"created":1547531150393,"version":0},"$loki":62},{"_id":"5c3d65bd3525a329e0c01067","address":"26020 State Hwy 58","location":{"type":"Point","coordinates":[-97.4075052471327,34.8177706392785]},"isApproved":true,"items":[],"keys":["American (Traditional)"],"lastUpdated":1547527612238,"name":"Ann’s Country Kitchen","phone":"(580) 492-4087","price":"$$","reviewCount":44,"reviewScore":4,"meta":{"revision":0,"created":1547531150393,"version":0},"$loki":63},{"_id":"5c3d65bd3525a329e0c1ae4b","address":"1001 S Mississippi St","location":{"type":"Point","coordinates":[-97.4075052471327,34.8177706392785]},"isApproved":true,"items":[],"keys":["Mexican"],"lastUpdated":1547527612876,"name":"La Fiesta Mexican Restaurant","phone":"(580) 436-4768","price":"$$","reviewCount":16,"reviewScore":3,"meta":{"revision":0,"created":1547531150393,"version":0},"$loki":64},{"_id":"5c3d65bd3525a329e0c142b8","address":"869 E Veterans Memorial Hwy","location":{"type":"Point","coordinates":[-97.3600717857571,34.9309063500435]},"isApproved":true,"items":[],"keys":["Pizza"],"lastUpdated":1547527612713,"name":"Mazzios Italian Eatery","phone":"(405) 485-4664","price":"","reviewCount":3,"reviewScore":3,"meta":{"revision":0,"created":1547531150393,"version":0},"$loki":65},{"_id":"5c3d65bd3525a329e0c16c27","address":"902 W Petree","location":{"type":"Point","coordinates":[-97.3747277,34.9817394]},"isApproved":true,"items":[],"keys":["Fast Food","Burgers","Ice Cream & Frozen Yogurt"],"lastUpdated":1547527612774,"name":"Sonic Drive-In","phone":"(405) 247-9211","price":"$","reviewCount":1,"reviewScore":3,"meta":{"revision":0,"created":1547531150393,"version":0},"$loki":66},{"_id":"5c3d65bd3525a329e0c02b10","address":"7439 US Hwy 277","location":{"type":"Point","coordinates":[-97.3749187588692,34.9819336591932]},"isApproved":true,"items":[],"keys":["Sandwiches","Fast Food"],"lastUpdated":1547527612286,"name":"Subway","phone":"(580) 492-6800","price":"","reviewCount":5,"reviewScore":2.5,"meta":{"revision":0,"created":1547531150393,"version":0},"$loki":67},{"_id":"5c3d65bd3525a329e0c1120b","address":"12872 NE Keeney Rd","location":{"type":"Point","coordinates":[-97.3662290722132,34.9825303113893]},"isApproved":true,"items":[],"keys":["Bars","American (Traditional)"],"lastUpdated":1547527612642,"name":"Tiny Maes","phone":"(580) 492-1400","price":"$$","reviewCount":27,"reviewScore":3.5,"meta":{"revision":0,"created":1547531150393,"version":0},"$loki":68},{"_id":"5c3d65bd3525a329e0c12b65","address":"3720 Mow-Way Rd","location":{"type":"Point","coordinates":[-97.37154,34.98443]},"isApproved":true,"items":[],"keys":["American (New)"],"lastUpdated":1547527612680,"name":"Garcia Hall Dining Facility","phone":"","price":"$","reviewCount":3,"reviewScore":3.5,"meta":{"revision":0,"created":1547531150393,"version":0},"$loki":69},{"_id":"5c3d65bd3525a329e0c0423c","address":"2021 N Green Ave","location":{"type":"Point","coordinates":[-97.3706905,34.984979]},"isApproved":true,"items":[],"keys":["Italian"],"lastUpdated":1547527612321,"name":"Mazzio’s","phone":"(405) 527-8777","price":"$","reviewCount":3,"reviewScore":4.5,"meta":{"revision":0,"created":1547531150393,"version":0},"$loki":70},{"_id":"5c3d65bd3525a329e0c1aea8","address":"2425 State Hwy 74","location":{"type":"Point","coordinates":[-97.3678805,34.9884658]},"isApproved":true,"items":[],"keys":["Tex-Mex","Fast Food","Mexican"],"lastUpdated":1547527612876,"name":"Taco Bell","phone":"(405) 527-0688","price":"","reviewCount":12,"reviewScore":3,"meta":{"revision":0,"created":1547531150393,"version":0},"$loki":71},{"_id":"5c3d65bd3525a329e0bff436","address":"1438 S Green Ave","location":{"type":"Point","coordinates":[-97.368224,34.990577]},"isApproved":true,"items":[],"keys":["Pizza"],"lastUpdated":1547527612216,"name":"Jo’s Famous Pizza","phone":"(405) 527-2379","price":"$","reviewCount":32,"reviewScore":3.5,"meta":{"revision":0,"created":1547531150393,"version":0},"$loki":72},{"_id":"5c3d65bd3525a329e0c187df","address":"907 W 2nd St","location":{"type":"Point","coordinates":[-96.9557654,34.7969051296336]},"isApproved":true,"items":[],"keys":["Chinese"],"lastUpdated":1547527612821,"name":"Golden Lin Chinese Restaurant","phone":"(580) 622-3111","price":"$","reviewCount":7,"reviewScore":3.5,"meta":{"revision":0,"created":1547531150393,"version":0},"$loki":73},{"_id":"5c3d65bd3525a329e0c12494","address":"2415 W Grant Ave","location":{"type":"Point","coordinates":[-96.966794,34.796345]},"isApproved":true,"items":[],"keys":["Mexican"],"lastUpdated":1547527612670,"name":"Riviera Maya","phone":"(405) 238-2326","price":"$$","reviewCount":22,"reviewScore":3,"meta":{"revision":0,"created":1547531150393,"version":0},"$loki":74},{"_id":"5c3d65bd3525a329e0c01e4f","address":"Main St","location":{"type":"Point","coordinates":[-96.9657511264086,34.795574863572]},"isApproved":true,"items":[],"keys":["Cafes"],"lastUpdated":1547527612260,"name":"McGees Cafe","phone":"","price":"","reviewCount":5,"reviewScore":4.5,"meta":{"revision":0,"created":1547531150393,"version":0},"$loki":75}],"idIndex":[1,2,3,4,5,6,7,8,9,10,11,12,13,14,15,16,17,18,19,20,21,22,23,24,25,26,27,28,29,30,31,32,33,34,35,36,37,38,39,40,41,42,43,44,45,46,47,48,49,50,51,52,53,54,55,56,57,58,59,60,61,62,63,64,65,66,67,68,69,70,71,72,73,74,75],"binaryIndices":{},"constraints":null,"uniqueNames":[],"transforms":{},"objType":"restaurants","dirty":true,"cachedIndex":null,"cachedBinaryIndex":null,"cachedData":null,"adaptiveBinaryIndices":true,"transactional":false,"cloneObjects":false,"cloneMethod":"parse-stringify","asyncListeners":false,"disableMeta":false,"disableChangesApi":true,"disableDeltaChangesApi":true,"autoupdate":false,"serializableIndices":true,"ttl":null,"maxId":75,"DynamicViews":[],"events":{"insert":[],"update":[],"pre-insert":[],"pre-update":[],"close":[],"flushbuffer":[],"error":[],"delete":[null],"warning":[null]},"changes":[]}],"databaseVersion":1.5,"engineVersion":1.5,"autosave":false,"autosaveInterval":5000,"autosaveHandle":null,"throttledSaves":true,"options":{"serializationMethod":"normal","destructureDelimiter":"$<\n"},"persistenceMethod":"fs","persistenceAdapter":null,"verbose":false,"events":{"init":[null],"loaded":[],"flushChanges":[],"close":[],"changes":[],"warning":[]},"ENV":"NODEJS"}