{"filename":"-98-37.75","collections":[{"name":"restaurants","data":[{"_id":"5c3d65bd3525a329e0c033e4","address":"1824 E Hutchinson","location":{"type":"Point","coordinates":[-97.8942218154075,38.0578693147421]},"isApproved":true,"items":[],"keys":["Cafes"],"lastUpdated":1547527612302,"name":"Firehouse Cafe","phone":"(620) 669-8836","price":"$","reviewCount":30,"reviewScore":4.5,"meta":{"revision":0,"created":1547531147511,"version":0},"$loki":1},{"_id":"5c3d65bd3525a329e0c04b4f","address":"420 E 30th Ave","location":{"type":"Point","coordinates":[-97.906,38.0578999]},"isApproved":true,"items":[],"keys":["Mexican","Fast Food"],"lastUpdated":1547527612331,"name":"Taco John’s","phone":"(620) 259-7270","price":"$","reviewCount":5,"reviewScore":4,"meta":{"revision":0,"created":1547531147511,"version":0},"$loki":2},{"_id":"5c3d65bd3525a329e0c0a070","address":"125 West 4th","location":{"type":"Point","coordinates":[-97.9315161,38.0609744]},"isApproved":true,"items":[],"keys":["Pizza","Italian","Chicken Wings"],"lastUpdated":1547527612472,"name":"Pizza Hut","phone":"(620) 662-7788","price":"","reviewCount":1,"reviewScore":1,"meta":{"revision":0,"created":1547531147511,"version":0},"$loki":3},{"_id":"5c3d65bd3525a329e0c01c33","address":"309 N Main St","location":{"type":"Point","coordinates":[-97.9246797412634,38.0569748013246]},"isApproved":true,"items":[],"keys":["Mexican","Seafood"],"lastUpdated":1547527612258,"name":"Los Mariachis Mexican Restaurant","phone":"(620) 860-5404","price":"","reviewCount":3,"reviewScore":3.5,"meta":{"revision":0,"created":1547531147511,"version":0},"$loki":4},{"_id":"5c3d65bd3525a329e0c11e16","address":"247 Main St","location":{"type":"Point","coordinates":[-97.9183423519134,38.0571413824864]},"isApproved":true,"items":[],"keys":["Pizza"],"lastUpdated":1547527612661,"name":"D’Angelo’s Pizzeria","phone":"(316) 835-3598","price":"$","reviewCount":2,"reviewScore":2.5,"meta":{"revision":0,"created":1547531147511,"version":0},"$loki":5},{"_id":"5c3d65bd3525a329e0c0519f","address":"412 E 4th Ave","location":{"type":"Point","coordinates":[-97.9174,38.0574]},"isApproved":true,"items":[],"keys":["Mexican","Tex-Mex","Fast Food"],"lastUpdated":1547527612340,"name":"Taco Bell","phone":"(620) 665-8863","price":"$","reviewCount":2,"reviewScore":3.5,"meta":{"revision":0,"created":1547531147511,"version":0},"$loki":6},{"_id":"5c3d65bd3525a329e0c006fb","address":"700 E 4th St","location":{"type":"Point","coordinates":[-97.9171138,38.0576967]},"isApproved":true,"items":[],"keys":["Mexican"],"lastUpdated":1547527612227,"name":"Mi Tierra Restaurant And Cantina","phone":"(620) 662-6121","price":"$","reviewCount":24,"reviewScore":4.5,"meta":{"revision":0,"created":1547531147511,"version":0},"$loki":7},{"_id":"5c3d65bd3525a329e0c0e80c","address":"501 E 17th Ave","location":{"type":"Point","coordinates":[-97.9196026,38.0576313]},"isApproved":true,"items":[],"keys":["Pizza"],"lastUpdated":1547527612574,"name":"Papa John’s Pizza","phone":"(620) 665-7272","price":"","reviewCount":2,"reviewScore":5,"meta":{"revision":0,"created":1547531147511,"version":0},"$loki":8},{"_id":"5c3d65bd3525a329e0c0c0ad","address":"601 E 4th Ave","location":{"type":"Point","coordinates":[-97.9195657,38.0572964]},"isApproved":true,"items":[],"keys":["Mexican"],"lastUpdated":1547527612516,"name":"Antojitos Mexicanos El Barbas","phone":"(620) 669-8845","price":"$","reviewCount":18,"reviewScore":4,"meta":{"revision":0,"created":1547531147511,"version":0},"$loki":9},{"_id":"5c3d65bd3525a329e0c05502","address":"201 E Ave A","location":{"type":"Point","coordinates":[-97.9281052316437,38.0508201400564]},"isApproved":true,"items":[],"keys":["Burgers","American (Traditional)"],"lastUpdated":1547527612347,"name":"R-B Drive In","phone":"(620) 662-9713","price":"$","reviewCount":23,"reviewScore":4.5,"meta":{"revision":0,"created":1547531147511,"version":0},"$loki":10},{"_id":"5c3d65bd3525a329e0c08c8c","address":"128 S Main St","location":{"type":"Point","coordinates":[-97.9316247286385,38.0498896406973]},"isApproved":true,"items":[],"keys":["Mexican","Buffets"],"lastUpdated":1547527612436,"name":"Anchor Inn Mexican Restaurant","phone":"(620) 669-0311","price":"$$","reviewCount":24,"reviewScore":4,"meta":{"revision":0,"created":1547531147511,"version":0},"$loki":11},{"_id":"5c3d65bd3525a329e0c0528c","address":"9804 S Main St","location":{"type":"Point","coordinates":[-97.9314,38.0503232]},"isApproved":true,"items":[],"keys":["American (Traditional)","Cafes","Sandwiches"],"lastUpdated":1547527612346,"name":"The Second Table","phone":"(620) 465-2321","price":"","reviewCount":3,"reviewScore":2,"meta":{"revision":0,"created":1547531147511,"version":0},"$loki":12},{"_id":"5c3d65bd3525a329e0c05f12","address":"1400 E 30th Ave","location":{"type":"Point","coordinates":[-97.9289418,38.0575548]},"isApproved":true,"items":[],"keys":["Chinese"],"lastUpdated":1547527612367,"name":"Imperial Garden","phone":"(620) 663-6888","price":"","reviewCount":7,"reviewScore":3.5,"meta":{"revision":0,"created":1547531147511,"version":0},"$loki":13},{"_id":"5c3d65bd3525a329e0c0a8f9","address":"703 E 4th Ave","location":{"type":"Point","coordinates":[-97.9307723790407,38.0575787684263]},"isApproved":true,"items":[],"keys":["Fast Food","Chicken Wings","Chicken Shop"],"lastUpdated":1547527612482,"name":"KFC","phone":"(620) 663-5232","price":"$","reviewCount":1,"reviewScore":3,"meta":{"revision":0,"created":1547531147511,"version":0},"$loki":14},{"_id":"5c3d65bd3525a329e0c04c19","address":"20 E 4th St","location":{"type":"Point","coordinates":[-97.9310055,38.0562447]},"isApproved":true,"items":[],"keys":["Burgers","Fast Food","Coffee & Tea"],"lastUpdated":1547527612337,"name":"McDonald’s","phone":"(620) 665-5642","price":"","reviewCount":1,"reviewScore":5,"meta":{"revision":0,"created":1547531147511,"version":0},"$loki":15},{"_id":"5c3d65bd3525a329e0c00399","address":"216 N Main St","location":{"type":"Point","coordinates":[-97.9313884,38.0554384]},"isApproved":true,"items":[],"keys":["Wine Bars","Italian"],"lastUpdated":1547527612226,"name":"Jillian’s Grill & Wine Bar","phone":"(620) 663-8466","price":"$$","reviewCount":57,"reviewScore":4,"meta":{"revision":0,"created":1547531147511,"version":0},"$loki":16},{"_id":"5c3d65bd3525a329e0c19534","address":"1228 E 4th","location":{"type":"Point","coordinates":[-97.9322395,38.0567774]},"isApproved":true,"items":[],"keys":["Fast Food"],"lastUpdated":1547527612840,"name":"Mac’s Carry Out","phone":"(620) 669-8639","price":"","reviewCount":2,"reviewScore":4,"meta":{"revision":0,"created":1547531147511,"version":0},"$loki":17},{"_id":"5c3d65bd3525a329e0c0599d","address":"1710 N Waldron St","location":{"type":"Point","coordinates":[-97.9321969,38.0564899]},"isApproved":true,"items":[],"keys":["Sports Bars","American (Traditional)","Chicken Wings"],"lastUpdated":1547527612355,"name":"Buffalo Wild Wings","phone":"(620) 664-9022","price":"$$","reviewCount":12,"reviewScore":2.5,"meta":{"revision":0,"created":1547531147511,"version":0},"$loki":18},{"_id":"5c3d65bd3525a329e0c09bf1","address":"2500 N Main St","location":{"type":"Point","coordinates":[-97.9350905,38.0569537]},"isApproved":true,"items":[],"keys":["Chicken Wings","Pizza","Sandwiches"],"lastUpdated":1547527612465,"name":"Domino’s Pizza","phone":"(620) 259-7585","price":"$","reviewCount":10,"reviewScore":3,"meta":{"revision":0,"created":1547531147511,"version":0},"$loki":19},{"_id":"5c3d65bd3525a329e0c0fe6f","address":"103 N Main St","location":{"type":"Point","coordinates":[-97.9321969,38.0536997]},"isApproved":true,"items":[],"keys":["Bars","Delis"],"lastUpdated":1547527612609,"name":"Carl’s Bar & Delicatessen","phone":"(620) 662-9875","price":"$","reviewCount":18,"reviewScore":3.5,"meta":{"revision":0,"created":1547531147511,"version":0},"$loki":20},{"_id":"5c3d65bd3525a329e0c11182","address":"127 S Adams St","location":{"type":"Point","coordinates":[-97.9323671,38.0536472]},"isApproved":true,"items":[],"keys":["Mexican","Burgers"],"lastUpdated":1547527612641,"name":"Anchor Inn Restaurant","phone":"(620) 669-0311","price":"$","reviewCount":9,"reviewScore":3,"meta":{"revision":0,"created":1547531147511,"version":0},"$loki":21},{"_id":"5c3d65bd3525a329e0c18cc8","address":"25 N Main St","location":{"type":"Point","coordinates":[-97.9323092848063,38.0531752751107]},"isApproved":true,"items":[],"keys":["Barbeque"],"lastUpdated":1547527612825,"name":"The Hickory Stik","phone":"(620) 259-7222","price":"$","reviewCount":2,"reviewScore":5,"meta":{"revision":0,"created":1547531147511,"version":0},"$loki":22},{"_id":"5c3d65bd3525a329e0c0bd5c","address":"240 Main St","location":{"type":"Point","coordinates":[-97.9323034,38.0524398]},"isApproved":true,"items":[],"keys":["Restaurants"],"lastUpdated":1547527612515,"name":"Golden Harvest Restaurant","phone":"(316) 835-2500","price":"","reviewCount":1,"reviewScore":4,"meta":{"revision":0,"created":1547531147511,"version":0},"$loki":23},{"_id":"5c3d65bd3525a329e0c00c14","address":"126 W Ave A","location":{"type":"Point","coordinates":[-97.9331869194819,38.0512171395692]},"isApproved":true,"items":[],"keys":["Indian","Sandwiches"],"lastUpdated":1547527612230,"name":"Curry and Subz","phone":"(620) 860-5322","price":"","reviewCount":3,"reviewScore":5,"meta":{"revision":0,"created":1547531147511,"version":0},"$loki":24},{"_id":"5c3d65bd3525a329e0c0ef8c","address":"1700 E 17th Ave","location":{"type":"Point","coordinates":[-97.9408887,38.0581943]},"isApproved":true,"items":[],"keys":["Italian","Salad"],"lastUpdated":1547527612589,"name":"Olive Garden Italian Restaurant","phone":"(620) 728-0556","price":"$$","reviewCount":19,"reviewScore":4.5,"meta":{"revision":0,"created":1547531147511,"version":0},"$loki":25},{"_id":"5c3d65bd3525a329e0c01b1a","address":"1018 Nickerson Blvd","location":{"type":"Point","coordinates":[-97.951816,38.060298]},"isApproved":true,"items":[],"keys":["Barbeque"],"lastUpdated":1547527612258,"name":"Roy’s Hickory Pit Bar-B-Q","phone":"(620) 663-7421","price":"$$","reviewCount":58,"reviewScore":5,"meta":{"revision":0,"created":1547531147511,"version":0},"$loki":26},{"_id":"5c3d65bd3525a329e0c03716","address":"6803 W State Rd 61","location":{"type":"Point","coordinates":[-98.0336709,37.9955548]},"isApproved":true,"items":[],"keys":["American (Traditional)","Breakfast & Brunch"],"lastUpdated":1547527612304,"name":"Dutch Kitchen Restaurant","phone":"(620) 662-2554","price":"$","reviewCount":17,"reviewScore":4.5,"meta":{"revision":0,"created":1547531147511,"version":0},"$loki":27},{"_id":"5c3d65bd3525a329e0c0d3ff","address":"329 E 4th Ave","location":{"type":"Point","coordinates":[-97.9408444,38.0347814]},"isApproved":true,"items":[],"keys":["Chinese"],"lastUpdated":1547527612546,"name":"Best Asian","phone":"(620) 664-6666","price":"$","reviewCount":7,"reviewScore":4,"meta":{"revision":0,"created":1547531147511,"version":0},"$loki":28},{"_id":"5c3d65bd3525a329e0c0c90d","address":"2301 N Main St","location":{"type":"Point","coordinates":[-97.9417663,38.0085321]},"isApproved":true,"items":[],"keys":["Mexican"],"lastUpdated":1547527612526,"name":"El Potrillo Mexican Restaurant","phone":"(620) 664-9824","price":"$","reviewCount":12,"reviewScore":4,"meta":{"revision":0,"created":1547531147511,"version":0},"$loki":29},{"_id":"5c3d65bd3525a329e0c0093a","address":"1801 E 17th Ave","location":{"type":"Point","coordinates":[-97.9413533583283,38.0086381158584]},"isApproved":true,"items":[],"keys":["American (Traditional)","Bars","Tex-Mex"],"lastUpdated":1547527612229,"name":"Chili’s","phone":"(620) 669-8207","price":"$$","reviewCount":12,"reviewScore":2,"meta":{"revision":0,"created":1547531147511,"version":0},"$loki":30},{"_id":"5c3d65bd3525a329e0c067d3","address":"2928 N Main St","location":{"type":"Point","coordinates":[-97.9413248,38.0139781]},"isApproved":true,"items":[],"keys":["Seafood","Fast Food"],"lastUpdated":1547527612378,"name":"Long John Silver’s","phone":"(620) 663-7273","price":"$","reviewCount":2,"reviewScore":1.5,"meta":{"revision":0,"created":1547531147511,"version":0},"$loki":31},{"_id":"5c3d65bd3525a329e0c004e8","address":"1423 E 11th Ave","location":{"type":"Point","coordinates":[-97.939223,38.014942]},"isApproved":true,"items":[],"keys":["Fast Food","Sandwiches"],"lastUpdated":1547527612226,"name":"Arby’s","phone":"(620) 664-5294","price":"","reviewCount":3,"reviewScore":2,"meta":{"revision":0,"created":1547531147511,"version":0},"$loki":32},{"_id":"5c3d65bd3525a329e0c1a7bd","address":"901 E 30th Ave","location":{"type":"Point","coordinates":[-97.939706,38.023843]},"isApproved":true,"items":[],"keys":["Pizza"],"lastUpdated":1547527612867,"name":"Ken’s Pizza","phone":"(620) 669-9309","price":"$","reviewCount":16,"reviewScore":3.5,"meta":{"revision":0,"created":1547531147511,"version":0},"$loki":33},{"_id":"5c3d65bd3525a329e0c087d9","address":"10002 S Yoder Rd","location":{"type":"Point","coordinates":[-97.8662252,37.9389016]},"isApproved":true,"items":[],"keys":["American (Traditional)"],"lastUpdated":1547527612428,"name":"Carriage Crossing","phone":"(620) 465-3612","price":"$","reviewCount":70,"reviewScore":4,"meta":{"revision":0,"created":1547531147511,"version":0},"$loki":34},{"_id":"5c3d65bd3525a329e0c01e03","address":"1500 E 11th Ave","location":{"type":"Point","coordinates":[-97.8692800007556,37.9409154224592]},"isApproved":true,"items":[],"keys":["Mexican"],"lastUpdated":1547527612260,"name":"Flores Mexican Grill","phone":"","price":"","reviewCount":1,"reviewScore":5,"meta":{"revision":0,"created":1547531147511,"version":0},"$loki":35},{"_id":"5c3d65bd3525a329e0c0fdfe","address":"3408 E Red Rock Rd","location":{"type":"Point","coordinates":[-97.8697154,37.9414421]},"isApproved":true,"items":[],"keys":["Burgers","Salad","Sandwiches"],"lastUpdated":1547527612608,"name":"Bulls Eye Grill","phone":"(620) 465-2855","price":"","reviewCount":2,"reviewScore":4,"meta":{"revision":0,"created":1547531147511,"version":0},"$loki":36},{"_id":"5c3d65bd3525a329e0c108db","address":"104 E Main St","location":{"type":"Point","coordinates":[-98.1756898,37.8966901]},"isApproved":true,"items":[],"keys":["American (Traditional)","Breakfast & Brunch","Sandwiches"],"lastUpdated":1547527612625,"name":"Carolyn’s Essenhaus","phone":"(620) 538-4711","price":"$","reviewCount":10,"reviewScore":5,"meta":{"revision":0,"created":1547531147511,"version":0},"$loki":37},{"_id":"5c3d65bd3525a329e0c19f40","address":"1451 N Broadway St","location":{"type":"Point","coordinates":[-97.7814246,37.6277342]},"isApproved":true,"items":[],"keys":["Salad","Tacos","Sandwiches"],"lastUpdated":1547527612851,"name":"La Chinita Mexican Restaurant","phone":"(316) 267-1552","price":"$","reviewCount":24,"reviewScore":4,"meta":{"revision":0,"created":1547531147511,"version":0},"$loki":38},{"_id":"5c3d65bd3525a329e0c0b2dc","address":"12111 W Maple","location":{"type":"Point","coordinates":[-97.7825513,37.6300146]},"isApproved":true,"items":[],"keys":["Sushi Bars","Japanese"],"lastUpdated":1547527612498,"name":"Kanai","phone":"(316) 719-2929","price":"$$","reviewCount":104,"reviewScore":4,"meta":{"revision":0,"created":1547531147511,"version":0},"$loki":39},{"_id":"5c3d65bd3525a329e0c1adb0","address":"610 N Main St","location":{"type":"Point","coordinates":[-97.7815768495202,37.6324716790058]},"isApproved":true,"items":[],"keys":["American (Traditional)","Breakfast & Brunch","Burgers"],"lastUpdated":1547527612875,"name":"Benny’s Burgers & Shakes","phone":"(316) 542-9934","price":"$","reviewCount":2,"reviewScore":5,"meta":{"revision":0,"created":1547531147511,"version":0},"$loki":40},{"_id":"5c3d65bd3525a329e0c1331e","address":"106 N Main St","location":{"type":"Point","coordinates":[-97.7828150242567,37.9006970980826]},"isApproved":true,"items":[],"keys":["Cafes"],"lastUpdated":1547527612689,"name":"JT Cafe","phone":"","price":"$","reviewCount":3,"reviewScore":5,"meta":{"revision":0,"created":1547531147511,"version":0},"$loki":41}],"idIndex":[1,2,3,4,5,6,7,8,9,10,11,12,13,14,15,16,17,18,19,20,21,22,23,24,25,26,27,28,29,30,31,32,33,34,35,36,37,38,39,40,41],"binaryIndices":{},"constraints":null,"uniqueNames":[],"transforms":{},"objType":"restaurants","dirty":true,"cachedIndex":null,"cachedBinaryIndex":null,"cachedData":null,"adaptiveBinaryIndices":true,"transactional":false,"cloneObjects":false,"cloneMethod":"parse-stringify","asyncListeners":false,"disableMeta":false,"disableChangesApi":true,"disableDeltaChangesApi":true,"autoupdate":false,"serializableIndices":true,"ttl":null,"maxId":41,"DynamicViews":[],"events":{"insert":[],"update":[],"pre-insert":[],"pre-update":[],"close":[],"flushbuffer":[],"error":[],"delete":[null],"warning":[null]},"changes":[]}],"databaseVersion":1.5,"engineVersion":1.5,"autosave":false,"autosaveInterval":5000,"autosaveHandle":null,"throttledSaves":true,"options":{"serializationMethod":"normal","destructureDelimiter":"$<\n"},"persistenceMethod":"fs","persistenceAdapter":null,"verbose":false,"events":{"init":[null],"loaded":[],"flushChanges":[],"close":[],"changes":[],"warning":[]},"ENV":"NODEJS"}