{"filename":"-98.25-38.75","collections":[{"name":"restaurants","data":[{"_id":"5c3d65bd3525a329e0c0ae62","address":"2524 Ave E","location":{"type":"Point","coordinates":[-98.472262,38.827444]},"isApproved":true,"items":[],"keys":["Ice Cream & Frozen Yogurt","Cafes","American (Traditional)"],"lastUpdated":1547527612491,"name":"Grandma’s Soda Shop","phone":"(785) 658-2200","price":"$$","reviewCount":16,"reviewScore":4,"meta":{"revision":0,"created":1547531151376,"version":0},"$loki":1},{"_id":"5c3d65bd3525a329e0c1b007","address":"1320 S Fossil","location":{"type":"Point","coordinates":[-98.4753437,38.8250106]},"isApproved":true,"items":[],"keys":["Sandwiches","Fast Food"],"lastUpdated":1547527612876,"name":"Subway","phone":"(785) 483-5900","price":"$","reviewCount":9,"reviewScore":3,"meta":{"revision":0,"created":1547531151376,"version":0},"$loki":2},{"_id":"5c3d65bd3525a329e0c08fb4","address":"527 27th St","location":{"type":"Point","coordinates":[-98.4751366,38.8245191]},"isApproved":true,"items":[],"keys":["American (Traditional)","Buffets"],"lastUpdated":1547527612438,"name":"Made From Scratch","phone":"(785) 658-3300","price":"$","reviewCount":45,"reviewScore":4,"meta":{"revision":0,"created":1547531151376,"version":0},"$loki":3},{"_id":"5c3d65bd3525a329e0c139f7","address":"414 26th St","location":{"type":"Point","coordinates":[-98.4730672,38.8255618]},"isApproved":true,"items":[],"keys":["American (Traditional)","Wine Bars"],"lastUpdated":1547527612698,"name":"The Sample Room","phone":"(785) 658-2284","price":"","reviewCount":3,"reviewScore":4,"meta":{"revision":0,"created":1547531151376,"version":0},"$loki":4},{"_id":"5c3d65bd3525a329e0c0fdc3","address":"1312 Main St","location":{"type":"Point","coordinates":[-98.2302024,38.7280225]},"isApproved":true,"items":[],"keys":["Chinese"],"lastUpdated":1547527612608,"name":"Chinese Food Express","phone":"(785) 628-9999","price":"$$$","reviewCount":5,"reviewScore":4,"meta":{"revision":0,"created":1547531151376,"version":0},"$loki":5},{"_id":"5c3d65bd3525a329e0c00d11","address":"120 N Douglas Ave","location":{"type":"Point","coordinates":[-98.231237,38.729429]},"isApproved":true,"items":[],"keys":["American (Traditional)","Bars","Sandwiches"],"lastUpdated":1547527612236,"name":"Paden’s Place- Bar","phone":"(785) 472-4013","price":"$","reviewCount":6,"reviewScore":5,"meta":{"revision":0,"created":1547531151376,"version":0},"$loki":6},{"_id":"5c3d65bd3525a329e0c0f149","address":"3505 Vine St","location":{"type":"Point","coordinates":[-98.2306343,38.7298288]},"isApproved":true,"items":[],"keys":["Burgers","Ice Cream & Frozen Yogurt"],"lastUpdated":1547527612591,"name":"Freddy’s Frozen Custard & Steakburgers","phone":"(785) 621-4770","price":"$","reviewCount":52,"reviewScore":3.5,"meta":{"revision":0,"created":1547531151376,"version":0},"$loki":7},{"_id":"5c3d65bd3525a329e0c07a30","address":"606 West 15th St","location":{"type":"Point","coordinates":[-98.2354823706517,38.7401047427062]},"isApproved":true,"items":[],"keys":["Mexican","American (Traditional)"],"lastUpdated":1547527612409,"name":"El A De Oros","phone":"(785) 472-4128","price":"","reviewCount":4,"reviewScore":5,"meta":{"revision":0,"created":1547531151376,"version":0},"$loki":8},{"_id":"5c3d65bd3525a329e0c1425d","address":"2505 Vine St","location":{"type":"Point","coordinates":[-98.2165077,38.7419396]},"isApproved":true,"items":[],"keys":["Pizza","Chicken Wings","Sandwiches"],"lastUpdated":1547527612713,"name":"Domino’s Pizza","phone":"(785) 625-2311","price":"","reviewCount":2,"reviewScore":3.5,"meta":{"revision":0,"created":1547531151376,"version":0},"$loki":9},{"_id":"5c3d65bd3525a329e0c0f05c","address":"1416 Foster Rd","location":{"type":"Point","coordinates":[-98.21603,38.7393248]},"isApproved":true,"items":[],"keys":["Steakhouses","Breakfast & Brunch","Buffets"],"lastUpdated":1547527612590,"name":"Ellsworth Steak House","phone":"(785) 472-3043","price":"$$","reviewCount":13,"reviewScore":4,"meta":{"revision":0,"created":1547531151376,"version":0},"$loki":10},{"_id":"5c3d65bd3525a329e0c04052","address":"3380 Vine St","location":{"type":"Point","coordinates":[-98.2162996,38.7371525]},"isApproved":true,"items":[],"keys":["Ice Cream & Frozen Yogurt","Fast Food","Burgers"],"lastUpdated":1547527612320,"name":"A & W Restaurants","phone":"(785) 628-2742","price":"","reviewCount":4,"reviewScore":1.5,"meta":{"revision":0,"created":1547531151376,"version":0},"$loki":11},{"_id":"5c3d65bd3525a329e0c0ff29","address":"740 E 8th St","location":{"type":"Point","coordinates":[-98.1576842,38.7089876]},"isApproved":true,"items":[],"keys":["American (New)","Chicken Wings"],"lastUpdated":1547527612609,"name":"J D’s Country Style Chicken","phone":"(785) 625-3013","price":"$","reviewCount":9,"reviewScore":3,"meta":{"revision":0,"created":1547531151376,"version":0},"$loki":12}],"idIndex":[1,2,3,4,5,6,7,8,9,10,11,12],"binaryIndices":{},"constraints":null,"uniqueNames":[],"transforms":{},"objType":"restaurants","dirty":true,"cachedIndex":null,"cachedBinaryIndex":null,"cachedData":null,"adaptiveBinaryIndices":true,"transactional":false,"cloneObjects":false,"cloneMethod":"parse-stringify","asyncListeners":false,"disableMeta":false,"disableChangesApi":true,"disableDeltaChangesApi":true,"autoupdate":false,"serializableIndices":true,"ttl":null,"maxId":12,"DynamicViews":[],"events":{"insert":[],"update":[],"pre-insert":[],"pre-update":[],"close":[],"flushbuffer":[],"error":[],"delete":[null],"warning":[null]},"changes":[]}],"databaseVersion":1.5,"engineVersion":1.5,"autosave":false,"autosaveInterval":5000,"autosaveHandle":null,"throttledSaves":true,"options":{"serializationMethod":"normal","destructureDelimiter":"$<\n"},"persistenceMethod":"fs","persistenceAdapter":null,"verbose":false,"events":{"init":[null],"loaded":[],"flushChanges":[],"close":[],"changes":[],"warning":[]},"ENV":"NODEJS"}