{"filename":"-98.5-38.25","collections":[{"name":"restaurants","data":[{"_id":"5c3d65bd3525a329e0c13cb5","address":"807 10th St","location":{"type":"Point","coordinates":[-98.7474714,38.3611819]},"isApproved":true,"items":[],"keys":["American (Traditional)","Sandwiches"],"lastUpdated":1547527612705,"name":"Handlebar & Grill","phone":"(620) 603-6676","price":"$","reviewCount":5,"reviewScore":4,"meta":{"revision":0,"created":1547531150294,"version":0},"$loki":1},{"_id":"5c3d65bd3525a329e0c16c3d","address":"4909 10th St","location":{"type":"Point","coordinates":[-98.7468735,38.3581889]},"isApproved":true,"items":[],"keys":["Mexican"],"lastUpdated":1547527612774,"name":"Playa Azul Mexican Restaurant & Cantina","phone":"(620) 793-6788","price":"$","reviewCount":29,"reviewScore":4,"meta":{"revision":0,"created":1547531150294,"version":0},"$loki":2},{"_id":"5c3d65bd3525a329e0c0f319","address":"214 E Barton County Rd","location":{"type":"Point","coordinates":[-98.734894,38.3618933]},"isApproved":true,"items":[],"keys":["Mexican"],"lastUpdated":1547527612591,"name":"Kiowa Kitchen","phone":"(620) 793-9855","price":"","reviewCount":8,"reviewScore":3.5,"meta":{"revision":0,"created":1547531150294,"version":0},"$loki":3},{"_id":"5c3d65bd3525a329e0c14b8b","address":"1017-1099 10th St","location":{"type":"Point","coordinates":[-98.75149,38.361059]},"isApproved":true,"items":[],"keys":["Burgers","Fast Food"],"lastUpdated":1547527612729,"name":"Mr. Burger","phone":"","price":"$","reviewCount":5,"reviewScore":4.5,"meta":{"revision":0,"created":1547531150294,"version":0},"$loki":4},{"_id":"5c3d65bd3525a329e0c0c08a","address":"925 10th St","location":{"type":"Point","coordinates":[-98.7505039,38.3614243]},"isApproved":true,"items":[],"keys":["Breakfast & Brunch"],"lastUpdated":1547527612516,"name":"Granny’s Kitchen","phone":"(620) 793-7441","price":"$","reviewCount":7,"reviewScore":3.5,"meta":{"revision":0,"created":1547531150294,"version":0},"$loki":5},{"_id":"5c3d65bd3525a329e0c0fa2b","address":"1318 Kansas Ave","location":{"type":"Point","coordinates":[-98.7633049,38.3652215]},"isApproved":true,"items":[],"keys":["Japanese","Sushi Bars"],"lastUpdated":1547527612601,"name":"Mizumi","phone":"(620) 796-2221","price":"","reviewCount":4,"reviewScore":4,"meta":{"revision":0,"created":1547531150294,"version":0},"$loki":6},{"_id":"5c3d65bd3525a329e0c035c9","address":"2015 Lakin Ave","location":{"type":"Point","coordinates":[-98.766006231308,38.3642298519788]},"isApproved":true,"items":[],"keys":["Pizza","Sandwiches","Coffee & Tea"],"lastUpdated":1547527612303,"name":"Great Bend Coffee","phone":"(620) 603-6465","price":"$","reviewCount":10,"reviewScore":4.5,"meta":{"revision":0,"created":1547531150294,"version":0},"$loki":7},{"_id":"5c3d65bd3525a329e0c19346","address":"1309 Main St","location":{"type":"Point","coordinates":[-98.7655509,38.3648531]},"isApproved":true,"items":[],"keys":["Pizza"],"lastUpdated":1547527612834,"name":"Gambino’s Pizza","phone":"(620) 603-6272","price":"","reviewCount":11,"reviewScore":3,"meta":{"revision":0,"created":1547531150294,"version":0},"$loki":8},{"_id":"5c3d65bd3525a329e0c110d4","address":"2020 Forest Ave","location":{"type":"Point","coordinates":[-98.7662095,38.3657181]},"isApproved":true,"items":[],"keys":["Mexican"],"lastUpdated":1547527612641,"name":"Los DOS Potrillos","phone":"(620) 793-7585","price":"$$","reviewCount":3,"reviewScore":3.5,"meta":{"revision":0,"created":1547531150294,"version":0},"$loki":9},{"_id":"5c3d65bd3525a329e0c03f49","address":"2416 10th St","location":{"type":"Point","coordinates":[-98.7715044,38.3615726]},"isApproved":true,"items":[],"keys":["Mexican"],"lastUpdated":1547527612319,"name":"Mary’s Kitchen","phone":"(620) 792-2912","price":"","reviewCount":2,"reviewScore":4,"meta":{"revision":0,"created":1547531150294,"version":0},"$loki":10},{"_id":"5c3d65bd3525a329e0c11d81","address":"2520 10th St","location":{"type":"Point","coordinates":[-98.7729227,38.3615803]},"isApproved":true,"items":[],"keys":["Restaurants"],"lastUpdated":1547527612661,"name":"Leann’s Restaurant & Carryout","phone":"(620) 793-6491","price":"$","reviewCount":4,"reviewScore":4,"meta":{"revision":0,"created":1547531150294,"version":0},"$loki":11},{"_id":"5c3d65bd3525a329e0c07d05","address":"2920 10th St","location":{"type":"Point","coordinates":[-98.7793138,38.362223]},"isApproved":true,"items":[],"keys":["Sports Bars","American (Traditional)"],"lastUpdated":1547527612411,"name":"The Page","phone":"(620) 792-8700","price":"$$","reviewCount":21,"reviewScore":3.5,"meta":{"revision":0,"created":1547531150294,"version":0},"$loki":12},{"_id":"5c3d65bd3525a329e0c046cb","address":"3209 10th St","location":{"type":"Point","coordinates":[-98.782591,38.361436]},"isApproved":true,"items":[],"keys":["American (Traditional)","Sports Bars","Burgers"],"lastUpdated":1547527612329,"name":"Applebee’s Grill + Bar","phone":"(620) 792-8800","price":"$$","reviewCount":19,"reviewScore":2.5,"meta":{"revision":0,"created":1547531150294,"version":0},"$loki":13},{"_id":"5c3d65bd3525a329e0c00972","address":"3212 10th St","location":{"type":"Point","coordinates":[-98.7829512233973,38.3619751931383]},"isApproved":true,"items":[],"keys":["Mexican"],"lastUpdated":1547527612229,"name":"Maria’s Mexican Grill","phone":"(620) 792-2173","price":"$","reviewCount":6,"reviewScore":3.5,"meta":{"revision":0,"created":1547531150294,"version":0},"$loki":14},{"_id":"5c3d65bd3525a329e0c04c77","address":"3106 10th St","location":{"type":"Point","coordinates":[-98.7812676,38.3621128]},"isApproved":true,"items":[],"keys":["Mexican"],"lastUpdated":1547527612337,"name":"Great Bend Taco","phone":"(620) 793-5211","price":"$","reviewCount":5,"reviewScore":3.5,"meta":{"revision":0,"created":1547531150294,"version":0},"$loki":15},{"_id":"5c3d65bd3525a329e0c1574f","address":"3908 10th St","location":{"type":"Point","coordinates":[-98.7916457,38.3618274]},"isApproved":true,"items":[],"keys":["Restaurants"],"lastUpdated":1547527612746,"name":"Chosen Wok","phone":"(620) 796-2888","price":"$","reviewCount":9,"reviewScore":4,"meta":{"revision":0,"created":1547531150294,"version":0},"$loki":16},{"_id":"5c3d65bd3525a329e0c124c2","address":"3322 Railroad Ave","location":{"type":"Point","coordinates":[-98.7832735,38.3535956]},"isApproved":true,"items":[],"keys":["American (Traditional)"],"lastUpdated":1547527612670,"name":"The Rack Billiard Cafe","phone":"(620) 792-5851","price":"$$","reviewCount":9,"reviewScore":4,"meta":{"revision":0,"created":1547531150294,"version":0},"$loki":17},{"_id":"5c3d65bd3525a329e0c1499b","address":"5507 10th St","location":{"type":"Point","coordinates":[-98.8070212103125,38.3613634995412]},"isApproved":true,"items":[],"keys":["Food Trucks","Mexican"],"lastUpdated":1547527612728,"name":"Tacos Del Sol","phone":"(620) 796-2032","price":"$","reviewCount":3,"reviewScore":3.5,"meta":{"revision":0,"created":1547531150294,"version":0},"$loki":18},{"_id":"5c3d65bd3525a329e0c0f5ba","address":"230 S Patton Rd","location":{"type":"Point","coordinates":[-98.8108747291062,38.3477639929851]},"isApproved":true,"items":[],"keys":["Chinese","Asian Fusion"],"lastUpdated":1547527612598,"name":"Classic Inn","phone":"(620) 792-3100","price":"","reviewCount":3,"reviewScore":4.5,"meta":{"revision":0,"created":1547531150294,"version":0},"$loki":19},{"_id":"5c3d65bd3525a329e0c1b07a","address":"4705 10th St","location":{"type":"Point","coordinates":[-98.7996135,38.3614555]},"isApproved":true,"items":[],"keys":["Chinese","Buffets"],"lastUpdated":1547527612877,"name":"Great Wall Super Buffet","phone":"(620) 792-2898","price":"$$","reviewCount":8,"reviewScore":2.5,"meta":{"revision":0,"created":1547531150294,"version":0},"$loki":20},{"_id":"5c3d65bd3525a329e0c13b24","address":"1807 E 17th Ave","location":{"type":"Point","coordinates":[-98.5954926,37.9542759]},"isApproved":true,"items":[],"keys":["Breakfast & Brunch","American (Traditional)","Burgers"],"lastUpdated":1547527612699,"name":"IHOP","phone":"(620) 664-9438","price":"$","reviewCount":16,"reviewScore":2,"meta":{"revision":0,"created":1547531150294,"version":0},"$loki":21},{"_id":"5c3d65bd3525a329e0c0ffee","address":"120 E 4th Ave","location":{"type":"Point","coordinates":[-98.600523,37.9609305]},"isApproved":true,"items":[],"keys":["Fast Food"],"lastUpdated":1547527612609,"name":"Spangles","phone":"(620) 662-1600","price":"$$","reviewCount":3,"reviewScore":5,"meta":{"revision":0,"created":1547531150294,"version":0},"$loki":22},{"_id":"5c3d65bd3525a329e0c0ad8e","address":"1515 S Main","location":{"type":"Point","coordinates":[-98.600491,37.96193]},"isApproved":true,"items":[],"keys":["American (Traditional)"],"lastUpdated":1547527612490,"name":"Plaza Grill","phone":"","price":"","reviewCount":2,"reviewScore":2,"meta":{"revision":0,"created":1547531150294,"version":0},"$loki":23},{"_id":"5c3d65bd3525a329e0c02c4b","address":"1609 E 17th St","location":{"type":"Point","coordinates":[-98.7567418813705,38.0140563079352]},"isApproved":true,"items":[],"keys":["Sports Bars","Burgers","American (Traditional)"],"lastUpdated":1547527612293,"name":"Applebee’s Grill + Bar","phone":"(620) 665-5171","price":"$$","reviewCount":9,"reviewScore":3.5,"meta":{"revision":0,"created":1547531150294,"version":0},"$loki":24},{"_id":"5c3d65bd3525a329e0c01aae","address":"281 SE 56th Ave","location":{"type":"Point","coordinates":[-98.6717903,38.3203543]},"isApproved":true,"items":[],"keys":["Restaurants"],"lastUpdated":1547527612257,"name":"Mr Burger","phone":"(620) 793-3635","price":"$","reviewCount":1,"reviewScore":4,"meta":{"revision":0,"created":1547531150294,"version":0},"$loki":25},{"_id":"5c3d65bd3525a329e0c0eeeb","address":"4 Leonard Ct","location":{"type":"Point","coordinates":[-98.2068154,38.2062487]},"isApproved":true,"items":[],"keys":["Chinese"],"lastUpdated":1547527612583,"name":"Panda Kitchen","phone":"(620) 327-4029","price":"$$","reviewCount":15,"reviewScore":4,"meta":{"revision":0,"created":1547531150294,"version":0},"$loki":26},{"_id":"5c3d65bd3525a329e0c16eba","address":"1435 N Main St","location":{"type":"Point","coordinates":[-98.2070323,38.2090724]},"isApproved":true,"items":[],"keys":["American (New)"],"lastUpdated":1547527612781,"name":"Dq Grill & Chill","phone":"(620) 241-0933","price":"$","reviewCount":5,"reviewScore":3,"meta":{"revision":0,"created":1547531150294,"version":0},"$loki":27},{"_id":"5c3d65bd3525a329e0c08015","address":"216 N Maple St","location":{"type":"Point","coordinates":[-98.2136964797974,38.3479713002185]},"isApproved":true,"items":[],"keys":["Barbeque","Bakeries","Sandwiches"],"lastUpdated":1547527612419,"name":"Lavon’s Bakery & BBQ","phone":"(620) 543-2411","price":"$","reviewCount":3,"reviewScore":4.5,"meta":{"revision":0,"created":1547531150294,"version":0},"$loki":28},{"_id":"5c3d65bd3525a329e0c0081b","address":"1331 N Main St","location":{"type":"Point","coordinates":[-98.2140569,38.3473623]},"isApproved":true,"items":[],"keys":["Convenience Stores","Pizza"],"lastUpdated":1547527612228,"name":"Casey’s","phone":"(620) 245-9115","price":"","reviewCount":1,"reviewScore":1,"meta":{"revision":0,"created":1547531150294,"version":0},"$loki":29},{"_id":"5c3d65bd3525a329e0c15a32","address":"131 S Broadway Ave","location":{"type":"Point","coordinates":[-98.2126698642969,38.3474498829489]},"isApproved":true,"items":[],"keys":["American (Traditional)"],"lastUpdated":1547527612748,"name":"Sterling Cafe","phone":"(620) 278-3099","price":"$","reviewCount":1,"reviewScore":5,"meta":{"revision":0,"created":1547531150294,"version":0},"$loki":30},{"_id":"5c3d65bd3525a329e0c150c0","address":"705 E Lincoln Blvd","location":{"type":"Point","coordinates":[-98.2056207,38.3481017]},"isApproved":true,"items":[],"keys":["Burgers","Fast Food","Ice Cream & Frozen Yogurt"],"lastUpdated":1547527612737,"name":"Sonic Drive-In","phone":"(620) 327-0124","price":"","reviewCount":2,"reviewScore":3,"meta":{"revision":0,"created":1547531150294,"version":0},"$loki":31},{"_id":"5c3d65bd3525a329e0c118a1","address":"313 S Broadway Ave","location":{"type":"Point","coordinates":[-98.2060035,38.3488568]},"isApproved":true,"items":[],"keys":["Mexican"],"lastUpdated":1547527612650,"name":"Dos Amigos","phone":"(620) 278-2220","price":"$$","reviewCount":2,"reviewScore":4,"meta":{"revision":0,"created":1547531150294,"version":0},"$loki":32},{"_id":"5c3d65bd3525a329e0c14ce1","address":"610 N Main St","location":{"type":"Point","coordinates":[-98.203458,38.349022]},"isApproved":true,"items":[],"keys":["Burgers","Fast Food"],"lastUpdated":1547527612729,"name":"Wendy’s","phone":"(620) 241-0070","price":"$","reviewCount":2,"reviewScore":3.5,"meta":{"revision":0,"created":1547531150294,"version":0},"$loki":33},{"_id":"5c3d65bd3525a329e0bffbd8","address":"510 N Harrison St","location":{"type":"Point","coordinates":[-98.2038908,38.3479918]},"isApproved":true,"items":[],"keys":["Sandwiches","Fast Food"],"lastUpdated":1547527612221,"name":"Subway","phone":"(785) 227-8400","price":"","reviewCount":2,"reviewScore":2.5,"meta":{"revision":0,"created":1547531150294,"version":0},"$loki":34}],"idIndex":[1,2,3,4,5,6,7,8,9,10,11,12,13,14,15,16,17,18,19,20,21,22,23,24,25,26,27,28,29,30,31,32,33,34],"binaryIndices":{},"constraints":null,"uniqueNames":[],"transforms":{},"objType":"restaurants","dirty":true,"cachedIndex":null,"cachedBinaryIndex":null,"cachedData":null,"adaptiveBinaryIndices":true,"transactional":false,"cloneObjects":false,"cloneMethod":"parse-stringify","asyncListeners":false,"disableMeta":false,"disableChangesApi":true,"disableDeltaChangesApi":true,"autoupdate":false,"serializableIndices":true,"ttl":null,"maxId":34,"DynamicViews":[],"events":{"insert":[],"update":[],"pre-insert":[],"pre-update":[],"close":[],"flushbuffer":[],"error":[],"delete":[null],"warning":[null]},"changes":[]}],"databaseVersion":1.5,"engineVersion":1.5,"autosave":false,"autosaveInterval":5000,"autosaveHandle":null,"throttledSaves":true,"options":{"serializationMethod":"normal","destructureDelimiter":"$<\n"},"persistenceMethod":"fs","persistenceAdapter":null,"verbose":false,"events":{"init":[null],"loaded":[],"flushChanges":[],"close":[],"changes":[],"warning":[]},"ENV":"NODEJS"}