{"filename":"-99.25-34.75","collections":[{"name":"restaurants","data":[{"_id":"5c3d65bd3525a329e0c05b45","address":"6810 NW Cache Rd","location":{"type":"Point","coordinates":[-99.2089480538072,34.783674988428]},"isApproved":true,"items":[],"keys":["American (Traditional)","Burgers","Fast Food"],"lastUpdated":1547527612356,"name":"Wayne’s Drive Inn","phone":"(580) 536-9000","price":"$","reviewCount":24,"reviewScore":4.5,"meta":{"revision":0,"created":1547531147892,"version":0},"$loki":1},{"_id":"5c3d65bd3525a329e0c037e7","address":"2811 W 3rd St","location":{"type":"Point","coordinates":[-99.3046149238944,34.9049777504305]},"isApproved":true,"items":[],"keys":["Restaurants"],"lastUpdated":1547527612304,"name":"G’s Garden Restaurant","phone":"(580) 225-6540","price":"$$","reviewCount":5,"reviewScore":4.5,"meta":{"revision":0,"created":1547531147892,"version":0},"$loki":2},{"_id":"5c3d65bd3525a329e0c193dd","address":"101 1st St","location":{"type":"Point","coordinates":[-99.3816702,34.9579993]},"isApproved":true,"items":[],"keys":["American (Traditional)","Soul Food","Comfort Food"],"lastUpdated":1547527612840,"name":"The Team Grill","phone":"(580) 535-7031","price":"","reviewCount":2,"reviewScore":5,"meta":{"revision":0,"created":1547531147892,"version":0},"$loki":3},{"_id":"5c3d65bd3525a329e0bff9c4","address":"2710 W 3rd St","location":{"type":"Point","coordinates":[-99.502156,34.8869869]},"isApproved":true,"items":[],"keys":["Fast Food","Chicken Wings","Chicken Shop"],"lastUpdated":1547527612219,"name":"KFC","phone":"(580) 225-4125","price":"","reviewCount":6,"reviewScore":2.5,"meta":{"revision":0,"created":1547531147892,"version":0},"$loki":4},{"_id":"5c3d65bd3525a329e0c104ec","address":"1210 N Louis Tittle","location":{"type":"Point","coordinates":[-99.5017651,34.8853947]},"isApproved":true,"items":[],"keys":["Fast Food","Burgers","Ice Cream & Frozen Yogurt"],"lastUpdated":1547527612618,"name":"Sonic Drive-In","phone":"(580) 782-3333","price":"$","reviewCount":4,"reviewScore":4,"meta":{"revision":0,"created":1547531147892,"version":0},"$loki":5},{"_id":"5c3d65bd3525a329e0c16b45","address":"126 S Pennsylvania Ave","location":{"type":"Point","coordinates":[-99.5041553,34.8726262]},"isApproved":true,"items":[],"keys":["Restaurants"],"lastUpdated":1547527612773,"name":"Hamburger Inn","phone":"(580) 782-5254","price":"$","reviewCount":8,"reviewScore":4,"meta":{"revision":0,"created":1547531147892,"version":0},"$loki":6},{"_id":"5c3d65bd3525a329e0c0ee8b","address":"106 E Lincoln St","location":{"type":"Point","coordinates":[-99.5055219,34.8719661]},"isApproved":true,"items":[],"keys":["Diners","Breakfast & Brunch"],"lastUpdated":1547527612583,"name":"Jo’s Place","phone":"(580) 782-5434","price":"","reviewCount":2,"reviewScore":5,"meta":{"revision":0,"created":1547531147892,"version":0},"$loki":7},{"_id":"5c3d65bd3525a329e0c107e4","address":"1303 8th St","location":{"type":"Point","coordinates":[-99.1053117,35.0158892]},"isApproved":true,"items":[],"keys":["Delis","Meat Shops","Sandwiches"],"lastUpdated":1547527612619,"name":"A & K Meat Processing","phone":"(806) 447-5660","price":"","reviewCount":1,"reviewScore":5,"meta":{"revision":0,"created":1547531147892,"version":0},"$loki":8},{"_id":"5c3d65bd3525a329e0c144dc","address":"1009 S Park","location":{"type":"Point","coordinates":[-99.1053117,35.0158892]},"isApproved":true,"items":[],"keys":["Pizza","Italian","Chicken Wings"],"lastUpdated":1547527612714,"name":"Pizza Hut","phone":"(580) 726-3903","price":"$","reviewCount":6,"reviewScore":2.5,"meta":{"revision":0,"created":1547531147892,"version":0},"$loki":9},{"_id":"5c3d65bd3525a329e0c13888","address":"118 N Broadway","location":{"type":"Point","coordinates":[-99.0955976,35.0289549]},"isApproved":true,"items":[],"keys":["Restaurants"],"lastUpdated":1547527612698,"name":"Nuevo Leon","phone":"(580) 726-3299","price":"$","reviewCount":3,"reviewScore":2.5,"meta":{"revision":0,"created":1547531147892,"version":0},"$loki":10},{"_id":"5c3d65bd3525a329e0c0ab78","address":"","location":{"type":"Point","coordinates":[-99.0931317,35.0295009]},"isApproved":true,"items":[],"keys":["Mexican"],"lastUpdated":1547527612489,"name":"Mi Pueblo","phone":"(580) 530-9091","price":"","reviewCount":7,"reviewScore":4.5,"meta":{"revision":0,"created":1547531147892,"version":0},"$loki":11},{"_id":"5c3d65bd3525a329e0c1648d","address":"219 S Main St","location":{"type":"Point","coordinates":[-99.0934525,35.0264109]},"isApproved":true,"items":[],"keys":["American (New)"],"lastUpdated":1547527612764,"name":"Main Street Grill","phone":"(580) 726-6010","price":"$","reviewCount":6,"reviewScore":3.5,"meta":{"revision":0,"created":1547531147892,"version":0},"$loki":12},{"_id":"5c3d65bd3525a329e0c09eba","address":"214 S Main St","location":{"type":"Point","coordinates":[-99.092771,35.026513]},"isApproved":true,"items":[],"keys":["Diners","Cafes"],"lastUpdated":1547527612471,"name":"Kozy Diner","phone":"(580) 726-2876","price":"$","reviewCount":9,"reviewScore":4,"meta":{"revision":0,"created":1547531147892,"version":0},"$loki":13},{"_id":"5c3d65bd3525a329e0c19653","address":"104 E 4th St","location":{"type":"Point","coordinates":[-99.0926639,35.0242715]},"isApproved":true,"items":[],"keys":["Pizza","Italian","Sandwiches"],"lastUpdated":1547527612841,"name":"Hometown Pizza","phone":"(580) 726-2225","price":"$","reviewCount":5,"reviewScore":4,"meta":{"revision":0,"created":1547531147892,"version":0},"$loki":14},{"_id":"5c3d65bd3525a329e0c19960","address":"418 S Jefferson St","location":{"type":"Point","coordinates":[-99.0914323,35.0237027]},"isApproved":true,"items":[],"keys":["Restaurants"],"lastUpdated":1547527612843,"name":"Big-A Burger Drive Inn","phone":"(580) 726-5300","price":"$","reviewCount":3,"reviewScore":4.5,"meta":{"revision":0,"created":1547531147892,"version":0},"$loki":15},{"_id":"5c3d65bd3525a329e0c0454e","address":"117 W 5th","location":{"type":"Point","coordinates":[-99.0933664,35.023185]},"isApproved":true,"items":[],"keys":["Barbeque","American (Traditional)"],"lastUpdated":1547527612323,"name":"Frisco Creek Barbeque","phone":"(580) 726-2025","price":"$","reviewCount":9,"reviewScore":4,"meta":{"revision":0,"created":1547531147892,"version":0},"$loki":16},{"_id":"5c3d65bd3525a329e0c1379f","address":"701 E St","location":{"type":"Point","coordinates":[-98.952037,34.6586926]},"isApproved":true,"items":[],"keys":["Mexican","Pizza"],"lastUpdated":1547527612697,"name":"Pizza Express","phone":"(580) 569-2007","price":"$","reviewCount":1,"reviewScore":4,"meta":{"revision":0,"created":1547531147892,"version":0},"$loki":17},{"_id":"5c3d65bd3525a329e0c143f2","address":"1925 W Gore Blvd","location":{"type":"Point","coordinates":[-98.9482321,34.6530168]},"isApproved":true,"items":[],"keys":["American (Traditional)","Burgers"],"lastUpdated":1547527612714,"name":"Backporch Drafthouse","phone":"(580) 699-2990","price":"$$","reviewCount":277,"reviewScore":4.5,"meta":{"revision":0,"created":1547531147892,"version":0},"$loki":18},{"_id":"5c3d65bd3525a329e0c19262","address":"1907 NW Sheridan Rd","location":{"type":"Point","coordinates":[-98.9495197,34.6972906]},"isApproved":true,"items":[],"keys":["International Grocery","Seafood Markets","Filipino"],"lastUpdated":1547527612833,"name":"Global Food Market","phone":"(580) 248-4567","price":"","reviewCount":1,"reviewScore":5,"meta":{"revision":0,"created":1547531147892,"version":0},"$loki":19}],"idIndex":[1,2,3,4,5,6,7,8,9,10,11,12,13,14,15,16,17,18,19],"binaryIndices":{},"constraints":null,"uniqueNames":[],"transforms":{},"objType":"restaurants","dirty":true,"cachedIndex":null,"cachedBinaryIndex":null,"cachedData":null,"adaptiveBinaryIndices":true,"transactional":false,"cloneObjects":false,"cloneMethod":"parse-stringify","asyncListeners":false,"disableMeta":false,"disableChangesApi":true,"disableDeltaChangesApi":true,"autoupdate":false,"serializableIndices":true,"ttl":null,"maxId":19,"DynamicViews":[],"events":{"insert":[],"update":[],"pre-insert":[],"pre-update":[],"close":[],"flushbuffer":[],"error":[],"delete":[null],"warning":[null]},"changes":[]}],"databaseVersion":1.5,"engineVersion":1.5,"autosave":false,"autosaveInterval":5000,"autosaveHandle":null,"throttledSaves":true,"options":{"serializationMethod":"normal","destructureDelimiter":"$<\n"},"persistenceMethod":"fs","persistenceAdapter":null,"verbose":false,"events":{"init":[null],"loaded":[],"flushChanges":[],"close":[],"changes":[],"warning":[]},"ENV":"NODEJS"}